{
  "version": 0.6,
  "generator": "Overpass API 0.7.62.8 e802775f",
  "osm3s": {
    "timestamp_osm_base": "2025-10-23T19:49:24Z",
    "copyright": "The data included in this document is from www.openstreetmap.org. The data is made available under ODbL."
  },
  "elements": [
    {
      "type": "node",
      "id": 340194933,
      "lat": 4.8399314,
      "lon": -74.0312219,
      "timestamp": "2011-01-08T22:03:49Z",
      "version": 2,
      "changeset": 6909587,
      "user": "rcastib",
      "uid": 133835,
      "tags": {
        "amenity": "pub",
        "name": "Aguapanelas"
      }
    },
    {
      "type": "node",
      "id": 361325413,
      "lat": 4.7127148,
      "lon": -74.071167,
      "timestamp": "2011-07-08T01:56:47Z",
      "version": 5,
      "changeset": 8662551,
      "user": "narutero",
      "uid": 482999,
      "tags": {
        "amenity": "bar",
        "level": "1",
        "name": "Hollywood"
      }
    },
    {
      "type": "node",
      "id": 365118052,
      "lat": 6.2446856,
      "lon": -75.5766329,
      "timestamp": "2012-08-03T21:00:19Z",
      "version": 2,
      "changeset": 12603068,
      "user": "dbusse",
      "uid": 149876,
      "tags": {
        "amenity": "pub"
      }
    },
    {
      "type": "node",
      "id": 373288855,
      "lat": 4.667793,
      "lon": -74.0535672,
      "timestamp": "2022-09-14T18:01:19Z",
      "version": 10,
      "changeset": 126193103,
      "user": "jgvrxiv",
      "uid": 16938803,
      "tags": {
        "addr:housenumber": "83-48",
        "addr:street": "Carrera 12A",
        "amenity": "pub",
        "name": "El Irish",
        "theme": "irish"
      }
    },
    {
      "type": "node",
      "id": 441028042,
      "lat": 4.6806323,
      "lon": -74.0476341,
      "timestamp": "2011-12-20T23:10:58Z",
      "version": 4,
      "changeset": 10163021,
      "user": "wheelmap_visitor",
      "uid": 290680,
      "tags": {
        "amenity": "pub",
        "name": "Gaira",
        "wheelchair": "yes"
      }
    },
    {
      "type": "node",
      "id": 465162169,
      "lat": 6.2075615,
      "lon": -75.5679974,
      "timestamp": "2009-08-14T04:04:20Z",
      "version": 1,
      "changeset": 2138142,
      "user": "Álvaro Salazar",
      "uid": 89154,
      "tags": {
        "amenity": "bar",
        "name": "Triada"
      }
    },
    {
      "type": "node",
      "id": 465162492,
      "lat": 6.2076127,
      "lon": -75.5679803,
      "timestamp": "2009-08-14T04:05:11Z",
      "version": 3,
      "changeset": 2138142,
      "user": "Álvaro Salazar",
      "uid": 89154,
      "tags": {
        "amenity": "bar",
        "name": "Discoteca Oz"
      }
    },
    {
      "type": "node",
      "id": 465164256,
      "lat": 6.2084831,
      "lon": -75.5677829,
      "timestamp": "2009-08-14T04:13:20Z",
      "version": 2,
      "changeset": 2138142,
      "user": "Álvaro Salazar",
      "uid": 89154,
      "tags": {
        "amenity": "bar",
        "name": "Barcelona Restaurante Bar"
      }
    },
    {
      "type": "node",
      "id": 465164659,
      "lat": 6.2088671,
      "lon": -75.5671048,
      "timestamp": "2009-08-14T04:14:17Z",
      "version": 1,
      "changeset": 2138142,
      "user": "Álvaro Salazar",
      "uid": 89154,
      "tags": {
        "amenity": "bar",
        "name": "Thaico"
      }
    },
    {
      "type": "node",
      "id": 465165011,
      "lat": 6.2091643,
      "lon": -75.5687571,
      "timestamp": "2009-08-29T19:32:40Z",
      "version": 2,
      "changeset": 2304728,
      "user": "Álvaro Salazar",
      "uid": 89154,
      "tags": {
        "amenity": "bar",
        "name": "Tropical Cocktails"
      }
    },
    {
      "type": "node",
      "id": 469490849,
      "lat": 4.6666085,
      "lon": -74.0551827,
      "timestamp": "2024-03-01T03:14:54Z",
      "version": 2,
      "changeset": 148078831,
      "user": "osm972",
      "uid": 122547,
      "tags": {
        "amenity": "pub",
        "name": "Rock Garden Pub"
      }
    },
    {
      "type": "node",
      "id": 473858659,
      "lat": 4.6892913,
      "lon": -74.069395,
      "timestamp": "2019-05-20T01:40:53Z",
      "version": 3,
      "changeset": 70423639,
      "user": "ikks",
      "uid": 37987,
      "tags": {
        "amenity": "bar",
        "name": "Dublin Irish Pub"
      }
    },
    {
      "type": "node",
      "id": 494477655,
      "lat": 4.9203976,
      "lon": -73.9124529,
      "timestamp": "2009-09-12T21:33:11Z",
      "version": 1,
      "changeset": 2462566,
      "user": "Hector Londono",
      "uid": 121209,
      "tags": {
        "amenity": "pub",
        "name": "Caseta Aguila"
      }
    },
    {
      "type": "node",
      "id": 494508835,
      "lat": 4.9266748,
      "lon": -73.8832256,
      "timestamp": "2011-02-11T12:47:08Z",
      "version": 3,
      "changeset": 7254890,
      "user": "wieland",
      "uid": 31075,
      "tags": {
        "amenity": "pub",
        "name": "Cerveza y tejo en Cometas"
      }
    },
    {
      "type": "node",
      "id": 494763341,
      "lat": 4.7403869,
      "lon": -74.0430462,
      "timestamp": "2009-09-21T02:04:49Z",
      "version": 2,
      "changeset": 2552993,
      "user": "Hector Londono",
      "uid": 121209,
      "tags": {
        "amenity": "pub",
        "name": "Eva, Tati"
      }
    },
    {
      "type": "node",
      "id": 505194443,
      "lat": 5.8281329,
      "lon": -73.0321927,
      "timestamp": "2025-08-23T13:46:38Z",
      "version": 4,
      "changeset": 170881750,
      "user": "Esneider Castro",
      "uid": 15124928,
      "tags": {
        "amenity": "pub"
      }
    },
    {
      "type": "node",
      "id": 529121098,
      "lat": 5.5529814,
      "lon": -73.6804692,
      "timestamp": "2009-10-11T23:29:14Z",
      "version": 1,
      "changeset": 2820906,
      "user": "humano",
      "uid": 31941,
      "tags": {
        "amenity": "bar",
        "name": "Campo Hermoso"
      }
    },
    {
      "type": "node",
      "id": 529126855,
      "lat": 5.5359945,
      "lon": -73.6900132,
      "timestamp": "2009-10-12T00:00:54Z",
      "version": 1,
      "changeset": 2821069,
      "user": "humano",
      "uid": 31941,
      "tags": {
        "amenity": "bar"
      }
    },
    {
      "type": "node",
      "id": 582617954,
      "lat": 5.0541217,
      "lon": -75.4819736,
      "timestamp": "2021-03-12T09:16:20Z",
      "version": 9,
      "changeset": 100894605,
      "user": "rocky2109",
      "uid": 11663524,
      "tags": {
        "amenity": "bar",
        "name": "Bar Celona"
      }
    },
    {
      "type": "node",
      "id": 585184744,
      "lat": 4.8173657,
      "lon": -73.6384114,
      "timestamp": "2009-12-10T15:13:37Z",
      "version": 1,
      "changeset": 3342494,
      "user": "morray",
      "uid": 91790,
      "tags": {
        "amenity": "pub"
      }
    },
    {
      "type": "node",
      "id": 585184747,
      "lat": 4.8177035,
      "lon": -73.6365447,
      "timestamp": "2009-12-10T15:13:37Z",
      "version": 1,
      "changeset": 3342494,
      "user": "morray",
      "uid": 91790,
      "tags": {
        "amenity": "pub"
      }
    },
    {
      "type": "node",
      "id": 585184751,
      "lat": 4.8172545,
      "lon": -73.6354612,
      "timestamp": "2024-03-31T23:36:20Z",
      "version": 2,
      "changeset": 149411406,
      "user": "Oscarín Orbitus",
      "uid": 1857063,
      "tags": {
        "amenity": "pub"
      }
    },
    {
      "type": "node",
      "id": 587580637,
      "lat": 7.9076116,
      "lon": -72.5036066,
      "timestamp": "2011-10-11T15:55:02Z",
      "version": 2,
      "changeset": 9531552,
      "user": "punkadiddle",
      "uid": 152973,
      "tags": {
        "amenity": "pub",
        "name": "Plaza de Ferias"
      }
    },
    {
      "type": "node",
      "id": 595803379,
      "lat": 4.6766117,
      "lon": -74.0508866,
      "timestamp": "2011-12-20T23:09:50Z",
      "version": 2,
      "changeset": 10163021,
      "user": "wheelmap_visitor",
      "uid": 290680,
      "tags": {
        "amenity": "bar",
        "name": "La Vasca",
        "wheelchair": "limited"
      }
    },
    {
      "type": "node",
      "id": 601508366,
      "lat": 5.0608267,
      "lon": -75.489305,
      "timestamp": "2023-01-30T19:23:43Z",
      "version": 4,
      "changeset": 131893936,
      "user": "osm972",
      "uid": 122547,
      "tags": {
        "addr:city": "Manizales",
        "addr:housenumber": "59-10",
        "addr:street": "Avenida Santander",
        "amenity": "bar",
        "name": "Macondo Café Rock Cultural"
      }
    },
    {
      "type": "node",
      "id": 601728470,
      "lat": 4.818155,
      "lon": -73.6370489,
      "timestamp": "2009-12-31T00:31:30Z",
      "version": 1,
      "changeset": 3495344,
      "user": "morray",
      "uid": 91790,
      "tags": {
        "amenity": "pub"
      }
    },
    {
      "type": "node",
      "id": 601728471,
      "lat": 4.8180827,
      "lon": -73.6808911,
      "timestamp": "2009-12-31T00:31:30Z",
      "version": 1,
      "changeset": 3495344,
      "user": "morray",
      "uid": 91790,
      "tags": {
        "amenity": "pub"
      }
    },
    {
      "type": "node",
      "id": 601728472,
      "lat": 4.817297,
      "lon": -73.6817801,
      "timestamp": "2009-12-31T00:31:31Z",
      "version": 1,
      "changeset": 3495344,
      "user": "morray",
      "uid": 91790,
      "tags": {
        "amenity": "pub"
      }
    },
    {
      "type": "node",
      "id": 605732499,
      "lat": 4.6524191,
      "lon": -74.0915126,
      "timestamp": "2019-04-06T16:16:51Z",
      "version": 4,
      "changeset": 68955964,
      "user": "Federico Explorador",
      "uid": 293454,
      "tags": {
        "amenity": "pub",
        "internet_access": "wlan",
        "internet_access:fee": "no",
        "name": "Taberna de Nes",
        "opening_hours": "Mo-Fr 08:30-20:00",
        "operator": "paconet",
        "smoking": "isolated",
        "wheelchair": "no"
      }
    },
    {
      "type": "node",
      "id": 607764996,
      "lat": 5.5323066,
      "lon": -73.3603194,
      "timestamp": "2011-10-13T04:24:30Z",
      "version": 3,
      "changeset": 9544134,
      "user": "WingedStone",
      "uid": 35018,
      "tags": {
        "amenity": "pub",
        "name": "Queens Gay"
      }
    },
    {
      "type": "node",
      "id": 611388300,
      "lat": 4.7207089,
      "lon": -74.1216163,
      "timestamp": "2010-01-10T23:33:51Z",
      "version": 1,
      "changeset": 3592534,
      "user": "harriercoold",
      "uid": 73889,
      "tags": {
        "amenity": "pub",
        "name": "Bull Rock"
      }
    },
    {
      "type": "node",
      "id": 611523526,
      "lat": 5.0479969,
      "lon": -75.5052734,
      "timestamp": "2024-05-28T07:48:15Z",
      "version": 6,
      "changeset": 151930657,
      "user": "gscholz",
      "uid": 109705,
      "tags": {
        "amenity": "bar"
      }
    },
    {
      "type": "node",
      "id": 613270302,
      "lat": 4.762758,
      "lon": -75.1293891,
      "timestamp": "2010-01-14T00:29:19Z",
      "version": 1,
      "changeset": 3614406,
      "user": "humano",
      "uid": 31941,
      "tags": {
        "amenity": "bar",
        "name": "Billar"
      }
    },
    {
      "type": "node",
      "id": 615905402,
      "lat": 5.0573388,
      "lon": -75.4868819,
      "timestamp": "2018-01-15T04:01:05Z",
      "version": 2,
      "changeset": 55449292,
      "user": "rinsilver22",
      "uid": 7471032,
      "tags": {
        "amenity": "bar",
        "name": "Juan Sebastián Bar"
      }
    },
    {
      "type": "node",
      "id": 629563236,
      "lat": 4.6101363,
      "lon": -74.0957281,
      "timestamp": "2010-02-04T22:26:49Z",
      "version": 1,
      "changeset": 3794169,
      "user": "harriercoold",
      "uid": 73889,
      "tags": {
        "amenity": "pub",
        "name": "Bodegas del Rhin"
      }
    },
    {
      "type": "node",
      "id": 629768573,
      "lat": 5.6341909,
      "lon": -73.5223642,
      "timestamp": "2010-02-04T23:52:42Z",
      "version": 1,
      "changeset": 3794869,
      "user": "harriercoold",
      "uid": 73889,
      "tags": {
        "amenity": "bar"
      }
    },
    {
      "type": "node",
      "id": 629768610,
      "lat": 5.63456,
      "lon": -73.5219284,
      "timestamp": "2019-04-23T00:13:34Z",
      "version": 2,
      "changeset": 69470565,
      "user": "Federico Explorador",
      "uid": 293454,
      "tags": {
        "amenity": "bar",
        "name": "La Cava del re"
      }
    },
    {
      "type": "node",
      "id": 650335743,
      "lat": 4.6735711,
      "lon": -74.0195956,
      "timestamp": "2010-02-22T13:33:28Z",
      "version": 1,
      "changeset": 3943450,
      "user": "bogotanomap",
      "uid": 233402,
      "tags": {
        "amenity": "bar",
        "name": "San Uriel"
      }
    },
    {
      "type": "node",
      "id": 650336625,
      "lat": 4.6681176,
      "lon": -74.0128579,
      "timestamp": "2010-02-22T13:34:11Z",
      "version": 1,
      "changeset": 3943450,
      "user": "bogotanomap",
      "uid": 233402,
      "tags": {
        "amenity": "bar",
        "name": "Compostela"
      }
    },
    {
      "type": "node",
      "id": 663118620,
      "lat": 5.0563949,
      "lon": -75.4853621,
      "timestamp": "2010-03-09T02:22:00Z",
      "version": 1,
      "changeset": 4077853,
      "user": "santiagoarboledam",
      "uid": 243491,
      "tags": {
        "amenity": "bar",
        "name": "Tiraparriba"
      }
    },
    {
      "type": "node",
      "id": 663526088,
      "lat": 4.9227449,
      "lon": -75.064099,
      "timestamp": "2019-11-28T22:40:57Z",
      "version": 4,
      "changeset": 77700423,
      "user": "oscar javier giraldo",
      "uid": 9264575,
      "tags": {
        "amenity": "bar",
        "name": "La Toscana"
      }
    },
    {
      "type": "node",
      "id": 676404985,
      "lat": 4.6181826,
      "lon": -74.0691435,
      "timestamp": "2010-03-28T01:23:50Z",
      "version": 1,
      "changeset": 4252332,
      "user": "OMNIBUS",
      "uid": 223444,
      "tags": {
        "amenity": "bar"
      }
    },
    {
      "type": "node",
      "id": 678458450,
      "lat": 4.6410766,
      "lon": -74.0756507,
      "timestamp": "2010-03-30T12:24:48Z",
      "version": 1,
      "changeset": 4276097,
      "user": "harriercoold",
      "uid": 73889,
      "tags": {
        "amenity": "bar"
      }
    },
    {
      "type": "node",
      "id": 701658529,
      "lat": 8.6278061,
      "lon": -71.1412193,
      "timestamp": "2011-01-02T02:39:41Z",
      "version": 3,
      "changeset": 6834712,
      "user": "AMarcucciS",
      "uid": 336538,
      "tags": {
        "amenity": "pub",
        "name": "Le Petit Paris"
      }
    },
    {
      "type": "node",
      "id": 702749951,
      "lat": 8.6303327,
      "lon": -71.1456678,
      "timestamp": "2010-08-08T12:53:58Z",
      "version": 3,
      "changeset": 5432669,
      "user": "hernanr",
      "uid": 120518,
      "tags": {
        "amenity": "pub",
        "name": "El Mar"
      }
    },
    {
      "type": "node",
      "id": 705047738,
      "lat": 8.5756401,
      "lon": -71.1732699,
      "timestamp": "2023-01-14T12:35:37Z",
      "version": 2,
      "changeset": 131263204,
      "user": "Friendly_Ghost",
      "uid": 10875409,
      "tags": {
        "amenity": "pub",
        "name": "La Patana",
        "source": "Calgary Area Trail Mapping Project"
      }
    },
    {
      "type": "node",
      "id": 757215646,
      "lat": 2.6645548,
      "lon": -75.5179449,
      "timestamp": "2010-05-29T18:57:55Z",
      "version": 1,
      "changeset": 4845522,
      "user": "humano",
      "uid": 31941,
      "tags": {
        "amenity": "biergarten",
        "name": "Moe's bar"
      }
    },
    {
      "type": "node",
      "id": 773612659,
      "lat": 8.9098946,
      "lon": -79.5206172,
      "timestamp": "2010-06-16T12:21:52Z",
      "version": 1,
      "changeset": 5000152,
      "user": "CMontiel",
      "uid": 304623,
      "tags": {
        "amenity": "pub",
        "name": "Bucaneros"
      }
    },
    {
      "type": "node",
      "id": 821377377,
      "lat": 4.4379236,
      "lon": -75.1870482,
      "timestamp": "2010-07-17T04:32:01Z",
      "version": 1,
      "changeset": 5239193,
      "user": "johnadmon",
      "uid": 320290,
      "tags": {
        "amenity": "bar",
        "name": "Arkaniza"
      }
    },
    {
      "type": "node",
      "id": 821378526,
      "lat": 4.4349164,
      "lon": -75.1865956,
      "timestamp": "2013-12-16T08:11:51Z",
      "version": 2,
      "changeset": 19477660,
      "user": "alguien o algo",
      "uid": 1844605,
      "tags": {
        "amenity": "pub",
        "name": "Bar La Escalera"
      }
    },
    {
      "type": "node",
      "id": 821378638,
      "lat": 4.4353537,
      "lon": -75.1865322,
      "timestamp": "2015-02-21T04:31:40Z",
      "version": 2,
      "changeset": 28991265,
      "user": "Hammerh5",
      "uid": 527027,
      "tags": {
        "amenity": "pub",
        "name": "Canchas De Tejo"
      }
    },
    {
      "type": "node",
      "id": 825440980,
      "lat": 4.4413023,
      "lon": -75.2401198,
      "timestamp": "2021-01-06T14:05:03Z",
      "version": 17,
      "changeset": 97054334,
      "user": "Difero1027",
      "uid": 6735005,
      "tags": {
        "amenity": "pub",
        "check_date:opening_hours": "2021-01-06",
        "name": "Girasoles",
        "opening_hours": "Mo-Su,PH 08:00-19:00"
      }
    },
    {
      "type": "node",
      "id": 829620041,
      "lat": 7.8351373,
      "lon": -72.4709782,
      "timestamp": "2021-11-13T20:09:12Z",
      "version": 4,
      "changeset": 113743808,
      "user": "AnyelaLeón",
      "uid": 14178823,
      "tags": {
        "amenity": "bar",
        "name": "maderos bar"
      }
    },
    {
      "type": "node",
      "id": 830671838,
      "lat": 7.8829554,
      "lon": -72.4951352,
      "timestamp": "2025-02-23T00:29:52Z",
      "version": 9,
      "changeset": 162835932,
      "user": "AngocA",
      "uid": 89128,
      "tags": {
        "amenity": "pub",
        "name": "Los Caobos",
        "place": "neighbourhood",
        "wikidata": "Q5979468",
        "wikipedia": "es:Los Caobos"
      }
    },
    {
      "type": "node",
      "id": 834798249,
      "lat": 4.654145,
      "lon": -74.0538029,
      "timestamp": "2024-04-13T01:46:16Z",
      "version": 8,
      "changeset": 149933547,
      "user": "LaserSquirrel",
      "uid": 19973833,
      "tags": {
        "amenity": "pub",
        "branch": "Rosales",
        "brand:wikidata": "Q11961765",
        "brand:wikipedia": "es:Bogotá Beer Company",
        "contact:instagram": "https://www.instagram.com/bogotabeercompany/",
        "name": "Bogota Beer Company",
        "website": "https://www.bbccerveceria.com/"
      }
    },
    {
      "type": "node",
      "id": 834803644,
      "lat": 4.6413342,
      "lon": -74.0761716,
      "timestamp": "2019-01-17T12:04:34Z",
      "version": 2,
      "changeset": 66393452,
      "user": "chachafish",
      "uid": 2237750,
      "tags": {
        "amenity": "bar",
        "name": "Beerland"
      }
    },
    {
      "type": "node",
      "id": 834803646,
      "lat": 4.641762,
      "lon": -74.0758712,
      "timestamp": "2010-07-26T23:54:28Z",
      "version": 1,
      "changeset": 5325487,
      "user": "Gallor",
      "uid": 314898,
      "tags": {
        "amenity": "bar",
        "name": "Colombian Pub"
      }
    },
    {
      "type": "node",
      "id": 834803647,
      "lat": 4.6415802,
      "lon": -74.0759087,
      "timestamp": "2010-07-26T23:54:28Z",
      "version": 1,
      "changeset": 5325487,
      "user": "Gallor",
      "uid": 314898,
      "tags": {
        "amenity": "bar",
        "name": "Villanueva"
      }
    },
    {
      "type": "node",
      "id": 834803649,
      "lat": 4.6418903,
      "lon": -74.0760536,
      "timestamp": "2019-01-17T12:04:34Z",
      "version": 2,
      "changeset": 66393452,
      "user": "chachafish",
      "uid": 2237750,
      "tags": {
        "amenity": "bar",
        "name": "Margaritas"
      }
    },
    {
      "type": "node",
      "id": 834803650,
      "lat": 4.6417727,
      "lon": -74.076075,
      "timestamp": "2019-01-17T12:04:34Z",
      "version": 2,
      "changeset": 66393452,
      "user": "chachafish",
      "uid": 2237750,
      "tags": {
        "amenity": "bar",
        "name": "Kabala"
      }
    },
    {
      "type": "node",
      "id": 834803651,
      "lat": 4.6416283,
      "lon": -74.0761072,
      "timestamp": "2010-07-26T23:54:28Z",
      "version": 1,
      "changeset": 5325487,
      "user": "Gallor",
      "uid": 314898,
      "tags": {
        "amenity": "bar",
        "name": "PLAZA JUAREZ"
      }
    },
    {
      "type": "node",
      "id": 834803652,
      "lat": 4.6414786,
      "lon": -74.0761394,
      "timestamp": "2019-01-17T12:04:34Z",
      "version": 2,
      "changeset": 66393452,
      "user": "chachafish",
      "uid": 2237750,
      "tags": {
        "amenity": "bar",
        "name": "Kandelaria"
      }
    },
    {
      "type": "node",
      "id": 845860895,
      "lat": 4.343038,
      "lon": -74.3616366,
      "timestamp": "2010-08-04T11:49:09Z",
      "version": 1,
      "changeset": 5398362,
      "user": "harriercoold",
      "uid": 73889,
      "tags": {
        "amenity": "bar",
        "name": "Zamoha"
      }
    },
    {
      "type": "node",
      "id": 849018758,
      "lat": 4.6673715,
      "lon": -74.0541819,
      "timestamp": "2024-01-16T13:37:26Z",
      "version": 4,
      "changeset": 146324148,
      "user": "osm972",
      "uid": 122547,
      "tags": {
        "amenity": "pub",
        "name": "Bruder"
      }
    },
    {
      "type": "node",
      "id": 849023910,
      "lat": 4.6676559,
      "lon": -74.0539663,
      "timestamp": "2022-01-27T15:13:22Z",
      "version": 3,
      "changeset": 116671107,
      "user": "Barto920203",
      "uid": 10140282,
      "tags": {
        "amenity": "pub",
        "name": "Beer Lounge"
      }
    },
    {
      "type": "node",
      "id": 850212530,
      "lat": 8.6008774,
      "lon": -71.1421535,
      "timestamp": "2011-01-02T02:02:34Z",
      "version": 6,
      "changeset": 6834276,
      "user": "AMarcucciS",
      "uid": 336538,
      "tags": {
        "amenity": "bar",
        "name": "Tres Estrellas"
      }
    },
    {
      "type": "node",
      "id": 850369528,
      "lat": 4.694772,
      "lon": -74.0316853,
      "timestamp": "2023-09-17T18:07:26Z",
      "version": 6,
      "changeset": 141393146,
      "user": "osm972",
      "uid": 122547,
      "tags": {
        "amenity": "pub",
        "check_date": "2023-09-17",
        "name": "The Pub",
        "wheelchair": "yes"
      }
    },
    {
      "type": "node",
      "id": 852463405,
      "lat": 4.6674249,
      "lon": -74.0542479,
      "timestamp": "2010-08-10T05:00:53Z",
      "version": 1,
      "changeset": 5450602,
      "user": "andy_KP",
      "uid": 328274,
      "tags": {
        "amenity": "pub",
        "name": "Beer Lounge"
      }
    },
    {
      "type": "node",
      "id": 856930941,
      "lat": 4.6758524,
      "lon": -74.0476984,
      "timestamp": "2024-04-13T01:23:45Z",
      "version": 8,
      "changeset": 149933289,
      "user": "LaserSquirrel",
      "uid": 19973833,
      "tags": {
        "addr:city": "Bogotá",
        "addr:housenumber": "93-94",
        "addr:street": "Carrera 11A",
        "amenity": "pub",
        "branch": "Parque 93",
        "brand:wikidata": "Q11961765",
        "brand:wikipedia": "es:Bogotá Beer Company",
        "contact:instagram": "https://www.instagram.com/bogotabeercompany/",
        "name": "Bogota Beer Company",
        "website": "https://www.bbccerveceria.com/",
        "wheelchair": "no"
      }
    },
    {
      "type": "node",
      "id": 858186860,
      "lat": 8.989281,
      "lon": -79.5267367,
      "timestamp": "2025-01-02T03:42:05Z",
      "version": 4,
      "changeset": 160892093,
      "user": "TonyJC",
      "uid": 21306622,
      "tags": {
        "amenity": "bar",
        "name": "El Cangrejo Radio"
      }
    },
    {
      "type": "node",
      "id": 871147191,
      "lat": 5.0460829,
      "lon": -75.5145884,
      "timestamp": "2012-04-25T21:13:10Z",
      "version": 5,
      "changeset": 11419084,
      "user": "rothware",
      "uid": 668251,
      "tags": {
        "amenity": "bar",
        "is_in:state": "Caldas",
        "is_in:town": "Villamaría",
        "name": "Palosanto"
      }
    },
    {
      "type": "node",
      "id": 872239100,
      "lat": 5.0398682,
      "lon": -75.5190226,
      "timestamp": "2017-04-18T11:58:51Z",
      "version": 5,
      "changeset": 47903627,
      "user": "Manchito",
      "uid": 202868,
      "tags": {
        "amenity": "bar",
        "name": "El Bombazo"
      }
    },
    {
      "type": "node",
      "id": 872971969,
      "lat": 8.5992659,
      "lon": -71.1556738,
      "timestamp": "2010-08-22T00:36:34Z",
      "version": 1,
      "changeset": 5556960,
      "user": "AMarcucciS",
      "uid": 336538,
      "tags": {
        "amenity": "bar",
        "name": "Racing Bar & Café La Cucaracha"
      }
    },
    {
      "type": "node",
      "id": 873095910,
      "lat": 8.5899297,
      "lon": -71.1605507,
      "timestamp": "2011-01-02T03:47:00Z",
      "version": 8,
      "changeset": 6834967,
      "user": "AMarcucciS",
      "uid": 336538,
      "tags": {
        "amenity": "bar",
        "name": "Predespacho Bar & Lounge"
      }
    },
    {
      "type": "node",
      "id": 874794295,
      "lat": 8.9883363,
      "lon": -79.5320931,
      "timestamp": "2010-08-23T00:30:43Z",
      "version": 1,
      "changeset": 5567088,
      "user": "Goran7",
      "uid": 331200,
      "tags": {
        "amenity": "bar",
        "name": "La Gota Fria"
      }
    },
    {
      "type": "node",
      "id": 875743158,
      "lat": 8.5928842,
      "lon": -71.1487618,
      "timestamp": "2015-05-12T20:24:34Z",
      "version": 3,
      "changeset": 31066024,
      "user": "Arquitectónico",
      "uid": 83065,
      "tags": {
        "amenity": "pub",
        "name": "Cristal"
      }
    },
    {
      "type": "node",
      "id": 876507764,
      "lat": 5.8251444,
      "lon": -73.0432677,
      "timestamp": "2010-08-23T22:46:30Z",
      "version": 1,
      "changeset": 5575939,
      "user": "therat21",
      "uid": 337386,
      "tags": {
        "amenity": "pub"
      }
    },
    {
      "type": "node",
      "id": 895657877,
      "lat": 8.7724839,
      "lon": -75.8666495,
      "timestamp": "2011-01-22T15:38:26Z",
      "version": 4,
      "changeset": 7051623,
      "user": "Javast",
      "uid": 342410,
      "tags": {
        "amenity": "bar",
        "name": "Bora Bora"
      }
    },
    {
      "type": "node",
      "id": 896322760,
      "lat": 1.2155985,
      "lon": -77.2899556,
      "timestamp": "2012-03-15T21:37:14Z",
      "version": 2,
      "changeset": 10993064,
      "user": "CJMUNOZM",
      "uid": 524743,
      "tags": {
        "amenity": "pub"
      }
    },
    {
      "type": "node",
      "id": 901703594,
      "lat": 5.8157723,
      "lon": -73.0300458,
      "timestamp": "2015-04-28T07:33:28Z",
      "version": 2,
      "changeset": 30572100,
      "user": "carciofo",
      "uid": 2533093,
      "tags": {
        "amenity": "bar",
        "name": "Beer Station"
      }
    },
    {
      "type": "node",
      "id": 902285911,
      "lat": 7.0000482,
      "lon": -72.1083103,
      "timestamp": "2010-09-08T04:09:09Z",
      "version": 1,
      "changeset": 5713858,
      "user": "punkadiddle",
      "uid": 152973,
      "tags": {
        "amenity": "bar"
      }
    },
    {
      "type": "node",
      "id": 903710123,
      "lat": 8.1379835,
      "lon": -72.5710781,
      "timestamp": "2010-09-09T04:47:13Z",
      "version": 1,
      "changeset": 5729449,
      "user": "punkadiddle",
      "uid": 152973,
      "tags": {
        "amenity": "pub"
      }
    },
    {
      "type": "node",
      "id": 904638271,
      "lat": 8.0571069,
      "lon": -73.0154841,
      "timestamp": "2010-09-10T00:22:01Z",
      "version": 1,
      "changeset": 5737478,
      "user": "punkadiddle",
      "uid": 152973,
      "tags": {
        "amenity": "pub"
      }
    },
    {
      "type": "node",
      "id": 904654571,
      "lat": 8.1344281,
      "lon": -72.9601555,
      "timestamp": "2010-09-10T00:52:52Z",
      "version": 1,
      "changeset": 5737478,
      "user": "punkadiddle",
      "uid": 152973,
      "tags": {
        "amenity": "pub"
      }
    },
    {
      "type": "node",
      "id": 904773995,
      "lat": 7.2108386,
      "lon": -72.8467471,
      "timestamp": "2010-09-10T04:21:41Z",
      "version": 1,
      "changeset": 5737993,
      "user": "punkadiddle",
      "uid": 152973,
      "tags": {
        "amenity": "pub"
      }
    },
    {
      "type": "node",
      "id": 910298332,
      "lat": 4.7600997,
      "lon": -74.379933,
      "timestamp": "2010-09-13T04:32:22Z",
      "version": 1,
      "changeset": 5766063,
      "user": "ikks",
      "uid": 37987,
      "tags": {
        "amenity": "biergarten",
        "name": "Morazul"
      }
    },
    {
      "type": "node",
      "id": 915125036,
      "lat": 4.3036186,
      "lon": -75.2002428,
      "timestamp": "2010-09-17T00:32:32Z",
      "version": 1,
      "changeset": 5800304,
      "user": "humano",
      "uid": 31941,
      "tags": {
        "amenity": "biergarten",
        "name": "Estadero La espera"
      }
    },
    {
      "type": "node",
      "id": 919741246,
      "lat": 4.8111755,
      "lon": -75.6933002,
      "timestamp": "2019-11-05T16:27:08Z",
      "version": 3,
      "changeset": 76658119,
      "user": "carfog81",
      "uid": 226189,
      "tags": {
        "amenity": "pub"
      }
    },
    {
      "type": "node",
      "id": 919741460,
      "lat": 4.8161591,
      "lon": -75.6989434,
      "timestamp": "2023-05-28T17:30:28Z",
      "version": 6,
      "changeset": 136665713,
      "user": "MapMapper_",
      "uid": 12958636,
      "tags": {
        "addr:city": "Pereira",
        "addr:postcode": "660002",
        "addr:street": "Carrera 6",
        "amenity": "bar",
        "name": "Raíces"
      }
    },
    {
      "type": "node",
      "id": 919741612,
      "lat": 4.8159787,
      "lon": -75.6987556,
      "timestamp": "2023-05-28T17:30:28Z",
      "version": 5,
      "changeset": 136665713,
      "user": "MapMapper_",
      "uid": 12958636,
      "tags": {
        "addr:city": "Pereira",
        "addr:postcode": "660002",
        "addr:street": "Carrera 6",
        "amenity": "bar",
        "name": "El Paso"
      }
    },
    {
      "type": "node",
      "id": 919742119,
      "lat": 4.8168113,
      "lon": -75.6972925,
      "timestamp": "2023-05-28T17:30:28Z",
      "version": 4,
      "changeset": 136665713,
      "user": "MapMapper_",
      "uid": 12958636,
      "tags": {
        "addr:city": "Pereira",
        "addr:postcode": "660002",
        "addr:street": "Carrera 5",
        "amenity": "bar",
        "name": "Hot Topic"
      }
    },
    {
      "type": "node",
      "id": 919742498,
      "lat": 4.814919,
      "lon": -75.6983359,
      "timestamp": "2010-09-20T19:27:08Z",
      "version": 1,
      "changeset": 5831774,
      "user": "carfog81",
      "uid": 226189,
      "tags": {
        "amenity": "bar"
      }
    },
    {
      "type": "node",
      "id": 920033834,
      "lat": 4.8170536,
      "lon": -75.7006605,
      "timestamp": "2023-05-28T17:30:28Z",
      "version": 4,
      "changeset": 136665713,
      "user": "MapMapper_",
      "uid": 12958636,
      "tags": {
        "addr:city": "Pereira",
        "addr:postcode": "660001",
        "addr:street": "Carrera 5",
        "amenity": "bar",
        "name": "San Gregorio"
      }
    },
    {
      "type": "node",
      "id": 921288416,
      "lat": 4.6960653,
      "lon": -74.0304583,
      "timestamp": "2011-12-05T18:49:04Z",
      "version": 2,
      "changeset": 10041344,
      "user": "wheelmap_visitor",
      "uid": 290680,
      "tags": {
        "amenity": "pub",
        "name": "Rock Garden Pub Usaquen",
        "wheelchair": "no"
      }
    },
    {
      "type": "node",
      "id": 924880663,
      "lat": 8.9677971,
      "lon": -71.2732016,
      "timestamp": "2010-09-25T04:19:30Z",
      "version": 1,
      "changeset": 5868031,
      "user": "AMarcucciS",
      "uid": 336538,
      "tags": {
        "amenity": "bar"
      }
    },
    {
      "type": "node",
      "id": 926732546,
      "lat": 4.567847,
      "lon": -74.1264289,
      "timestamp": "2013-07-17T18:52:41Z",
      "version": 2,
      "changeset": 16990942,
      "user": "blackatze93",
      "uid": 1643690,
      "tags": {
        "amenity": "bar",
        "name": "Grill El Escorial"
      }
    },
    {
      "type": "node",
      "id": 926735996,
      "lat": 4.5599221,
      "lon": -74.1239076,
      "timestamp": "2010-09-26T15:02:55Z",
      "version": 1,
      "changeset": 5881465,
      "user": "millan",
      "uid": 349838,
      "tags": {
        "amenity": "bar",
        "name": "El parador"
      }
    },
    {
      "type": "node",
      "id": 926736555,
      "lat": 4.5675689,
      "lon": -74.1266113,
      "timestamp": "2013-07-17T18:52:41Z",
      "version": 2,
      "changeset": 16990942,
      "user": "blackatze93",
      "uid": 1643690,
      "tags": {
        "amenity": "bar",
        "name": "Wiskeria Punto 50"
      }
    },
    {
      "type": "node",
      "id": 926737131,
      "lat": 4.5638043,
      "lon": -74.1292077,
      "timestamp": "2010-09-26T15:06:46Z",
      "version": 2,
      "changeset": 5881465,
      "user": "millan",
      "uid": 349838,
      "tags": {
        "amenity": "bar",
        "name": "Tienda BAR bailey"
      }
    },
    {
      "type": "node",
      "id": 931415242,
      "lat": 8.5998193,
      "lon": -71.1420891,
      "timestamp": "2011-01-02T02:14:35Z",
      "version": 3,
      "changeset": 6834276,
      "user": "AMarcucciS",
      "uid": 336538,
      "tags": {
        "amenity": "bar",
        "name": "Gurten Café Poco Loco"
      }
    },
    {
      "type": "node",
      "id": 932376356,
      "lat": 5.833643,
      "lon": -73.0359864,
      "timestamp": "2010-09-30T23:23:40Z",
      "version": 1,
      "changeset": 5924374,
      "user": "perez",
      "uid": 238680,
      "tags": {
        "amenity": "bar",
        "name": "Aguila"
      }
    },
    {
      "type": "node",
      "id": 941628621,
      "lat": 4.1495726,
      "lon": -74.8850126,
      "timestamp": "2010-10-08T16:57:31Z",
      "version": 1,
      "changeset": 5987517,
      "user": "jutolme",
      "uid": 356065,
      "tags": {
        "amenity": "bar",
        "name": "Papalotes"
      }
    },
    {
      "type": "node",
      "id": 941744942,
      "lat": 4.4471905,
      "lon": -75.2410964,
      "timestamp": "2010-10-08T18:41:53Z",
      "version": 1,
      "changeset": 5988304,
      "user": "luanri2",
      "uid": 355952,
      "tags": {
        "amenity": "pub",
        "name": "palmeto"
      }
    },
    {
      "type": "node",
      "id": 941761023,
      "lat": 4.5254942,
      "lon": -75.3107168,
      "timestamp": "2010-10-08T18:51:39Z",
      "version": 1,
      "changeset": 5988397,
      "user": "anrocala",
      "uid": 356419,
      "tags": {
        "amenity": "bar"
      }
    },
    {
      "type": "node",
      "id": 941764576,
      "lat": 4.4462518,
      "lon": -75.1893394,
      "timestamp": "2010-10-08T18:58:35Z",
      "version": 1,
      "changeset": 5988466,
      "user": "karo",
      "uid": 356456,
      "tags": {
        "amenity": "bar"
      }
    },
    {
      "type": "node",
      "id": 941767135,
      "lat": 4.4470075,
      "lon": -75.2431217,
      "timestamp": "2010-10-08T19:13:39Z",
      "version": 3,
      "changeset": 5988484,
      "user": "Nancita",
      "uid": 356128,
      "tags": {
        "amenity": "pub",
        "name": "Garbo"
      }
    },
    {
      "type": "node",
      "id": 941946336,
      "lat": 4.4348048,
      "lon": -75.2409954,
      "timestamp": "2010-10-08T21:25:01Z",
      "version": 1,
      "changeset": 5989666,
      "user": "Sayo",
      "uid": 356509,
      "tags": {
        "amenity": "pub",
        "name": "Ciclo Guerrero Taller de Bicicletas"
      }
    },
    {
      "type": "node",
      "id": 941946354,
      "lat": 4.4351739,
      "lon": -75.240475,
      "timestamp": "2010-10-08T21:25:02Z",
      "version": 1,
      "changeset": 5989666,
      "user": "Sayo",
      "uid": 356509,
      "tags": {
        "amenity": "pub",
        "name": "Papelería Judacán"
      }
    },
    {
      "type": "node",
      "id": 941946357,
      "lat": 4.4352701,
      "lon": -75.2405877,
      "timestamp": "2010-10-08T21:25:02Z",
      "version": 1,
      "changeset": 5989666,
      "user": "Sayo",
      "uid": 356509,
      "tags": {
        "amenity": "pub",
        "name": "Apuestas Gana Gana"
      }
    },
    {
      "type": "node",
      "id": 941946360,
      "lat": 4.4354252,
      "lon": -75.2407701,
      "timestamp": "2018-09-26T07:48:48Z",
      "version": 2,
      "changeset": 62937329,
      "user": "porfiriopaiz",
      "uid": 1621340,
      "tags": {
        "amenity": "pub",
        "name": "Panadería Super Pan"
      }
    },
    {
      "type": "node",
      "id": 941946364,
      "lat": 4.4356392,
      "lon": -75.2410383,
      "timestamp": "2010-10-08T21:25:02Z",
      "version": 1,
      "changeset": 5989666,
      "user": "Sayo",
      "uid": 356509,
      "tags": {
        "amenity": "pub",
        "name": "Panadería y Pastelería Delicias del Yuldaima"
      }
    },
    {
      "type": "node",
      "id": 941946382,
      "lat": 4.4344198,
      "lon": -75.2397616,
      "timestamp": "2010-10-08T21:25:03Z",
      "version": 1,
      "changeset": 5989666,
      "user": "Sayo",
      "uid": 356509,
      "tags": {
        "amenity": "pub",
        "name": "Parque Infantil Yuldaima"
      }
    },
    {
      "type": "node",
      "id": 941946427,
      "lat": 4.4341309,
      "lon": -75.2396328,
      "timestamp": "2010-10-08T21:25:04Z",
      "version": 1,
      "changeset": 5989666,
      "user": "Sayo",
      "uid": 356509,
      "tags": {
        "amenity": "pub",
        "name": "Panadería Diego"
      }
    },
    {
      "type": "node",
      "id": 941946440,
      "lat": 4.434147,
      "lon": -75.2394022,
      "timestamp": "2010-10-08T21:25:05Z",
      "version": 1,
      "changeset": 5989666,
      "user": "Sayo",
      "uid": 356509,
      "tags": {
        "amenity": "pub",
        "name": "Peluquería El Viejo"
      }
    },
    {
      "type": "node",
      "id": 941946464,
      "lat": 4.4333768,
      "lon": -75.2389998,
      "timestamp": "2010-10-08T21:25:05Z",
      "version": 1,
      "changeset": 5989666,
      "user": "Sayo",
      "uid": 356509,
      "tags": {
        "amenity": "pub",
        "name": "Salón Comunal Yuldaima"
      }
    },
    {
      "type": "node",
      "id": 941946481,
      "lat": 4.4336175,
      "lon": -75.2397401,
      "timestamp": "2010-10-08T21:25:06Z",
      "version": 1,
      "changeset": 5989666,
      "user": "Sayo",
      "uid": 356509,
      "tags": {
        "amenity": "pub",
        "name": "Papelería"
      }
    },
    {
      "type": "node",
      "id": 941946486,
      "lat": 4.4332431,
      "lon": -75.2386404,
      "timestamp": "2010-10-08T21:25:06Z",
      "version": 1,
      "changeset": 5989666,
      "user": "Sayo",
      "uid": 356509,
      "tags": {
        "amenity": "pub",
        "name": "Papelería Machis"
      }
    },
    {
      "type": "node",
      "id": 959587247,
      "lat": 8.5975349,
      "lon": -71.1461543,
      "timestamp": "2010-10-21T18:18:18Z",
      "version": 2,
      "changeset": 6130075,
      "user": "jfuentesve",
      "uid": 361556,
      "tags": {
        "amenity": "pub",
        "name": "Birosca Carioca"
      }
    },
    {
      "type": "node",
      "id": 968119330,
      "lat": 4.6678237,
      "lon": -74.0555882,
      "timestamp": "2011-10-31T16:18:37Z",
      "version": 2,
      "changeset": 9700443,
      "user": "wheelmap_visitor",
      "uid": 290680,
      "tags": {
        "amenity": "bar",
        "name": "Salome Pagana",
        "wheelchair": "no"
      }
    },
    {
      "type": "node",
      "id": 968994804,
      "lat": 6.0143414,
      "lon": -73.671416,
      "timestamp": "2021-02-04T17:55:18Z",
      "version": 6,
      "changeset": 98720561,
      "user": "German C",
      "uid": 1225083,
      "tags": {
        "addr:city": "Vélez",
        "amenity": "bar",
        "direction": "both",
        "name": "Tienda Andy Express",
        "surface": "paved",
        "traffic_calming": "hump"
      }
    },
    {
      "type": "node",
      "id": 986948678,
      "lat": 8.2385206,
      "lon": -73.3564682,
      "timestamp": "2015-01-02T15:14:35Z",
      "version": 4,
      "changeset": 27864927,
      "user": "Joël Koeckhoven",
      "uid": 91958,
      "tags": {
        "amenity": "bar",
        "name": "Cascada"
      }
    },
    {
      "type": "node",
      "id": 991886833,
      "lat": 8.0440639,
      "lon": -73.0862188,
      "timestamp": "2023-10-20T19:42:18Z",
      "version": 2,
      "changeset": 142889785,
      "user": "JuanMelo",
      "uid": 12906384,
      "tags": {
        "amenity": "pub"
      }
    },
    {
      "type": "node",
      "id": 992034271,
      "lat": 8.0767976,
      "lon": -72.8394928,
      "timestamp": "2010-11-16T23:00:24Z",
      "version": 1,
      "changeset": 6389323,
      "user": "punkadiddle",
      "uid": 152973,
      "tags": {
        "amenity": "bar"
      }
    },
    {
      "type": "node",
      "id": 992034356,
      "lat": 8.0768454,
      "lon": -72.8400722,
      "timestamp": "2010-11-16T23:00:27Z",
      "version": 1,
      "changeset": 6389323,
      "user": "punkadiddle",
      "uid": 152973,
      "tags": {
        "amenity": "pub"
      }
    },
    {
      "type": "node",
      "id": 994900743,
      "lat": 7.7428482,
      "lon": -72.5456958,
      "timestamp": "2010-11-19T16:50:37Z",
      "version": 1,
      "changeset": 6408389,
      "user": "punkadiddle",
      "uid": 152973,
      "tags": {
        "amenity": "pub"
      }
    },
    {
      "type": "node",
      "id": 998985186,
      "lat": 7.2466397,
      "lon": -72.7853729,
      "timestamp": "2010-11-22T03:06:55Z",
      "version": 1,
      "changeset": 6428656,
      "user": "punkadiddle",
      "uid": 152973,
      "tags": {
        "amenity": "pub"
      }
    },
    {
      "type": "node",
      "id": 1013006813,
      "lat": 2.0253421,
      "lon": -75.756102,
      "timestamp": "2010-11-30T02:50:45Z",
      "version": 1,
      "changeset": 6491347,
      "user": "CRISTIAN DAVID PAREDES",
      "uid": 353344,
      "tags": {
        "amenity": "bar"
      }
    },
    {
      "type": "node",
      "id": 1034358212,
      "lat": 7.880412,
      "lon": -72.494128,
      "timestamp": "2011-11-19T18:24:49Z",
      "version": 4,
      "changeset": 9875770,
      "user": "punkadiddle",
      "uid": 152973,
      "tags": {
        "amenity": "bar",
        "name": "La Oficina"
      }
    },
    {
      "type": "node",
      "id": 1037234329,
      "lat": 4.6291985,
      "lon": -73.8862367,
      "timestamp": "2010-12-13T14:18:28Z",
      "version": 1,
      "changeset": 6648162,
      "user": "Federico Explorador",
      "uid": 293454,
      "tags": {
        "amenity": "pub"
      }
    },
    {
      "type": "node",
      "id": 1077891990,
      "lat": 8.5987688,
      "lon": -71.1418331,
      "timestamp": "2015-06-29T01:01:05Z",
      "version": 2,
      "changeset": 32274450,
      "user": "tagginator",
      "uid": 3009170,
      "tags": {
        "amenity": "bar",
        "name": "Gradas Sport Bar"
      }
    },
    {
      "type": "node",
      "id": 1077891997,
      "lat": 8.5989231,
      "lon": -71.1419635,
      "timestamp": "2015-06-29T01:01:05Z",
      "version": 2,
      "changeset": 32274450,
      "user": "tagginator",
      "uid": 3009170,
      "tags": {
        "amenity": "bar",
        "name": "El Hoyo Del Queque"
      }
    },
    {
      "type": "node",
      "id": 1077892000,
      "lat": 8.5990613,
      "lon": -71.1417727,
      "timestamp": "2015-06-27T18:17:24Z",
      "version": 3,
      "changeset": 32248227,
      "user": "tagginator",
      "uid": 3009170,
      "tags": {
        "amenity": "bar",
        "name": "Alfredo's"
      }
    },
    {
      "type": "node",
      "id": 1077932629,
      "lat": 8.6271548,
      "lon": -71.1382301,
      "timestamp": "2012-11-03T20:49:42Z",
      "version": 3,
      "changeset": 13739310,
      "user": "Typson Sánchez",
      "uid": 600138,
      "tags": {
        "amenity": "bar",
        "name": "Garage Rock Bar"
      }
    },
    {
      "type": "node",
      "id": 1077933237,
      "lat": 8.6272478,
      "lon": -71.1384179,
      "timestamp": "2012-11-03T20:49:42Z",
      "version": 3,
      "changeset": 13739310,
      "user": "Typson Sánchez",
      "uid": 600138,
      "tags": {
        "amenity": "bar",
        "name": "Le Lieu Lounge Bar"
      }
    },
    {
      "type": "node",
      "id": 1106871112,
      "lat": 4.6394703,
      "lon": -74.062472,
      "timestamp": "2015-12-06T04:22:38Z",
      "version": 3,
      "changeset": 35780108,
      "user": "AngocA",
      "uid": 89128,
      "tags": {
        "addr:housenumber": "6-04",
        "addr:street": "Calle 53",
        "amenity": "pub",
        "name": "Blossom Bar Rock",
        "phone": "+5712102629"
      }
    },
    {
      "type": "node",
      "id": 1122695818,
      "lat": 5.0441657,
      "lon": -73.7970452,
      "timestamp": "2011-01-26T23:31:59Z",
      "version": 1,
      "changeset": 7099278,
      "user": "harrierco",
      "uid": 222199,
      "tags": {
        "amenity": "bar",
        "name": "Rokola y Pola"
      }
    },
    {
      "type": "node",
      "id": 1123493255,
      "lat": 4.7554184,
      "lon": -74.0493342,
      "timestamp": "2022-04-08T10:55:54Z",
      "version": 3,
      "changeset": 119465835,
      "user": "Friendly_Ghost",
      "uid": 10875409,
      "tags": {
        "amenity": "bar",
        "description": "cafe bar"
      }
    },
    {
      "type": "node",
      "id": 1123496162,
      "lat": 4.7559219,
      "lon": -74.0510303,
      "timestamp": "2011-01-27T15:44:27Z",
      "version": 1,
      "changeset": 7104732,
      "user": "Alexgm01",
      "uid": 400900,
      "tags": {
        "amenity": "bar",
        "name": "restaurante-bar"
      }
    },
    {
      "type": "node",
      "id": 1131951462,
      "lat": 8.5913267,
      "lon": -71.1539266,
      "timestamp": "2011-02-02T03:56:37Z",
      "version": 1,
      "changeset": 7161404,
      "user": "rodrigotorrens",
      "uid": 371695,
      "tags": {
        "amenity": "pub"
      }
    },
    {
      "type": "node",
      "id": 1138329488,
      "lat": 8.5895164,
      "lon": -71.1561998,
      "timestamp": "2011-02-06T01:20:45Z",
      "version": 1,
      "changeset": 7199242,
      "user": "hernanr",
      "uid": 120518,
      "tags": {
        "amenity": "bar",
        "name": "Candilejitas"
      }
    },
    {
      "type": "node",
      "id": 1148567146,
      "lat": 8.6024304,
      "lon": -71.1463147,
      "timestamp": "2016-04-13T11:21:08Z",
      "version": 2,
      "changeset": 38522223,
      "user": "Jossember Borromé Perdomo",
      "uid": 3788425,
      "tags": {
        "amenity": "bar",
        "cuisine": "tea;pancake;coffee_shop",
        "key": "EMU Bar",
        "name": "La Hacienda "
      }
    },
    {
      "type": "node",
      "id": 1148567305,
      "lat": 8.6024993,
      "lon": -71.1462825,
      "timestamp": "2011-02-12T06:20:57Z",
      "version": 1,
      "changeset": 7261610,
      "user": "jfuentesve",
      "uid": 361556,
      "tags": {
        "amenity": "pub",
        "key": "EMU Bar",
        "name": "E.M.U. Rock Bar"
      }
    },
    {
      "type": "node",
      "id": 1176439010,
      "lat": 8.9995982,
      "lon": -71.9230042,
      "timestamp": "2021-09-02T16:00:20Z",
      "version": 2,
      "changeset": 110627087,
      "user": "Wilmer Osario",
      "uid": 5443883,
      "tags": {
        "amenity": "bar",
        "name": "Club Huasipungo Puerta"
      }
    },
    {
      "type": "node",
      "id": 1176487704,
      "lat": 8.60935,
      "lon": -71.650013,
      "timestamp": "2011-02-27T04:47:18Z",
      "version": 1,
      "changeset": 7406841,
      "user": "hernanr",
      "uid": 120518,
      "tags": {
        "amenity": "pub",
        "name": "Bodegon De Camila",
        "note": "Bodegon De Camila"
      }
    },
    {
      "type": "node",
      "id": 1181085642,
      "lat": 8.6002857,
      "lon": -71.1412593,
      "timestamp": "2012-09-06T19:33:00Z",
      "version": 2,
      "changeset": 13014531,
      "user": "Eduardo Mendez",
      "uid": 626432,
      "tags": {
        "amenity": "pub",
        "internet_access": "yes",
        "name": "L' Escole Du Chef",
        "smoking": "separated",
        "source": "www.mibels.com",
        "wheelchair": "no"
      }
    },
    {
      "type": "node",
      "id": 1197884666,
      "lat": 8.6027415,
      "lon": -71.1457257,
      "timestamp": "2011-03-12T04:18:15Z",
      "version": 1,
      "changeset": 7529553,
      "user": "hernanr",
      "uid": 120518,
      "tags": {
        "amenity": "bar",
        "name": "Kawy's Café"
      }
    },
    {
      "type": "node",
      "id": 1201592891,
      "lat": 4.6292647,
      "lon": -74.065842,
      "timestamp": "2016-04-12T23:27:19Z",
      "version": 2,
      "changeset": 38513253,
      "user": "william07",
      "uid": 3789531,
      "tags": {
        "amenity": "bar",
        "name": "Ciro"
      }
    },
    {
      "type": "node",
      "id": 1201599174,
      "lat": 4.6318332,
      "lon": -74.0666092,
      "timestamp": "2025-04-16T10:58:52Z",
      "version": 5,
      "changeset": 165022945,
      "user": "wombatmaper",
      "uid": 1885866,
      "tags": {
        "amenity": "pub",
        "name": "Decanatura",
        "sport": "table_tennis"
      }
    },
    {
      "type": "node",
      "id": 1205523555,
      "lat": 8.1261935,
      "lon": -71.4605847,
      "timestamp": "2011-04-06T17:53:24Z",
      "version": 2,
      "changeset": 7787357,
      "user": "andestropicales",
      "uid": 422152,
      "tags": {
        "amenity": "pub",
        "name": "Bar el Faisan"
      }
    },
    {
      "type": "node",
      "id": 1210048073,
      "lat": 8.590632,
      "lon": -71.153324,
      "timestamp": "2025-05-05T01:25:25Z",
      "version": 3,
      "changeset": 165823810,
      "user": "Jorge Burgos",
      "uid": 22863185,
      "tags": {
        "amenity": "bar",
        "name": "Licoreria"
      }
    },
    {
      "type": "node",
      "id": 1218409959,
      "lat": 8.6214462,
      "lon": -70.2306375,
      "timestamp": "2020-10-25T09:14:38Z",
      "version": 3,
      "changeset": 93009699,
      "user": "Wilmer Osario",
      "uid": 5443883,
      "tags": {
        "amenity": "bar",
        "name": "Tasca El Torero",
        "note": "Tasca El Torero, Barinas, Barinas"
      }
    },
    {
      "type": "node",
      "id": 1218416140,
      "lat": 8.602999,
      "lon": -70.125205,
      "timestamp": "2020-10-25T09:11:23Z",
      "version": 2,
      "changeset": 93009699,
      "user": "Wilmer Osario",
      "uid": 5443883,
      "tags": {
        "amenity": "pub",
        "name": "Bar El Retoño"
      }
    },
    {
      "type": "node",
      "id": 1218416947,
      "lat": 8.5989467,
      "lon": -70.0979416,
      "timestamp": "2021-08-24T14:33:04Z",
      "version": 2,
      "changeset": 110165749,
      "user": "Wilmer Osario",
      "uid": 5443883,
      "tags": {
        "amenity": "bar",
        "name": "Bar Los Corrales"
      }
    },
    {
      "type": "node",
      "id": 1232516036,
      "lat": 4.1464668,
      "lon": -73.6110916,
      "timestamp": "2011-04-10T17:13:12Z",
      "version": 4,
      "changeset": 7824509,
      "user": "germandelreal",
      "uid": 200066,
      "tags": {
        "amenity": "bar",
        "name": "Mr. Charlie"
      }
    },
    {
      "type": "node",
      "id": 1234254709,
      "lat": 4.1405897,
      "lon": -73.6393619,
      "timestamp": "2011-04-06T00:39:56Z",
      "version": 1,
      "changeset": 7780484,
      "user": "germandelreal",
      "uid": 200066,
      "tags": {
        "amenity": "bar",
        "name": "La Ochenta Bar"
      }
    },
    {
      "type": "node",
      "id": 1234261318,
      "lat": 4.1474034,
      "lon": -73.6367761,
      "timestamp": "2011-04-06T00:48:26Z",
      "version": 2,
      "changeset": 7780484,
      "user": "germandelreal",
      "uid": 200066,
      "tags": {
        "amenity": "bar",
        "name": "El Decano"
      }
    },
    {
      "type": "node",
      "id": 1246407394,
      "lat": 7.604482,
      "lon": -72.6007327,
      "timestamp": "2013-04-08T00:00:31Z",
      "version": 2,
      "changeset": 15648572,
      "user": "chinacota",
      "uid": 581902,
      "tags": {
        "amenity": "bar",
        "name": "Licorería"
      }
    },
    {
      "type": "node",
      "id": 1246407396,
      "lat": 7.6035218,
      "lon": -72.6012578,
      "timestamp": "2012-07-21T23:00:50Z",
      "version": 4,
      "changeset": 12422165,
      "user": "punkadiddle",
      "uid": 152973,
      "tags": {
        "amenity": "bar",
        "name": "\"La Burbuja\""
      }
    },
    {
      "type": "node",
      "id": 1248667475,
      "lat": 5.81751,
      "lon": -73.015004,
      "timestamp": "2011-04-17T17:05:37Z",
      "version": 1,
      "changeset": 7889056,
      "user": "Leonardo Gutierrez",
      "uid": 77400,
      "tags": {
        "amenity": "pub",
        "name": "tocogua"
      }
    },
    {
      "type": "node",
      "id": 1270363302,
      "lat": 4.603907,
      "lon": -74.1303793,
      "timestamp": "2022-05-17T20:03:19Z",
      "version": 3,
      "changeset": 121116158,
      "user": "JuanMelo",
      "uid": 12906384,
      "tags": {
        "addr:city": "Bogotá D.C.",
        "addr:housenumber": "Carrera 52C",
        "addr:street": "Calle 36 Sur",
        "amenity": "bar",
        "name": "Copacabana"
      }
    },
    {
      "type": "node",
      "id": 1279870488,
      "lat": 7.5542997,
      "lon": -74.5299913,
      "timestamp": "2011-05-11T00:42:17Z",
      "version": 1,
      "changeset": 8107996,
      "user": "COMPILER",
      "uid": 452623,
      "tags": {
        "amenity": "pub"
      }
    },
    {
      "type": "node",
      "id": 1282019573,
      "lat": 5.0738314,
      "lon": -75.526545,
      "timestamp": "2021-04-13T19:55:42Z",
      "version": 3,
      "changeset": 102886380,
      "user": "Cafetom",
      "uid": 6893461,
      "tags": {
        "amenity": "bar",
        "name": "Las Colinas"
      }
    },
    {
      "type": "node",
      "id": 1291307506,
      "lat": 8.5803985,
      "lon": -71.1825173,
      "timestamp": "2020-07-27T21:28:07Z",
      "version": 4,
      "changeset": 88586291,
      "user": "Anoesis",
      "uid": 8525987,
      "tags": {
        "amenity": "bar",
        "name": "Brangus Steak & House Bar"
      }
    },
    {
      "type": "node",
      "id": 1298813621,
      "lat": 8.1819957,
      "lon": -71.4377963,
      "timestamp": "2011-05-24T21:15:49Z",
      "version": 1,
      "changeset": 8239933,
      "user": "andestropicales",
      "uid": 422152,
      "tags": {
        "amenity": "bar",
        "name": "El Topón"
      }
    },
    {
      "type": "node",
      "id": 1302891260,
      "lat": 1.2166933,
      "lon": -77.2791414,
      "timestamp": "2014-02-09T18:16:46Z",
      "version": 3,
      "changeset": 20470320,
      "user": "jorgelrm",
      "uid": 1812858,
      "tags": {
        "amenity": "bar",
        "name": "Capitán Nirvana"
      }
    },
    {
      "type": "node",
      "id": 1317977122,
      "lat": 4.6703085,
      "lon": -74.1057002,
      "timestamp": "2011-06-09T23:51:02Z",
      "version": 1,
      "changeset": 8393349,
      "user": "harrierco",
      "uid": 222199,
      "tags": {
        "amenity": "bar",
        "name": "Palco 53"
      }
    },
    {
      "type": "node",
      "id": 1393085025,
      "lat": 4.7487364,
      "lon": -75.7788363,
      "timestamp": "2016-03-09T15:47:07Z",
      "version": 3,
      "changeset": 37711799,
      "user": "carfog81",
      "uid": 226189,
      "tags": {
        "amenity": "bar",
        "name": "Discoteca Punto Azul"
      }
    },
    {
      "type": "node",
      "id": 1401728463,
      "lat": 0.0833948,
      "lon": -76.8891754,
      "timestamp": "2012-05-09T17:19:38Z",
      "version": 2,
      "changeset": 11550459,
      "user": "WorstFixer",
      "uid": 678132,
      "tags": {
        "amenity": "pub",
        "name": "Alquimia"
      }
    },
    {
      "type": "node",
      "id": 1401728471,
      "lat": 0.0870319,
      "lon": -76.8894335,
      "timestamp": "2011-08-17T00:11:37Z",
      "version": 1,
      "changeset": 9043646,
      "user": "diegort82",
      "uid": 242928,
      "tags": {
        "amenity": "bar"
      }
    },
    {
      "type": "node",
      "id": 1401728480,
      "lat": 0.0835563,
      "lon": -76.8894115,
      "timestamp": "2012-05-09T17:36:43Z",
      "version": 2,
      "changeset": 11550459,
      "user": "WorstFixer",
      "uid": 678132,
      "tags": {
        "amenity": "pub",
        "name": "Millenium"
      }
    },
    {
      "type": "node",
      "id": 1401728482,
      "lat": 0.0780406,
      "lon": -76.8671534,
      "timestamp": "2018-01-19T09:42:24Z",
      "version": 3,
      "changeset": 55572979,
      "user": "agranizo",
      "uid": 1799232,
      "tags": {
        "amenity": "bar",
        "name": "Karolyns"
      }
    },
    {
      "type": "node",
      "id": 1401728496,
      "lat": 0.0786667,
      "lon": -76.8672897,
      "timestamp": "2018-01-19T09:42:25Z",
      "version": 3,
      "changeset": 55572979,
      "user": "agranizo",
      "uid": 1799232,
      "tags": {
        "amenity": "bar",
        "name": "Palacio de Las Nenas"
      }
    },
    {
      "type": "node",
      "id": 1423553995,
      "lat": 4.6415627,
      "lon": -74.0625683,
      "timestamp": "2011-09-05T00:12:46Z",
      "version": 1,
      "changeset": 9213669,
      "user": "ikks",
      "uid": 37987,
      "tags": {
        "amenity": "pub",
        "name": "Cinema Café"
      }
    },
    {
      "type": "node",
      "id": 1428280867,
      "lat": 4.4460312,
      "lon": -75.2120119,
      "timestamp": "2011-09-09T21:45:45Z",
      "version": 2,
      "changeset": 9258310,
      "user": "karina",
      "uid": 502071,
      "tags": {
        "amenity": "bar",
        "name": "BAR",
        "smoking": "yes"
      }
    },
    {
      "type": "node",
      "id": 1457379133,
      "lat": 4.8061714,
      "lon": -75.6824952,
      "timestamp": "2011-10-06T23:30:36Z",
      "version": 1,
      "changeset": 9490127,
      "user": "andy_KP",
      "uid": 328274,
      "tags": {
        "amenity": "bar",
        "name": "1990"
      }
    },
    {
      "type": "node",
      "id": 1459421636,
      "lat": 5.7813905,
      "lon": -73.1179893,
      "timestamp": "2019-08-18T22:07:04Z",
      "version": 2,
      "changeset": 73474700,
      "user": "yoagonfe",
      "uid": 8804301,
      "tags": {
        "amenity": "bar"
      }
    },
    {
      "type": "node",
      "id": 1459466501,
      "lat": 4.6673151,
      "lon": -74.0548484,
      "timestamp": "2024-11-20T12:13:47Z",
      "version": 3,
      "changeset": 159363228,
      "user": "whammo",
      "uid": 1962542,
      "tags": {
        "amenity": "pub",
        "check_date": "2024-11-20",
        "name": "Colombian Pub"
      }
    },
    {
      "type": "node",
      "id": 1459466512,
      "lat": 4.6685265,
      "lon": -74.0541693,
      "timestamp": "2022-02-01T02:40:31Z",
      "version": 3,
      "changeset": 116846499,
      "user": "Barto920203",
      "uid": 10140282,
      "tags": {
        "amenity": "bar",
        "name": "La Gran Terraza"
      }
    },
    {
      "type": "node",
      "id": 1460561296,
      "lat": 4.597666,
      "lon": -74.069584,
      "timestamp": "2011-10-09T22:22:07Z",
      "version": 1,
      "changeset": 9517841,
      "user": "WingedStone",
      "uid": 35018,
      "tags": {
        "amenity": "pub",
        "name": "Rock and cafe"
      }
    },
    {
      "type": "node",
      "id": 1460619803,
      "lat": 4.5979101,
      "lon": -74.0695878,
      "timestamp": "2019-12-15T22:04:35Z",
      "version": 3,
      "changeset": 78441029,
      "user": "NoNameX",
      "uid": 8672009,
      "tags": {
        "addr:housenumber": "12B-82",
        "addr:street": "Cra. 2",
        "amenity": "pub",
        "name": "Fedora"
      }
    },
    {
      "type": "node",
      "id": 1464770119,
      "lat": 5.5349,
      "lon": -73.3617868,
      "timestamp": "2022-10-20T01:51:05Z",
      "version": 5,
      "changeset": 127814883,
      "user": "javiersneider",
      "uid": 510843,
      "tags": {
        "amenity": "bar",
        "name": "Berlin"
      }
    },
    {
      "type": "node",
      "id": 1464770120,
      "lat": 5.5345926,
      "lon": -73.3605362,
      "timestamp": "2013-11-17T02:33:08Z",
      "version": 3,
      "changeset": 18946016,
      "user": "javiersneider",
      "uid": 510843,
      "tags": {
        "amenity": "pub",
        "name": "Bruder"
      }
    },
    {
      "type": "node",
      "id": 1465993155,
      "lat": 5.63474,
      "lon": -73.5232615,
      "timestamp": "2019-04-23T00:13:35Z",
      "version": 2,
      "changeset": 69470565,
      "user": "Federico Explorador",
      "uid": 293454,
      "tags": {
        "amenity": "pub",
        "name": "Shalom Nicol"
      }
    },
    {
      "type": "node",
      "id": 1467732695,
      "lat": 5.634093,
      "lon": -73.5240334,
      "timestamp": "2019-04-23T00:13:35Z",
      "version": 2,
      "changeset": 69470565,
      "user": "Federico Explorador",
      "uid": 293454,
      "tags": {
        "amenity": "pub",
        "name": "Boca"
      }
    },
    {
      "type": "node",
      "id": 1467732766,
      "lat": 5.634038,
      "lon": -73.5241054,
      "timestamp": "2019-04-23T00:13:35Z",
      "version": 2,
      "changeset": 69470565,
      "user": "Federico Explorador",
      "uid": 293454,
      "tags": {
        "amenity": "pub",
        "name": "El rincon del vino"
      }
    },
    {
      "type": "node",
      "id": 1467733186,
      "lat": 5.633866,
      "lon": -73.5243287,
      "timestamp": "2019-04-23T00:13:35Z",
      "version": 3,
      "changeset": 69470565,
      "user": "Federico Explorador",
      "uid": 293454,
      "tags": {
        "amenity": "pub",
        "name": "De la cava de Don Fernando"
      }
    },
    {
      "type": "node",
      "id": 1481731929,
      "lat": 6.1720868,
      "lon": -75.6107186,
      "timestamp": "2011-10-26T22:12:13Z",
      "version": 1,
      "changeset": 9664673,
      "user": "Amajave",
      "uid": 520462,
      "tags": {
        "amenity": "bar",
        "name": "Chapinos"
      }
    },
    {
      "type": "node",
      "id": 1484781209,
      "lat": 4.6753951,
      "lon": -74.047949,
      "timestamp": "2023-05-22T22:19:22Z",
      "version": 5,
      "changeset": 136431961,
      "user": "osm972",
      "uid": 122547,
      "tags": {
        "addr:street": "Carrera 11A",
        "amenity": "bar",
        "check_date": "2023-05-22",
        "name": "Galería, Café y Libro",
        "opening_hours": "Mo-Sa 11:30-03:00",
        "website": "http://www.galeriacafelibro.com.co/",
        "wheelchair": "no"
      }
    },
    {
      "type": "node",
      "id": 1490610572,
      "lat": 6.208932,
      "lon": -75.56828,
      "timestamp": "2011-11-03T18:39:09Z",
      "version": 1,
      "changeset": 9732771,
      "user": "WingedStone",
      "uid": 35018,
      "tags": {
        "amenity": "pub",
        "name": "Havana"
      }
    },
    {
      "type": "node",
      "id": 1500082436,
      "lat": 8.5922645,
      "lon": -71.1462035,
      "timestamp": "2015-05-12T20:40:59Z",
      "version": 2,
      "changeset": 31066024,
      "user": "Arquitectónico",
      "uid": 83065,
      "tags": {
        "amenity": "pub",
        "name": "La Taberna de Eugenio"
      }
    },
    {
      "type": "node",
      "id": 1505761462,
      "lat": 7.8614847,
      "lon": -72.4995569,
      "timestamp": "2012-08-07T00:45:33Z",
      "version": 2,
      "changeset": 12640162,
      "user": "paul sayed",
      "uid": 771082,
      "tags": {
        "amenity": "bar",
        "name": "Mr. Badillo"
      }
    },
    {
      "type": "node",
      "id": 1537662981,
      "lat": 8.9520758,
      "lon": -79.5334745,
      "timestamp": "2012-06-20T16:21:04Z",
      "version": 3,
      "changeset": 11960501,
      "user": "kr12",
      "uid": 570551,
      "tags": {
        "amenity": "bar",
        "name": "Tequlia's"
      }
    },
    {
      "type": "node",
      "id": 1538866381,
      "lat": 8.9531519,
      "lon": -79.5337616,
      "timestamp": "2011-12-09T23:56:13Z",
      "version": 1,
      "changeset": 10077666,
      "user": "Hoylen Sue",
      "uid": 5715,
      "tags": {
        "amenity": "bar",
        "name": "Kyoto Sushi and Martini Bar"
      }
    },
    {
      "type": "node",
      "id": 1538866410,
      "lat": 8.9532472,
      "lon": -79.5337536,
      "timestamp": "2011-12-09T23:56:14Z",
      "version": 1,
      "changeset": 10077666,
      "user": "Hoylen Sue",
      "uid": 5715,
      "tags": {
        "amenity": "pub",
        "name": "Ciao Pescao"
      }
    },
    {
      "type": "node",
      "id": 1566491177,
      "lat": 4.603173,
      "lon": -74.068872,
      "timestamp": "2011-12-29T01:00:58Z",
      "version": 1,
      "changeset": 10231711,
      "user": "WingedStone",
      "uid": 35018,
      "tags": {
        "amenity": "pub",
        "name": "Sophia"
      }
    },
    {
      "type": "node",
      "id": 1568205867,
      "lat": 4.6130979,
      "lon": -74.1344873,
      "timestamp": "2011-12-29T21:32:53Z",
      "version": 1,
      "changeset": 10239877,
      "user": "harrierco",
      "uid": 222199,
      "tags": {
        "amenity": "bar",
        "name": "Castel Blue"
      }
    },
    {
      "type": "node",
      "id": 1650266595,
      "lat": 5.3489641,
      "lon": -72.398818,
      "timestamp": "2012-02-27T11:48:37Z",
      "version": 1,
      "changeset": 10807686,
      "user": "Juan Carlos Botero Ramirez",
      "uid": 59994,
      "tags": {
        "amenity": "pub",
        "name": "Ice Cream"
      }
    },
    {
      "type": "node",
      "id": 1650267224,
      "lat": 5.345626,
      "lon": -72.3993598,
      "timestamp": "2012-02-27T11:50:14Z",
      "version": 1,
      "changeset": 10807686,
      "user": "Juan Carlos Botero Ramirez",
      "uid": 59994,
      "tags": {
        "amenity": "pub",
        "name": "Morifresas"
      }
    },
    {
      "type": "node",
      "id": 1650267583,
      "lat": 5.3483767,
      "lon": -72.3995932,
      "timestamp": "2012-02-27T11:51:19Z",
      "version": 1,
      "changeset": 10807686,
      "user": "Juan Carlos Botero Ramirez",
      "uid": 59994,
      "tags": {
        "amenity": "pub",
        "name": "Nebraska"
      }
    },
    {
      "type": "node",
      "id": 1650268725,
      "lat": 5.3494661,
      "lon": -72.3990353,
      "timestamp": "2012-02-27T11:53:29Z",
      "version": 1,
      "changeset": 10807686,
      "user": "Juan Carlos Botero Ramirez",
      "uid": 59994,
      "tags": {
        "amenity": "pub",
        "name": "Tropy"
      }
    },
    {
      "type": "node",
      "id": 1650971655,
      "lat": 5.3448063,
      "lon": -72.3884746,
      "timestamp": "2014-01-06T21:11:40Z",
      "version": 4,
      "changeset": 19852307,
      "user": "naoliv",
      "uid": 463507,
      "tags": {
        "amenity": "pub",
        "name": "Mimos"
      }
    },
    {
      "type": "node",
      "id": 1656756365,
      "lat": 5.3487363,
      "lon": -72.3974569,
      "timestamp": "2012-03-02T22:17:17Z",
      "version": 1,
      "changeset": 10852513,
      "user": "Juan Carlos Botero Ramirez",
      "uid": 59994,
      "tags": {
        "amenity": "bar",
        "name": "De la Barra"
      }
    },
    {
      "type": "node",
      "id": 1656841892,
      "lat": 5.3508247,
      "lon": -72.3985942,
      "timestamp": "2012-03-02T23:14:51Z",
      "version": 2,
      "changeset": 10852513,
      "user": "Juan Carlos Botero Ramirez",
      "uid": 59994,
      "tags": {
        "amenity": "bar",
        "name": "La pola de aldini"
      }
    },
    {
      "type": "node",
      "id": 1656842616,
      "lat": 5.3509502,
      "lon": -72.3986696,
      "timestamp": "2012-03-02T23:03:57Z",
      "version": 1,
      "changeset": 10852513,
      "user": "Juan Carlos Botero Ramirez",
      "uid": 59994,
      "tags": {
        "amenity": "bar",
        "name": "Tamara Munchi"
      }
    },
    {
      "type": "node",
      "id": 1656859491,
      "lat": 5.3513721,
      "lon": -72.400295,
      "timestamp": "2012-03-02T23:25:32Z",
      "version": 1,
      "changeset": 10852513,
      "user": "Juan Carlos Botero Ramirez",
      "uid": 59994,
      "tags": {
        "amenity": "pub",
        "name": "Piña con helado"
      }
    },
    {
      "type": "node",
      "id": 1658574442,
      "lat": 6.170088,
      "lon": -75.5886806,
      "timestamp": "2012-03-12T20:04:17Z",
      "version": 2,
      "changeset": 10959732,
      "user": "Saa7",
      "uid": 615689,
      "tags": {
        "amenity": "bar",
        "name": "Melodía para dos",
        "wifi": "no"
      }
    },
    {
      "type": "node",
      "id": 1658574455,
      "lat": 6.168576,
      "lon": -75.5885784,
      "timestamp": "2012-03-04T05:36:45Z",
      "version": 1,
      "changeset": 10864790,
      "user": "Saa7",
      "uid": 615689,
      "tags": {
        "amenity": "bar",
        "name": "Yesterday"
      }
    },
    {
      "type": "node",
      "id": 1658574456,
      "lat": 6.1649386,
      "lon": -75.5850381,
      "timestamp": "2012-03-04T05:36:46Z",
      "version": 1,
      "changeset": 10864790,
      "user": "Saa7",
      "uid": 615689,
      "tags": {
        "amenity": "bar",
        "name": "Safari",
        "wifi": "no"
      }
    },
    {
      "type": "node",
      "id": 1661156173,
      "lat": 4.7039244,
      "lon": -74.0433935,
      "timestamp": "2016-06-12T22:04:09Z",
      "version": 2,
      "changeset": 39980588,
      "user": "cansadadeserfeliz",
      "uid": 1901962,
      "tags": {
        "amenity": "pub",
        "name": "Beer"
      }
    },
    {
      "type": "node",
      "id": 1661484725,
      "lat": 4.6796008,
      "lon": -74.0475906,
      "timestamp": "2012-03-05T22:40:28Z",
      "version": 1,
      "changeset": 10884868,
      "user": "AFRK",
      "uid": 617794,
      "tags": {
        "amenity": "bar",
        "name": "Full 80´S"
      }
    },
    {
      "type": "node",
      "id": 1667886209,
      "lat": 4.6595424,
      "lon": -74.1081446,
      "timestamp": "2020-07-17T05:37:35Z",
      "version": 2,
      "changeset": 88119855,
      "user": "Desiderantes",
      "uid": 2140822,
      "tags": {
        "amenity": "pub",
        "internet_access": "wlan",
        "internet_access:fee": "no",
        "name": "Britannia"
      }
    },
    {
      "type": "node",
      "id": 1673539449,
      "lat": 6.1690627,
      "lon": -75.5878131,
      "timestamp": "2012-03-13T16:23:57Z",
      "version": 1,
      "changeset": 10968607,
      "user": "Saa7",
      "uid": 615689,
      "tags": {
        "amenity": "bar"
      }
    },
    {
      "type": "node",
      "id": 1676514138,
      "lat": 0.8724732,
      "lon": -79.8515324,
      "timestamp": "2012-03-16T04:49:25Z",
      "version": 1,
      "changeset": 10995069,
      "user": "mbethke",
      "uid": 248338,
      "tags": {
        "amenity": "bar",
        "name": "Guido's"
      }
    },
    {
      "type": "node",
      "id": 1676514142,
      "lat": 0.873037,
      "lon": -79.8507076,
      "timestamp": "2012-03-16T04:49:25Z",
      "version": 1,
      "changeset": 10995069,
      "user": "mbethke",
      "uid": 248338,
      "tags": {
        "amenity": "bar",
        "name": "Tronco"
      }
    },
    {
      "type": "node",
      "id": 1676514150,
      "lat": 0.873593,
      "lon": -79.8498697,
      "timestamp": "2012-03-16T04:49:26Z",
      "version": 1,
      "changeset": 10995069,
      "user": "mbethke",
      "uid": 248338,
      "tags": {
        "amenity": "bar",
        "name": "Hot Rock"
      }
    },
    {
      "type": "node",
      "id": 1676514171,
      "lat": 0.8736797,
      "lon": -79.8497458,
      "timestamp": "2012-03-16T04:49:26Z",
      "version": 1,
      "changeset": 10995069,
      "user": "mbethke",
      "uid": 248338,
      "tags": {
        "amenity": "bar",
        "name": "SamBayecito"
      }
    },
    {
      "type": "node",
      "id": 1676514252,
      "lat": 0.8733746,
      "lon": -79.8502089,
      "timestamp": "2012-03-16T04:49:30Z",
      "version": 1,
      "changeset": 10995069,
      "user": "mbethke",
      "uid": 248338,
      "tags": {
        "amenity": "bar",
        "name": "Cheers"
      }
    },
    {
      "type": "node",
      "id": 1676514254,
      "lat": 0.872289,
      "lon": -79.8518073,
      "timestamp": "2012-03-16T04:49:30Z",
      "version": 1,
      "changeset": 10995069,
      "user": "mbethke",
      "uid": 248338,
      "tags": {
        "amenity": "bar",
        "name": "Panchitas"
      }
    },
    {
      "type": "node",
      "id": 1676514259,
      "lat": 0.8729657,
      "lon": -79.8508021,
      "timestamp": "2012-03-16T04:49:30Z",
      "version": 1,
      "changeset": 10995069,
      "user": "mbethke",
      "uid": 248338,
      "tags": {
        "amenity": "bar",
        "name": "Madera Fina"
      }
    },
    {
      "type": "node",
      "id": 1676514267,
      "lat": 0.8738981,
      "lon": -79.8494282,
      "timestamp": "2012-03-16T04:49:30Z",
      "version": 1,
      "changeset": 10995069,
      "user": "mbethke",
      "uid": 248338,
      "tags": {
        "amenity": "bar",
        "name": "Friend's"
      }
    },
    {
      "type": "node",
      "id": 1682767490,
      "lat": 0.8725306,
      "lon": -79.851441,
      "timestamp": "2012-03-20T05:12:49Z",
      "version": 1,
      "changeset": 11037525,
      "user": "mbethke",
      "uid": 248338,
      "tags": {
        "amenity": "bar",
        "name": "Caida del Sol"
      }
    },
    {
      "type": "node",
      "id": 1682767525,
      "lat": 0.8734211,
      "lon": -79.8501345,
      "timestamp": "2012-03-20T05:12:55Z",
      "version": 1,
      "changeset": 11037525,
      "user": "mbethke",
      "uid": 248338,
      "tags": {
        "amenity": "bar",
        "name": "Planet Atacames"
      }
    },
    {
      "type": "node",
      "id": 1683858617,
      "lat": 0.8689287,
      "lon": -79.8495227,
      "timestamp": "2012-03-20T21:05:00Z",
      "version": 1,
      "changeset": 11045691,
      "user": "mbethke",
      "uid": 248338,
      "tags": {
        "amenity": "bar",
        "name": "Chiquillos"
      }
    },
    {
      "type": "node",
      "id": 1687836810,
      "lat": 9.22596,
      "lon": -75.822174,
      "timestamp": "2012-11-28T19:58:45Z",
      "version": 2,
      "changeset": 14078081,
      "user": "dbusse",
      "uid": 149876,
      "tags": {
        "amenity": "bar",
        "name": "Estadero don Burro"
      }
    },
    {
      "type": "node",
      "id": 1689409885,
      "lat": 4.1517939,
      "lon": -73.6390017,
      "timestamp": "2012-09-26T09:27:02Z",
      "version": 3,
      "changeset": 13256489,
      "user": "Manchito",
      "uid": 202868,
      "tags": {
        "amenity": "bar"
      }
    },
    {
      "type": "node",
      "id": 1693501387,
      "lat": 5.0818312,
      "lon": -75.6837794,
      "timestamp": "2012-03-27T18:19:21Z",
      "version": 2,
      "changeset": 11118551,
      "user": "Manchito",
      "uid": 202868,
      "tags": {
        "amenity": "pub"
      }
    },
    {
      "type": "node",
      "id": 1693826712,
      "lat": 6.1696933,
      "lon": -75.587769,
      "timestamp": "2012-03-27T21:13:51Z",
      "version": 1,
      "changeset": 11120935,
      "user": "Saa7",
      "uid": 615689,
      "tags": {
        "amenity": "bar"
      }
    },
    {
      "type": "node",
      "id": 1695443448,
      "lat": 8.6067351,
      "lon": -71.1378272,
      "timestamp": "2018-12-28T18:18:35Z",
      "version": 2,
      "changeset": 65849302,
      "user": "orca_horka",
      "uid": 8525896,
      "tags": {
        "amenity": "bar",
        "name": "PopArt Café"
      }
    },
    {
      "type": "node",
      "id": 1695463600,
      "lat": 8.6204629,
      "lon": -71.13108,
      "timestamp": "2012-07-18T19:29:37Z",
      "version": 2,
      "changeset": 12294906,
      "user": "hernanr",
      "uid": 120518,
      "tags": {
        "amenity": "bar",
        "name": "Mojitos"
      }
    },
    {
      "type": "node",
      "id": 1695463615,
      "lat": 8.6206034,
      "lon": -71.1306348,
      "timestamp": "2012-03-29T02:14:18Z",
      "version": 1,
      "changeset": 11132867,
      "user": "AMarcucciS",
      "uid": 336538,
      "tags": {
        "amenity": "bar",
        "name": "Euro RestoBar"
      }
    },
    {
      "type": "node",
      "id": 1703610281,
      "lat": 6.5530928,
      "lon": -73.1538652,
      "timestamp": "2022-07-28T17:00:59Z",
      "version": 3,
      "changeset": 124195677,
      "user": "JuanMelo",
      "uid": 12906384,
      "tags": {
        "amenity": "bar"
      }
    },
    {
      "type": "node",
      "id": 1704392807,
      "lat": 5.0791738,
      "lon": -75.6772746,
      "timestamp": "2012-04-06T12:51:29Z",
      "version": 1,
      "changeset": 11201285,
      "user": "Manchito",
      "uid": 202868,
      "tags": {
        "amenity": "biergarten",
        "name": "Paradero Aeropuerto"
      }
    },
    {
      "type": "node",
      "id": 1704392855,
      "lat": 5.0815115,
      "lon": -75.678212,
      "timestamp": "2012-04-06T12:51:32Z",
      "version": 1,
      "changeset": 11201285,
      "user": "Manchito",
      "uid": 202868,
      "tags": {
        "amenity": "bar",
        "name": "Taberna Década"
      }
    },
    {
      "type": "node",
      "id": 1704824591,
      "lat": 8.8601172,
      "lon": -70.6988504,
      "timestamp": "2015-12-07T02:21:25Z",
      "version": 2,
      "changeset": 35798178,
      "user": "algarinr",
      "uid": 1674230,
      "tags": {
        "amenity": "bar",
        "name": "Tasca Disco"
      }
    },
    {
      "type": "node",
      "id": 1704830416,
      "lat": 8.8669672,
      "lon": -70.6904737,
      "timestamp": "2020-10-27T10:01:05Z",
      "version": 2,
      "changeset": 93111117,
      "user": "Wilmer Osario",
      "uid": 5443883,
      "tags": {
        "amenity": "bar",
        "name": "Tasca Disco El Alcón"
      }
    },
    {
      "type": "node",
      "id": 1709216993,
      "lat": 4.7217539,
      "lon": -74.0418753,
      "timestamp": "2017-10-10T18:27:53Z",
      "version": 3,
      "changeset": 52802371,
      "user": "Ranger444",
      "uid": 3319178,
      "tags": {
        "addr:street": "Calle 140",
        "amenity": "pub",
        "name": "La Bodega - Bogotá Beer Company",
        "source": "Kaart Ground Survey 2017"
      }
    },
    {
      "type": "node",
      "id": 1714808778,
      "lat": 6.2789633,
      "lon": -75.6351487,
      "timestamp": "2023-10-27T00:22:59Z",
      "version": 5,
      "changeset": 143187359,
      "user": "AngocA",
      "uid": 89128,
      "tags": {
        "amenity": "bar",
        "name": "Santo Pecado Bar",
        "opening_hours": "Th-Su 18:00-02:00",
        "smoking": "isolated",
        "website": "https://www.facebook.com/groups/166649740063445/",
        "wheelchair": "no"
      }
    },
    {
      "type": "node",
      "id": 1731186886,
      "lat": 5.0412648,
      "lon": -75.5030587,
      "timestamp": "2012-05-04T20:47:52Z",
      "version": 3,
      "changeset": 11502145,
      "user": "Manchito",
      "uid": 202868,
      "tags": {
        "amenity": "bar",
        "name": "Aquí te Quiero Ver"
      }
    },
    {
      "type": "node",
      "id": 1731186890,
      "lat": 5.057244,
      "lon": -75.4868496,
      "timestamp": "2018-01-15T04:01:05Z",
      "version": 3,
      "changeset": 55449292,
      "user": "rinsilver22",
      "uid": 7471032,
      "tags": {
        "amenity": "bar",
        "name": "Viña del Mar"
      }
    },
    {
      "type": "node",
      "id": 1731186893,
      "lat": 5.0407406,
      "lon": -75.503016,
      "timestamp": "2012-04-27T06:12:23Z",
      "version": 2,
      "changeset": 11429472,
      "user": "rothware",
      "uid": 668251,
      "tags": {
        "amenity": "bar",
        "name": "La 33"
      }
    },
    {
      "type": "node",
      "id": 1731435910,
      "lat": 5.0680683,
      "lon": -75.5144708,
      "timestamp": "2018-03-30T19:40:39Z",
      "version": 2,
      "changeset": 57671230,
      "user": "mizmay",
      "uid": 1256139,
      "tags": {
        "amenity": "bar",
        "name": "Sammy's Club"
      }
    },
    {
      "type": "node",
      "id": 1742284038,
      "lat": 3.486207,
      "lon": -76.5009233,
      "timestamp": "2018-03-22T04:00:20Z",
      "version": 2,
      "changeset": 57407965,
      "user": "Gingerbeatzzz",
      "uid": 7445906,
      "tags": {
        "amenity": "bar",
        "name": "Caballlo Blanco",
        "wifi": "no"
      }
    },
    {
      "type": "node",
      "id": 1742284040,
      "lat": 3.485886,
      "lon": -76.5010196,
      "timestamp": "2018-03-22T04:00:20Z",
      "version": 3,
      "changeset": 57407965,
      "user": "Gingerbeatzzz",
      "uid": 7445906,
      "tags": {
        "amenity": "bar",
        "description": "bar and drinks",
        "name": "Cafe-Bar La Estación",
        "wifi": "no"
      }
    },
    {
      "type": "node",
      "id": 1742284041,
      "lat": 3.4865872,
      "lon": -76.5008482,
      "timestamp": "2018-03-22T04:00:20Z",
      "version": 2,
      "changeset": 57407965,
      "user": "Gingerbeatzzz",
      "uid": 7445906,
      "tags": {
        "amenity": "bar",
        "name": "Bar Los Recuerdos de Ella",
        "wifi": "no"
      }
    },
    {
      "type": "node",
      "id": 1747626851,
      "lat": 8.5977051,
      "lon": -71.141443,
      "timestamp": "2012-05-10T15:19:39Z",
      "version": 1,
      "changeset": 11559822,
      "user": "Eduardo Mendez",
      "uid": 626432,
      "tags": {
        "amenity": "bar",
        "name": "Bananas Coctel",
        "source": "www.mibels.com"
      }
    },
    {
      "type": "node",
      "id": 1754511302,
      "lat": 8.5827311,
      "lon": -71.1540724,
      "timestamp": "2015-06-27T19:06:31Z",
      "version": 2,
      "changeset": 32249017,
      "user": "tagginator",
      "uid": 3009170,
      "tags": {
        "amenity": "bar",
        "name": "Abastos y Licorería Sorocaima",
        "source": "www.mibels.com"
      }
    },
    {
      "type": "node",
      "id": 1757441124,
      "lat": 8.5997888,
      "lon": -71.140523,
      "timestamp": "2012-05-18T18:12:26Z",
      "version": 1,
      "changeset": 11635795,
      "user": "Eduardo Mendez",
      "uid": 626432,
      "tags": {
        "amenity": "bar",
        "name": "The Froggy's Lounge-Bar",
        "source": "www.mibels.com"
      }
    },
    {
      "type": "node",
      "id": 1757458864,
      "lat": 8.5857908,
      "lon": -71.1758692,
      "timestamp": "2012-05-18T18:29:24Z",
      "version": 1,
      "changeset": 11635963,
      "user": "Eduardo Mendez",
      "uid": 626432,
      "tags": {
        "amenity": "bar",
        "name": "Palo Palito Bar C.A",
        "source": "www.mibels.com"
      }
    },
    {
      "type": "node",
      "id": 1767548092,
      "lat": 5.0618592,
      "lon": -75.4921732,
      "timestamp": "2024-03-01T06:31:12Z",
      "version": 3,
      "changeset": 148082341,
      "user": "ablevi202",
      "uid": 15815055,
      "tags": {
        "addr:city": "Manizales",
        "amenity": "bar",
        "lgbtq": "primary",
        "name": "Touch Me"
      }
    },
    {
      "type": "node",
      "id": 1777608891,
      "lat": 4.8638945,
      "lon": -74.0609218,
      "timestamp": "2012-06-06T01:05:03Z",
      "version": 1,
      "changeset": 11811671,
      "user": "carlosgamboa",
      "uid": 696917,
      "tags": {
        "amenity": "pub",
        "name": "La Estancia"
      }
    },
    {
      "type": "node",
      "id": 1818459182,
      "lat": 4.6551988,
      "lon": -74.0603401,
      "timestamp": "2025-02-02T12:43:34Z",
      "version": 5,
      "changeset": 162044624,
      "user": "wille",
      "uid": 360183,
      "tags": {
        "addr:housenumber": "70-05",
        "addr:street": "Carrera 11",
        "amenity": "pub",
        "check_date": "2025-02-02",
        "name": "Cafe Verona Pub",
        "source": "Kaart Ground Survey 2017",
        "wheelchair": "no"
      }
    },
    {
      "type": "node",
      "id": 1855077632,
      "lat": 7.8856275,
      "lon": -72.5110224,
      "timestamp": "2012-08-06T23:38:44Z",
      "version": 1,
      "changeset": 12640162,
      "user": "paul sayed",
      "uid": 771082,
      "tags": {
        "amenity": "bar",
        "name": "Estanco 24 Horas"
      }
    },
    {
      "type": "node",
      "id": 1855077634,
      "lat": 7.8814986,
      "lon": -72.5101747,
      "timestamp": "2012-08-06T23:38:44Z",
      "version": 1,
      "changeset": 12640162,
      "user": "paul sayed",
      "uid": 771082,
      "tags": {
        "addr:street": "Calle 14 Avenida 12",
        "amenity": "bar",
        "name": "Estanco GrandT",
        "wifi": "no"
      }
    },
    {
      "type": "node",
      "id": 1863139929,
      "lat": 4.7297207,
      "lon": -74.049471,
      "timestamp": "2017-10-05T15:09:46Z",
      "version": 3,
      "changeset": 52657456,
      "user": "Ranger444",
      "uid": 3319178,
      "tags": {
        "addr:street": "Autopista Norte",
        "amenity": "pub",
        "name": "Mr Floyd",
        "source": "Kaart Ground Survey 2017"
      }
    },
    {
      "type": "node",
      "id": 1863866250,
      "lat": 4.6262669,
      "lon": -74.1727156,
      "timestamp": "2012-08-13T03:35:38Z",
      "version": 1,
      "changeset": 12708961,
      "user": "Paulo Cesar",
      "uid": 138219,
      "tags": {
        "amenity": "bar"
      }
    },
    {
      "type": "node",
      "id": 1866341144,
      "lat": 4.5541049,
      "lon": -74.140029,
      "timestamp": "2012-08-14T20:34:29Z",
      "version": 1,
      "changeset": 12731435,
      "user": "Alejandro Lizzt",
      "uid": 780178,
      "tags": {
        "amenity": "bar"
      }
    },
    {
      "type": "node",
      "id": 1869543571,
      "lat": 4.6699194,
      "lon": -74.1085605,
      "timestamp": "2012-08-17T05:29:56Z",
      "version": 1,
      "changeset": 12757972,
      "user": "harrierco",
      "uid": 222199,
      "tags": {
        "amenity": "bar",
        "name": "Sinaloa"
      }
    },
    {
      "type": "node",
      "id": 1869543574,
      "lat": 4.6735101,
      "lon": -74.1042944,
      "timestamp": "2012-08-17T05:29:56Z",
      "version": 1,
      "changeset": 12757972,
      "user": "harrierco",
      "uid": 222199,
      "tags": {
        "amenity": "bar",
        "name": "Tequila Bar"
      }
    },
    {
      "type": "node",
      "id": 1882851152,
      "lat": 4.6287546,
      "lon": -74.0685423,
      "timestamp": "2025-06-17T13:41:07Z",
      "version": 6,
      "changeset": 167739398,
      "user": "Barto920203",
      "uid": 10140282,
      "tags": {
        "addr:housenumber": "40-43",
        "addr:street": "Avenida Caracas",
        "amenity": "bar",
        "name": "Asilo Bar"
      }
    },
    {
      "type": "node",
      "id": 1882851216,
      "lat": 4.6311167,
      "lon": -74.0644377,
      "timestamp": "2012-08-25T17:42:31Z",
      "version": 1,
      "changeset": 12858212,
      "user": "SithMaster",
      "uid": 832620,
      "tags": {
        "amenity": "bar",
        "name": "Etniko"
      }
    },
    {
      "type": "node",
      "id": 1884715440,
      "lat": 8.5925905,
      "lon": -71.1428402,
      "timestamp": "2012-08-27T01:23:30Z",
      "version": 1,
      "changeset": 12873733,
      "user": "le0ruiz",
      "uid": 330580,
      "tags": {
        "amenity": "pub",
        "cuisine": "pizza",
        "name": "La Botana"
      }
    },
    {
      "type": "node",
      "id": 1884716839,
      "lat": 8.5920575,
      "lon": -71.1413462,
      "timestamp": "2012-08-27T01:24:57Z",
      "version": 1,
      "changeset": 12873733,
      "user": "le0ruiz",
      "uid": 330580,
      "tags": {
        "amenity": "pub",
        "name": "El Elefante Dorado",
        "wifi": "yes"
      }
    },
    {
      "type": "node",
      "id": 1885517164,
      "lat": 4.6275461,
      "lon": -74.0657739,
      "timestamp": "2015-03-27T04:05:06Z",
      "version": 3,
      "changeset": 29769393,
      "user": "jcestepa",
      "uid": 2782062,
      "tags": {
        "addr:housenumber": "7-34",
        "addr:street": "Calle 40",
        "amenity": "bar",
        "building": "apartments",
        "name": "La Oficina"
      }
    },
    {
      "type": "node",
      "id": 1915333846,
      "lat": 6.9563253,
      "lon": -71.8771888,
      "timestamp": "2018-09-07T20:00:57Z",
      "version": 3,
      "changeset": 62386992,
      "user": "paul sayed",
      "uid": 771082,
      "tags": {
        "addr:city": "Saravena",
        "addr:street": "Carrera 16",
        "amenity": "bar",
        "name": "Weekend"
      }
    },
    {
      "type": "node",
      "id": 1926365556,
      "lat": 6.3434767,
      "lon": -75.5170718,
      "timestamp": "2012-09-22T02:26:06Z",
      "version": 1,
      "changeset": 13202928,
      "user": "Daniel Sanchez R",
      "uid": 566176,
      "tags": {
        "amenity": "pub"
      }
    },
    {
      "type": "node",
      "id": 1939156016,
      "lat": 4.6315507,
      "lon": -74.0815923,
      "timestamp": "2013-09-30T02:23:42Z",
      "version": 3,
      "changeset": 18102875,
      "user": "Vidal de la Blache",
      "uid": 779340,
      "tags": {
        "amenity": "pub",
        "name": "La Parva"
      }
    },
    {
      "type": "node",
      "id": 1986139426,
      "lat": 4.7202395,
      "lon": -74.038302,
      "timestamp": "2023-07-13T18:10:03Z",
      "version": 10,
      "changeset": 138474749,
      "user": "AngocA",
      "uid": 89128,
      "tags": {
        "addr:city": "Bogotá D.C.",
        "addr:housenumber": "12-54",
        "addr:postcode": "110121",
        "addr:street": "Calle 140",
        "amenity": "pub",
        "microbrewery": "yes",
        "name": "BEER",
        "phone": "+57 601 6333713",
        "source": "Kaart Ground Survey 2017",
        "website": "https://www.pub-beer.com/encuentranos/"
      }
    },
    {
      "type": "node",
      "id": 1997308047,
      "lat": 1.2187298,
      "lon": -77.2805071,
      "timestamp": "2012-11-04T17:07:19Z",
      "version": 1,
      "changeset": 13749970,
      "user": "Lucas Poldrosky",
      "uid": 1026746,
      "tags": {
        "addr:full": "Calle 18 29",
        "addr:housenumber": "46",
        "addr:street": "Calle 18",
        "amenity": "bar",
        "name": "Absalon Music Hall"
      }
    },
    {
      "type": "node",
      "id": 1997309707,
      "lat": 1.2192269,
      "lon": -77.2785589,
      "timestamp": "2012-11-04T17:08:26Z",
      "version": 1,
      "changeset": 13749970,
      "user": "Lucas Poldrosky",
      "uid": 1026746,
      "tags": {
        "addr:full": "Carrera 29 20",
        "addr:housenumber": "11",
        "addr:street": "Carrera 29",
        "amenity": "bar",
        "name": "Taberna Los Chavos"
      }
    },
    {
      "type": "node",
      "id": 2014642564,
      "lat": 6.6474053,
      "lon": -73.9507834,
      "timestamp": "2025-07-30T02:46:16Z",
      "version": 2,
      "changeset": 169698847,
      "user": "German C",
      "uid": 1225083,
      "tags": {
        "amenity": "pub",
        "name": "Estanco el Licorazo"
      }
    },
    {
      "type": "node",
      "id": 2111012081,
      "lat": 0.3418374,
      "lon": -78.1159718,
      "timestamp": "2013-01-14T17:45:36Z",
      "version": 2,
      "changeset": 14650730,
      "user": "inprise",
      "uid": 430283,
      "tags": {
        "amenity": "bar",
        "name": "El Callejon Food&Drinks"
      }
    },
    {
      "type": "node",
      "id": 2138087194,
      "lat": 5.5349393,
      "lon": -73.3623544,
      "timestamp": "2018-03-12T21:17:08Z",
      "version": 2,
      "changeset": 57124985,
      "user": "Alejandra_Diaz",
      "uid": 6569841,
      "tags": {
        "amenity": "bar",
        "name": "Uff - Rock Bar"
      }
    },
    {
      "type": "node",
      "id": 2138089187,
      "lat": 5.534906,
      "lon": -73.3620379,
      "timestamp": "2013-02-01T22:24:23Z",
      "version": 1,
      "changeset": 14876483,
      "user": "Lasnv",
      "uid": 1093233,
      "tags": {
        "amenity": "bar",
        "name": "Nicanor - Cafe Bar"
      }
    },
    {
      "type": "node",
      "id": 2138374943,
      "lat": 5.5614614,
      "lon": -73.3479403,
      "timestamp": "2013-02-02T01:48:28Z",
      "version": 1,
      "changeset": 14878495,
      "user": "Lasnv",
      "uid": 1093233,
      "tags": {
        "amenity": "bar",
        "name": "Scorpia - Bar"
      }
    },
    {
      "type": "node",
      "id": 2140783756,
      "lat": 4.7292537,
      "lon": -74.0684078,
      "timestamp": "2013-02-03T22:38:37Z",
      "version": 1,
      "changeset": 14903540,
      "user": "borisram",
      "uid": 550227,
      "tags": {
        "amenity": "pub",
        "designation": "Bar",
        "name": "Palos de Moguer"
      }
    },
    {
      "type": "node",
      "id": 2166442618,
      "lat": 4.7421693,
      "lon": -74.0844159,
      "timestamp": "2013-02-22T05:14:03Z",
      "version": 1,
      "changeset": 15118986,
      "user": "ikks",
      "uid": 37987,
      "tags": {
        "amenity": "bar",
        "name": "La Cava Salsa Bar"
      }
    },
    {
      "type": "node",
      "id": 2207085759,
      "lat": 3.3628181,
      "lon": -76.5313111,
      "timestamp": "2013-03-17T18:14:34Z",
      "version": 1,
      "changeset": 15398952,
      "user": "joseye1",
      "uid": 1269516,
      "tags": {
        "amenity": "bar",
        "name": "BIO"
      }
    },
    {
      "type": "node",
      "id": 2227158618,
      "lat": 7.0367032,
      "lon": -73.1186411,
      "timestamp": "2013-03-27T01:40:31Z",
      "version": 1,
      "changeset": 15510580,
      "user": "Alpargatón",
      "uid": 1306456,
      "tags": {
        "amenity": "pub",
        "name": "Bolo Club La Hormiga"
      }
    },
    {
      "type": "node",
      "id": 2232072760,
      "lat": 6.013306,
      "lon": -73.6719687,
      "timestamp": "2023-03-12T21:53:52Z",
      "version": 6,
      "changeset": 133602533,
      "user": "German C",
      "uid": 1225083,
      "tags": {
        "addr:city": "Vélez",
        "amenity": "bar",
        "name": "La Tertulia"
      }
    },
    {
      "type": "node",
      "id": 2233408386,
      "lat": 9.359363,
      "lon": -75.2104585,
      "timestamp": "2013-04-28T10:11:04Z",
      "version": 2,
      "changeset": 15893409,
      "user": "dbusse",
      "uid": 149876,
      "tags": {
        "amenity": "pub",
        "name": "Cancha de Tejo"
      }
    },
    {
      "type": "node",
      "id": 2233408387,
      "lat": 9.359377,
      "lon": -75.2081212,
      "timestamp": "2013-04-28T10:11:05Z",
      "version": 2,
      "changeset": 15893409,
      "user": "dbusse",
      "uid": 149876,
      "tags": {
        "amenity": "pub",
        "name": "Cancha de Tejo"
      }
    },
    {
      "type": "node",
      "id": 2284595055,
      "lat": 6.0121189,
      "lon": -73.673661,
      "timestamp": "2020-05-06T19:50:59Z",
      "version": 2,
      "changeset": 84781515,
      "user": "German C",
      "uid": 1225083,
      "tags": {
        "amenity": "bar",
        "name": "Cafe de la Esquina"
      }
    },
    {
      "type": "node",
      "id": 2296138796,
      "lat": 4.0750193,
      "lon": -73.5860467,
      "timestamp": "2024-05-26T04:17:57Z",
      "version": 5,
      "changeset": 151834852,
      "user": "yissu",
      "uid": 21328702,
      "tags": {
        "amenity": "pub",
        "name": "Los Girasoles"
      }
    },
    {
      "type": "node",
      "id": 2300732412,
      "lat": 1.2067483,
      "lon": -77.4672782,
      "timestamp": "2014-02-19T20:01:20Z",
      "version": 2,
      "changeset": 20662925,
      "user": "Artur_ruby",
      "uid": 1040001,
      "tags": {
        "amenity": "bar"
      }
    },
    {
      "type": "node",
      "id": 2309010303,
      "lat": 6.2096749,
      "lon": -75.5674851,
      "timestamp": "2022-12-25T00:51:46Z",
      "version": 2,
      "changeset": 130470544,
      "user": "scattermap",
      "uid": 11908562,
      "tags": {
        "amenity": "bar",
        "name": "Baren"
      }
    },
    {
      "type": "node",
      "id": 2309861785,
      "lat": 5.0452962,
      "lon": -75.5121274,
      "timestamp": "2023-10-10T23:29:00Z",
      "version": 5,
      "changeset": 142414105,
      "user": "afgb1977",
      "uid": 10218404,
      "tags": {
        "amenity": "bar",
        "name": "Chacaíto",
        "outdoor_seating": "yes",
        "smoking": "yes",
        "toilets": "yes"
      }
    },
    {
      "type": "node",
      "id": 2331233546,
      "lat": 5.0104753,
      "lon": -74.4706059,
      "timestamp": "2013-06-06T14:19:50Z",
      "version": 2,
      "changeset": 16445368,
      "user": "shernandezp",
      "uid": 867005,
      "tags": {
        "amenity": "bar",
        "name": "Piso Cero"
      }
    },
    {
      "type": "node",
      "id": 2332130828,
      "lat": 6.0134417,
      "lon": -73.6721498,
      "timestamp": "2021-12-27T22:28:51Z",
      "version": 5,
      "changeset": 115445749,
      "user": "German C",
      "uid": 1225083,
      "tags": {
        "addr:city": "Vélez",
        "addr:street": "Calle 10",
        "amenity": "bar",
        "name": "Brasiveleño"
      }
    },
    {
      "type": "node",
      "id": 2338515980,
      "lat": 6.0129159,
      "lon": -73.6722099,
      "timestamp": "2023-11-26T19:57:23Z",
      "version": 5,
      "changeset": 144483773,
      "user": "German C",
      "uid": 1225083,
      "tags": {
        "addr:city": "Vélez",
        "addr:street": "Carrera 3",
        "amenity": "bar",
        "name": "Casa Vlz Express"
      }
    },