{
  "version": 0.6,
  "generator": "Overpass API 0.7.62.8 e802775f",
  "osm3s": {
    "timestamp_osm_base": "2025-10-23T19:45:16Z",
    "copyright": "The data included in this document is from www.openstreetmap.org. The data is made available under ODbL."
  },
  "elements": [
    {
      "type": "node",
      "id": 2916266813,
      "lat": -0.7259228,
      "lon": 8.7857127,
      "timestamp": "2023-02-19T18:05:10Z",
      "version": 2,
      "changeset": 132759247,
      "user": "Władysław Komorek",
      "uid": 693154,
      "tags": {
        "amenity": "biergarten"
      }
    },
    {
      "type": "node",
      "id": 4924932085,
      "lat": -0.7225706,
      "lon": 8.7824265,
      "timestamp": "2023-02-20T08:08:32Z",
      "version": 4,
      "changeset": 132777959,
      "user": "Władysław Komorek",
      "uid": 693154,
      "tags": {
        "amenity": "pub",
        "name": "Irish Pub"
      }
    },
    {
      "type": "node",
      "id": 4983346680,
      "lat": -0.7095168,
      "lon": 8.770553,
      "timestamp": "2023-06-16T14:03:14Z",
      "version": 3,
      "changeset": 137416134,
      "user": "Władysław Komorek",
      "uid": 693154,
      "tags": {
        "addr:city": "Port-Gentil",
        "amenity": "bar",
        "name": "Moon Light Snack Bar Gril",
        "opening_hours": "Tu-Su 10:00-02:00",
        "operator": "Franck",
        "outdoor_seating": "yes",
        "smoking": "outside"
      }
    },
    {
      "type": "node",
      "id": 5354774226,
      "lat": -0.7383295,
      "lon": 8.7782283,
      "timestamp": "2023-06-24T07:07:47Z",
      "version": 3,
      "changeset": 137711296,
      "user": "Władysław Komorek",
      "uid": 693154,
      "tags": {
        "amenity": "bar",
        "name": "Club Vis Ta Vie"
      }
    },
    {
      "type": "node",
      "id": 5920581385,
      "lat": -0.7193046,
      "lon": 8.7784233,
      "timestamp": "2023-06-09T17:48:35Z",
      "version": 3,
      "changeset": 137147640,
      "user": "Władysław Komorek",
      "uid": 693154,
      "tags": {
        "amenity": "bar",
        "name": "New Place"
      }
    },
    {
      "type": "node",
      "id": 6552044485,
      "lat": -0.7281635,
      "lon": 8.7824167,
      "timestamp": "2023-06-09T21:58:16Z",
      "version": 3,
      "changeset": 137155014,
      "user": "Władysław Komorek",
      "uid": 693154,
      "tags": {
        "amenity": "bar",
        "name": "Orange bleue"
      }
    },
    {
      "type": "node",
      "id": 6938363885,
      "lat": -0.7099609,
      "lon": 8.783286,
      "timestamp": "2023-02-19T18:05:14Z",
      "version": 2,
      "changeset": 132759253,
      "user": "Władysław Komorek",
      "uid": 693154,
      "tags": {
        "amenity": "bar",
        "name": "Marina Social Beach"
      }
    },
    {
      "type": "node",
      "id": 7098891486,
      "lat": -0.7480281,
      "lon": 8.7654441,
      "timestamp": "2023-02-19T18:05:14Z",
      "version": 2,
      "changeset": 132759253,
      "user": "Władysław Komorek",
      "uid": 693154,
      "tags": {
        "amenity": "pub"
      }
    },
    {
      "type": "node",
      "id": 7180542385,
      "lat": -1.5715105,
      "lon": 9.2665562,
      "timestamp": "2020-02-03T06:56:14Z",
      "version": 1,
      "changeset": 80459621,
      "user": "Sophie Gimeno",
      "uid": 8228128,
      "tags": {
        "amenity": "bar",
        "name": "Planchet"
      }
    },
    {
      "type": "node",
      "id": 7180542386,
      "lat": -1.5695109,
      "lon": 9.2609358,
      "timestamp": "2023-05-23T08:41:21Z",
      "version": 2,
      "changeset": 136445236,
      "user": "Władysław Komorek",
      "uid": 693154,
      "tags": {
        "amenity": "bar",
        "name": "Bakoli"
      }
    },
    {
      "type": "node",
      "id": 7185719485,
      "lat": -0.719941,
      "lon": 8.7846682,
      "timestamp": "2023-06-08T13:16:39Z",
      "version": 3,
      "changeset": 137097080,
      "user": "Władysław Komorek",
      "uid": 693154,
      "tags": {
        "amenity": "bar",
        "name": "Maestro"
      }
    }
  ]
}