{
  "version": 0.6,
  "generator": "Overpass API 0.7.62.8 e802775f",
  "osm3s": {
    "timestamp_osm_base": "2025-10-23T19:45:16Z",
    "copyright": "The data included in this document is from www.openstreetmap.org. The data is made available under ODbL."
  },
  "elements": [
    {
      "type": "node",
      "id": 440109944,
      "lat": -4.3012269,
      "lon": 15.3116034,
      "timestamp": "2025-04-23T12:14:25Z",
      "version": 2,
      "changeset": 165330718,
      "user": "VisibleSouth",
      "uid": 11888798,
      "tags": {
        "amenity": "bar",
        "name": "Ibizabar"
      }
    },
    {
      "type": "node",
      "id": 440109945,
      "lat": -4.3009869,
      "lon": 15.3113416,
      "timestamp": "2009-07-11T13:30:43Z",
      "version": 1,
      "changeset": 1796737,
      "user": "moyogo",
      "uid": 246,
      "tags": {
        "amenity": "bar",
        "name": "Caf'Conc'"
      }
    },
    {
      "type": "node",
      "id": 440115100,
      "lat": -4.3054898,
      "lon": 15.2963152,
      "timestamp": "2009-07-11T13:40:27Z",
      "version": 1,
      "changeset": 1796835,
      "user": "moyogo",
      "uid": 246,
      "tags": {
        "amenity": "bar",
        "name": "Le Surcouf"
      }
    },
    {
      "type": "node",
      "id": 440142699,
      "lat": -4.3047927,
      "lon": 15.3063091,
      "timestamp": "2023-05-13T09:29:21Z",
      "version": 2,
      "changeset": 136046187,
      "user": "Mariannamukulunga",
      "uid": 11500943,
      "tags": {
        "amenity": "bar",
        "check_date": "2023-05-13",
        "name": "VIP Pool"
      }
    },
    {
      "type": "node",
      "id": 786664207,
      "lat": -4.3686789,
      "lon": 15.3197223,
      "timestamp": "2013-05-25T22:56:34Z",
      "version": 5,
      "changeset": 16285931,
      "user": "Männedorf",
      "uid": 105050,
      "tags": {
        "amenity": "bar",
        "name": "Relax"
      }
    },
    {
      "type": "node",
      "id": 983579933,
      "lat": -4.3542455,
      "lon": 15.2570004,
      "timestamp": "2017-08-21T15:12:23Z",
      "version": 2,
      "changeset": 51309489,
      "user": "vick25",
      "uid": 5352242,
      "tags": {
        "amenity": "bar"
      }
    },
    {
      "type": "node",
      "id": 1203730156,
      "lat": -4.8192496,
      "lon": 11.8842393,
      "timestamp": "2011-03-15T21:51:39Z",
      "version": 1,
      "changeset": 7570886,
      "user": "JMDCONGO",
      "uid": 422647,
      "tags": {
        "amenity": "bar",
        "name": "Aéroclub"
      }
    },
    {
      "type": "node",
      "id": 1424397156,
      "lat": -4.3032228,
      "lon": 15.3059404,
      "timestamp": "2011-09-05T19:50:59Z",
      "version": 1,
      "changeset": 9221446,
      "user": "expatelec",
      "uid": 517550,
      "tags": {
        "amenity": "bar",
        "designation": "night club"
      }
    },
    {
      "type": "node",
      "id": 1424397157,
      "lat": -4.3011312,
      "lon": 15.3084724,
      "timestamp": "2011-09-05T19:50:59Z",
      "version": 1,
      "changeset": 9221446,
      "user": "expatelec",
      "uid": 517550,
      "tags": {
        "amenity": "bar",
        "designation": "Night club",
        "name": "Chez Temba"
      }
    },
    {
      "type": "node",
      "id": 1424397158,
      "lat": -4.3056354,
      "lon": 15.3069328,
      "timestamp": "2011-09-05T19:50:59Z",
      "version": 1,
      "changeset": 9221446,
      "user": "expatelec",
      "uid": 517550,
      "tags": {
        "amenity": "bar",
        "designation": "night club",
        "name": "Basilic"
      }
    },
    {
      "type": "node",
      "id": 2024641827,
      "lat": -8.7686014,
      "lon": 13.254004,
      "timestamp": "2019-05-08T22:52:27Z",
      "version": 6,
      "changeset": 70051514,
      "user": "Diógenes de Sinope",
      "uid": 2972418,
      "tags": {
        "addr:city": "Luanda",
        "addr:street": "Avenida Murtala Mohamed (Ex Avenida Marchal Gomes da Costa)",
        "amenity": "pub",
        "email": "info@chillout-luanda.com",
        "facebook": "www.facebook.com/chillout.luanda.restaurante",
        "name": "Chill Out",
        "name:de": "Chill Out",
        "name:en": "Chill Out",
        "name:es": "Chill Out",
        "name:fr": "Chill Out",
        "name:it": "Chill Out",
        "name:nl": "Chill Out",
        "name:pl": "Chill Out",
        "name:pt": "Chill Out",
        "name:ru": "Чил Оут",
        "opening_hours": "Mo-Th 05:30-01:00, Fr-Sa 05:30-04:00",
        "phone": "+244 924 282 810",
        "website": "http://www.chillout-luanda.com"
      }
    },
    {
      "type": "node",
      "id": 2052006940,
      "lat": -4.2699784,
      "lon": 15.2770995,
      "timestamp": "2019-10-04T15:12:20Z",
      "version": 3,
      "changeset": 75291784,
      "user": "lionelson",
      "uid": 4352052,
      "tags": {
        "amenity": "pub",
        "name": "Bar under mango tree"
      }
    },
    {
      "type": "node",
      "id": 2057392108,
      "lat": -0.685527,
      "lon": 10.2308975,
      "timestamp": "2025-09-21T15:22:34Z",
      "version": 3,
      "changeset": 172252107,
      "user": "Johnwhelan",
      "uid": 186592,
      "tags": {
        "amenity": "bar",
        "name": "Carpe Diem"
      }
    },
    {
      "type": "node",
      "id": 2148448309,
      "lat": -4.324974,
      "lon": 15.3037499,
      "timestamp": "2025-05-26T20:38:32Z",
      "version": 3,
      "changeset": 166797482,
      "user": "VisibleSouth",
      "uid": 11888798,
      "tags": {
        "amenity": "pub",
        "name": "Chez le Pasteur"
      }
    },
    {
      "type": "node",
      "id": 2148448313,
      "lat": -4.3250729,
      "lon": 15.3059242,
      "timestamp": "2025-05-26T21:25:47Z",
      "version": 4,
      "changeset": 166798836,
      "user": "VisibleSouth",
      "uid": 11888798,
      "tags": {
        "amenity": "pub",
        "check_date": "2023-05-13",
        "name": "Sous les safoutiers"
      }
    },
    {
      "type": "node",
      "id": 2148448571,
      "lat": -4.3248655,
      "lon": 15.3058687,
      "timestamp": "2025-05-26T21:25:47Z",
      "version": 3,
      "changeset": 166798836,
      "user": "VisibleSouth",
      "uid": 11888798,
      "tags": {
        "amenity": "pub",
        "check_date": "2023-05-13"
      }
    },
    {
      "type": "node",
      "id": 2159144027,
      "lat": -4.301808,
      "lon": 15.3077172,
      "timestamp": "2013-02-17T11:45:30Z",
      "version": 1,
      "changeset": 15062446,
      "user": "bassemonline",
      "uid": 1215503,
      "tags": {
        "amenity": "bar",
        "name": "Grand Libulu"
      }
    },
    {
      "type": "node",
      "id": 2159144039,
      "lat": -4.3027634,
      "lon": 15.3082323,
      "timestamp": "2013-02-17T11:45:30Z",
      "version": 1,
      "changeset": 15062446,
      "user": "bassemonline",
      "uid": 1215503,
      "tags": {
        "amenity": "bar",
        "name": "Los Latinos"
      }
    },
    {
      "type": "node",
      "id": 2265745574,
      "lat": -7.7616613,
      "lon": 15.26771,
      "timestamp": "2023-12-26T13:11:33Z",
      "version": 2,
      "changeset": 145533571,
      "user": "VisibleSouth",
      "uid": 11888798,
      "tags": {
        "amenity": "bar",
        "name": "Bar Negage"
      }
    },
    {
      "type": "node",
      "id": 2265745739,
      "lat": -6.0587562,
      "lon": 15.1069397,
      "timestamp": "2013-04-13T10:58:33Z",
      "version": 1,
      "changeset": 15711305,
      "user": "yaho",
      "uid": 385987,
      "tags": {
        "amenity": "bar"
      }
    },
    {
      "type": "node",
      "id": 2266696623,
      "lat": -9.0860414,
      "lon": 15.9545776,
      "timestamp": "2015-03-15T04:19:26Z",
      "version": 2,
      "changeset": 29485205,
      "user": "meppen7",
      "uid": 17422,
      "tags": {
        "amenity": "bar",
        "name": "Bar Kalandula"
      }
    },
    {
      "type": "node",
      "id": 2448279200,
      "lat": -4.7269558,
      "lon": 11.8652342,
      "timestamp": "2013-09-06T17:16:06Z",
      "version": 1,
      "changeset": 17706587,
      "user": "davidubois",
      "uid": 1298607,
      "tags": {
        "amenity": "bar",
        "name": "Espace France 24"
      }
    },
    {
      "type": "node",
      "id": 2452525247,
      "lat": -4.7567424,
      "lon": 11.8679711,
      "timestamp": "2013-09-10T07:57:04Z",
      "version": 1,
      "changeset": 17762268,
      "user": "davidubois",
      "uid": 1298607,
      "tags": {
        "amenity": "bar",
        "name": "NightClub Le Sublime"
      }
    },
    {
      "type": "node",
      "id": 2468600653,
      "lat": -4.7414069,
      "lon": 11.8712388,
      "timestamp": "2013-09-23T10:28:50Z",
      "version": 1,
      "changeset": 17988318,
      "user": "davidubois",
      "uid": 1298607,
      "tags": {
        "amenity": "bar",
        "name": "Bar",
        "note": "Fermé les mercredis"
      }
    },
    {
      "type": "node",
      "id": 2751706510,
      "lat": -0.7007498,
      "lon": 10.2356948,
      "timestamp": "2023-02-14T19:42:59Z",
      "version": 2,
      "changeset": 132552248,
      "user": "Władysław Komorek",
      "uid": 693154,
      "tags": {
        "amenity": "bar",
        "name": "Bokito"
      }
    },
    {
      "type": "node",
      "id": 2751706595,
      "lat": -0.7021428,
      "lon": 10.2315262,
      "timestamp": "2023-02-14T19:42:59Z",
      "version": 2,
      "changeset": 132552248,
      "user": "Władysław Komorek",
      "uid": 693154,
      "tags": {
        "amenity": "bar"
      }
    },
    {
      "type": "node",
      "id": 2857744082,
      "lat": -4.3144832,
      "lon": 15.2865688,
      "timestamp": "2019-07-20T22:01:49Z",
      "version": 3,
      "changeset": 72470532,
      "user": "HubMiner",
      "uid": 238419,
      "tags": {
        "amenity": "bar",
        "name": "Gregoire's bar",
        "opening_hours": "12:00-03:00",
        "smoking": "yes"
      }
    },
    {
      "type": "node",
      "id": 2864459160,
      "lat": -8.9679098,
      "lon": 13.1745388,
      "timestamp": "2014-05-17T14:00:59Z",
      "version": 1,
      "changeset": 22389003,
      "user": "Ne Fonseca",
      "uid": 415439,
      "tags": {
        "amenity": "pub"
      }
    },
    {
      "type": "node",
      "id": 2872971473,
      "lat": -8.9706407,
      "lon": 13.15272,
      "timestamp": "2015-07-21T14:56:24Z",
      "version": 2,
      "changeset": 32779582,
      "user": "abel801",
      "uid": 2377377,
      "tags": {
        "amenity": "bar",
        "name": "Bar"
      }
    },
    {
      "type": "node",
      "id": 3110803981,
      "lat": -4.3316782,
      "lon": 15.2190433,
      "timestamp": "2025-07-06T02:05:00Z",
      "version": 2,
      "changeset": 168544329,
      "user": "VisibleSouth",
      "uid": 11888798,
      "tags": {
        "amenity": "bar",
        "name": "Chez Tintin"
      }
    },
    {
      "type": "node",
      "id": 3278282654,
      "lat": -4.393196,
      "lon": 15.3397953,
      "timestamp": "2025-07-12T15:47:37Z",
      "version": 5,
      "changeset": 168841965,
      "user": "VisibleSouth",
      "uid": 11888798,
      "tags": {
        "amenity": "bar",
        "name": "musuja bar"
      }
    },
    {
      "type": "node",
      "id": 3291519884,
      "lat": -4.2706965,
      "lon": 15.2809512,
      "timestamp": "2015-01-16T00:57:53Z",
      "version": 1,
      "changeset": 28176899,
      "user": "BZVPNR",
      "uid": 2580007,
      "tags": {
        "amenity": "bar",
        "name": "Chicha Bar"
      }
    },
    {
      "type": "node",
      "id": 3291519885,
      "lat": -4.270554,
      "lon": 15.2798961,
      "timestamp": "2025-04-28T00:25:28Z",
      "version": 2,
      "changeset": 165526967,
      "user": "VisibleSouth",
      "uid": 11888798,
      "tags": {
        "amenity": "bar",
        "name": "La Bodega"
      }
    },
    {
      "type": "node",
      "id": 3291519899,
      "lat": -4.2746323,
      "lon": 15.2850428,
      "timestamp": "2015-01-16T00:57:53Z",
      "version": 1,
      "changeset": 28176899,
      "user": "BZVPNR",
      "uid": 2580007,
      "tags": {
        "amenity": "bar",
        "name": "Le Renouveau"
      }
    },
    {
      "type": "node",
      "id": 3291519900,
      "lat": -4.2743128,
      "lon": 15.285049,
      "timestamp": "2015-01-16T00:57:53Z",
      "version": 1,
      "changeset": 28176899,
      "user": "BZVPNR",
      "uid": 2580007,
      "tags": {
        "amenity": "bar",
        "name": "Le Secret"
      }
    },
    {
      "type": "node",
      "id": 3295585037,
      "lat": -4.5852668,
      "lon": 14.9841325,
      "timestamp": "2015-01-18T00:00:36Z",
      "version": 1,
      "changeset": 28221324,
      "user": "BZVPNR",
      "uid": 2580007,
      "tags": {
        "amenity": "bar"
      }
    },
    {
      "type": "node",
      "id": 3323401394,
      "lat": -4.8172368,
      "lon": 11.8721787,
      "timestamp": "2015-01-31T13:50:10Z",
      "version": 1,
      "changeset": 28523610,
      "user": "iero",
      "uid": 509635,
      "tags": {
        "amenity": "bar",
        "name": "Brazil Club"
      }
    },
    {
      "type": "node",
      "id": 3323402062,
      "lat": -4.8028188,
      "lon": 11.8476965,
      "timestamp": "2015-01-31T13:50:28Z",
      "version": 1,
      "changeset": 28523610,
      "user": "iero",
      "uid": 509635,
      "tags": {
        "amenity": "bar",
        "name": "KasBar"
      }
    },
    {
      "type": "node",
      "id": 3323402076,
      "lat": -4.2720834,
      "lon": 12.4645333,
      "timestamp": "2015-01-31T13:50:28Z",
      "version": 1,
      "changeset": 28523610,
      "user": "iero",
      "uid": 509635,
      "tags": {
        "amenity": "bar",
        "name": "La Causette"
      }
    },
    {
      "type": "node",
      "id": 3323403603,
      "lat": -4.7930994,
      "lon": 11.8610146,
      "timestamp": "2015-09-26T11:14:51Z",
      "version": 2,
      "changeset": 34261128,
      "user": "BZVPNR",
      "uid": 2580007,
      "tags": {
        "amenity": "bar",
        "name": "Sanza"
      }
    },
    {
      "type": "node",
      "id": 3323404504,
      "lat": -4.1331507,
      "lon": 12.0613299,
      "timestamp": "2015-01-31T13:51:12Z",
      "version": 1,
      "changeset": 28523610,
      "user": "iero",
      "uid": 509635,
      "tags": {
        "amenity": "bar"
      }
    },
    {
      "type": "node",
      "id": 3465529597,
      "lat": -4.3056172,
      "lon": 15.3053515,
      "timestamp": "2023-05-13T09:29:21Z",
      "version": 3,
      "changeset": 136046187,
      "user": "Mariannamukulunga",
      "uid": 11500943,
      "tags": {
        "addr:housenumber": "16",
        "addr:street": "Avenue du Livre",
        "amenity": "bar",
        "check_date": "2023-05-13",
        "cuisine": "african;tapas",
        "name": "La Datcha",
        "opening_hours": "Mo-Su 12:00 - 01:00"
      }
    },
    {
      "type": "node",
      "id": 3634009298,
      "lat": -4.3058408,
      "lon": 15.3055455,
      "timestamp": "2023-05-13T09:29:21Z",
      "version": 2,
      "changeset": 136046187,
      "user": "Mariannamukulunga",
      "uid": 11500943,
      "tags": {
        "amenity": "bar",
        "check_date": "2023-05-13",
        "name": "Gaspacho"
      }
    },
    {
      "type": "node",
      "id": 3694017141,
      "lat": -8.948788,
      "lon": 13.1687384,
      "timestamp": "2015-08-12T19:50:12Z",
      "version": 1,
      "changeset": 33299069,
      "user": "NicEd",
      "uid": 2647563,
      "tags": {
        "amenity": "bar",
        "name": "Esplanada"
      }
    },
    {
      "type": "node",
      "id": 3725455925,
      "lat": -4.2675178,
      "lon": 15.2765759,
      "timestamp": "2025-04-28T00:25:28Z",
      "version": 4,
      "changeset": 165526967,
      "user": "VisibleSouth",
      "uid": 11888798,
      "tags": {
        "addr:city": "Brazzaville",
        "addr:street": "Avenue Auxence Ickonga",
        "amenity": "bar",
        "name": "Chez Sam",
        "outdoor_seating": "yes",
        "smoking": "yes"
      }
    },
    {
      "type": "node",
      "id": 3725455926,
      "lat": -4.2711208,
      "lon": 15.2799699,
      "timestamp": "2015-09-01T23:06:23Z",
      "version": 1,
      "changeset": 33740796,
      "user": "BZVPNR",
      "uid": 2580007,
      "tags": {
        "amenity": "bar",
        "name": "Bold"
      }
    },
    {
      "type": "node",
      "id": 3725455977,
      "lat": -4.2682114,
      "lon": 15.2653296,
      "timestamp": "2015-09-01T23:06:25Z",
      "version": 1,
      "changeset": 33740796,
      "user": "BZVPNR",
      "uid": 2580007,
      "tags": {
        "amenity": "bar",
        "name": "chez Dina"
      }
    },
    {
      "type": "node",
      "id": 3725456361,
      "lat": -4.2738992,
      "lon": 15.2838544,
      "timestamp": "2015-09-01T23:27:20Z",
      "version": 1,
      "changeset": 33740933,
      "user": "BZVPNR",
      "uid": 2580007,
      "tags": {
        "amenity": "bar",
        "name": "Da Vinci"
      }
    },
    {
      "type": "node",
      "id": 3725456372,
      "lat": -4.2541565,
      "lon": 15.2739622,
      "timestamp": "2015-09-01T23:27:20Z",
      "version": 1,
      "changeset": 33740933,
      "user": "BZVPNR",
      "uid": 2580007,
      "tags": {
        "amenity": "bar",
        "name": "Chez Tata"
      }
    },
    {
      "type": "node",
      "id": 3725456374,
      "lat": -4.2537553,
      "lon": 15.2735975,
      "timestamp": "2015-09-01T23:27:20Z",
      "version": 1,
      "changeset": 33740933,
      "user": "BZVPNR",
      "uid": 2580007,
      "tags": {
        "amenity": "bar"
      }
    },
    {
      "type": "node",
      "id": 3725490477,
      "lat": -4.2868921,
      "lon": 15.2577328,
      "timestamp": "2015-09-01T23:53:47Z",
      "version": 1,
      "changeset": 33741151,
      "user": "BZVPNR",
      "uid": 2580007,
      "tags": {
        "amenity": "bar",
        "name": "La Détente"
      }
    },
    {
      "type": "node",
      "id": 3966312492,
      "lat": -4.7621066,
      "lon": 11.872346,
      "timestamp": "2016-01-25T15:03:56Z",
      "version": 1,
      "changeset": 36798130,
      "user": "mesmin loss",
      "uid": 3542391,
      "tags": {
        "amenity": "bar",
        "name": "Le CABAS"
      }
    },
    {
      "type": "node",
      "id": 3978344248,
      "lat": -4.3800644,
      "lon": 15.335555,
      "timestamp": "2016-01-30T18:35:31Z",
      "version": 1,
      "changeset": 36903425,
      "user": "clairedelune",
      "uid": 190626,
      "tags": {
        "amenity": "bar",
        "name": "Insomnia"
      }
    },
    {
      "type": "node",
      "id": 4106217538,
      "lat": -4.3053149,
      "lon": 15.3100885,
      "timestamp": "2025-05-27T13:46:17Z",
      "version": 2,
      "changeset": 166828200,
      "user": "VisibleSouth",
      "uid": 11888798,
      "tags": {
        "addr:housenumber": "34",
        "addr:street": "avenue colonel Ebeya",
        "amenity": "pub",
        "description": "Restaurant",
        "name": "FUSION AER BAR",
        "opening_hours": "Tu-Su 11:00-01:30",
        "phone": "0818554749"
      }
    },
    {
      "type": "node",
      "id": 4117098291,
      "lat": -8.832539,
      "lon": 13.423457,
      "timestamp": "2016-04-12T17:54:10Z",
      "version": 1,
      "changeset": 38506538,
      "user": "Adilson Const",
      "uid": 3808350,
      "tags": {
        "addr:street": "5M",
        "amenity": "pub",
        "name": "Base Vida Sequele",
        "opening_hours": "24/7"
      }
    },
    {
      "type": "node",
      "id": 4117106392,
      "lat": -8.8167555,
      "lon": 13.4302412,
      "timestamp": "2016-04-12T17:54:08Z",
      "version": 1,
      "changeset": 38506538,
      "user": "Adilson Const",
      "uid": 3808350,
      "tags": {
        "addr:street": "5M",
        "amenity": "pub",
        "name": "Cimenteira",
        "opening_hours": "24/7"
      }
    },
    {
      "type": "node",
      "id": 4117106393,
      "lat": -8.837909,
      "lon": 13.4390951,
      "timestamp": "2016-04-12T17:54:12Z",
      "version": 1,
      "changeset": 38506538,
      "user": "Adilson Const",
      "uid": 3808350,
      "tags": {
        "addr:street": "5M",
        "amenity": "pub",
        "name": "Parque Sequele LTI",
        "opening_hours": "24/7"
      }
    },
    {
      "type": "node",
      "id": 4212314580,
      "lat": -4.8170067,
      "lon": 11.8753375,
      "timestamp": "2018-01-11T19:47:46Z",
      "version": 3,
      "changeset": 55361952,
      "user": "Arnaud Delpoux",
      "uid": 2084495,
      "tags": {
        "addr:city": "Pointe-Noire",
        "addr:street": "Avenue de l'Aéroport",
        "amenity": "bar",
        "name": "Le Grand Café 3",
        "name:ro": "Bar 3 cafe",
        "note": "Ouvert depuis mars 2016",
        "opening_hours": "7:00-22:00",
        "smoking": "outside"
      }
    },
    {
      "type": "node",
      "id": 4345502389,
      "lat": -4.7761314,
      "lon": 11.8772629,
      "timestamp": "2016-08-11T08:32:46Z",
      "version": 1,
      "changeset": 41383712,
      "user": "pary babey",
      "uid": 4345490,
      "tags": {
        "addr:street": "Avenue Ma Loango",
        "amenity": "pub",
        "name": "CAVE chez RAI"
      }
    },
    {
      "type": "node",
      "id": 4358735722,
      "lat": -4.2613633,
      "lon": 15.2666914,
      "timestamp": "2016-08-20T10:29:20Z",
      "version": 1,
      "changeset": 41573698,
      "user": "ALenfant",
      "uid": 1439987,
      "tags": {
        "amenity": "bar",
        "name": "VIP Cuba Libre"
      }
    },
    {
      "type": "node",
      "id": 4369536505,
      "lat": -4.3794803,
      "lon": 15.3392208,
      "timestamp": "2016-08-27T12:02:25Z",
      "version": 1,
      "changeset": 41734449,
      "user": "Lajo Kaba",
      "uid": 3796478,
      "tags": {
        "amenity": "bar",
        "name": "3000 l'an",
        "name:fr": "3000 l'an"
      }
    },
    {
      "type": "node",
      "id": 4369557400,
      "lat": -4.3800629,
      "lon": 15.336077,
      "timestamp": "2016-08-27T12:02:23Z",
      "version": 1,
      "changeset": 41734449,
      "user": "Lajo Kaba",
      "uid": 3796478,
      "tags": {
        "amenity": "bar",
        "name": "Tchetche",
        "name:fr": "Tchetche"
      }
    },
    {
      "type": "node",
      "id": 4396225599,
      "lat": -4.2720201,
      "lon": 15.2438288,
      "timestamp": "2016-09-11T14:57:31Z",
      "version": 1,
      "changeset": 42080789,
      "user": "Karel Destin Ibata",
      "uid": 4416941,
      "tags": {
        "amenity": "bar",
        "name": "LA BÉNÉDICTION",
        "name:fr": "LA BÉNÉDICTION"
      }
    },
    {
      "type": "node",
      "id": 4405049389,
      "lat": -4.7430471,
      "lon": 11.9180531,
      "timestamp": "2016-09-16T22:24:05Z",
      "version": 1,
      "changeset": 42216282,
      "user": "Bassehissila Evgueni",
      "uid": 4504816,
      "tags": {
        "amenity": "bar",
        "name": "Nganda Ya Bacombo"
      }
    },
    {
      "type": "node",
      "id": 4405049489,
      "lat": -4.8227119,
      "lon": 11.9026826,
      "timestamp": "2016-09-16T22:24:13Z",
      "version": 1,
      "changeset": 42216282,
      "user": "Bassehissila Evgueni",
      "uid": 4504816,
      "tags": {
        "amenity": "bar",
        "name": "Le Wolf (Mpaka)"
      }
    },
    {
      "type": "node",
      "id": 4405249691,
      "lat": -8.8077989,
      "lon": 13.2481478,
      "timestamp": "2016-09-17T04:37:08Z",
      "version": 1,
      "changeset": 42219595,
      "user": "tomadams30",
      "uid": 4273125,
      "tags": {
        "amenity": "bar",
        "name:en": "kianda lounge bar"
      }
    },
    {
      "type": "node",
      "id": 4416686291,
      "lat": -4.2688239,
      "lon": 15.2442471,
      "timestamp": "2016-09-24T18:59:27Z",
      "version": 1,
      "changeset": 42410338,
      "user": "Karel Destin Ibata",
      "uid": 4416941,
      "tags": {
        "amenity": "bar",
        "name": "LA RÉFÉRENCE DE DIATA",
        "name:fr": "LA RÉFÉRENCE DE DIATA"
      }
    },
    {
      "type": "node",
      "id": 4457052189,
      "lat": -9.0030998,
      "lon": 13.2627196,
      "timestamp": "2016-10-20T20:38:44Z",
      "version": 1,
      "changeset": 43043138,
      "user": "balmeida",
      "uid": 679605,
      "tags": {
        "amenity": "bar"
      }
    },
    {
      "type": "node",
      "id": 4460865017,
      "lat": -9.0030936,
      "lon": 13.2626773,
      "timestamp": "2016-10-23T20:13:32Z",
      "version": 1,
      "changeset": 43108528,
      "user": "balmeida",
      "uid": 679605,
      "tags": {
        "amenity": "bar"
      }
    },
    {
      "type": "node",
      "id": 4483541158,
      "lat": -4.3542354,
      "lon": 15.2510753,
      "timestamp": "2018-02-04T22:37:39Z",
      "version": 2,
      "changeset": 56068784,
      "user": "clairedelune",
      "uid": 190626,
      "tags": {
        "alt_name": "Ex-Trême, chez Randy",
        "amenity": "bar",
        "name": "Extrême - Ma Campagne",
        "old_name": "Saï-Saï"
      }
    },
    {
      "type": "node",
      "id": 4483654408,
      "lat": -4.35887,
      "lon": 15.2987545,
      "timestamp": "2016-11-05T10:53:21Z",
      "version": 1,
      "changeset": 43418591,
      "user": "juniormusampa",
      "uid": 4807402,
      "tags": {
        "addr:street": "Avenue de Ngiri-Ngiri",
        "amenity": "bar",
        "name": "Fumuti"
      }
    },
    {
      "type": "node",
      "id": 4555730791,
      "lat": -8.9370247,
      "lon": 13.1643126,
      "timestamp": "2024-03-05T08:21:57Z",
      "version": 4,
      "changeset": 148238521,
      "user": "Ney",
      "uid": 451516,
      "tags": {
        "addr:city": "Luanda",
        "addr:street": "Rua Dona Xepa",
        "amenity": "bar",
        "brewery": "various;yes",
        "name": "Kantinho da Anita",
        "name:en": "Anita's Kantinho",
        "name:pt": "Kantinho da Anita (kambas bar)"
      }
    },
    {
      "type": "node",
      "id": 4624327289,
      "lat": -8.9052787,
      "lon": 13.184845,
      "timestamp": "2019-05-31T14:48:13Z",
      "version": 4,
      "changeset": 70811776,
      "user": "Diógenes de Sinope",
      "uid": 2972418,
      "tags": {
        "addr:city": "Luanda",
        "addr:street": "Avenida Pedro de C. Vandunem-Loy",
        "amenity": "bar",
        "name": "Cervejaria Fininho",
        "name:pt": "Cervejaria Fininho",
        "phone": "+244 938 327 463"
      }
    },
    {
      "type": "node",
      "id": 4662974391,
      "lat": -8.9261027,
      "lon": 13.2196067,
      "timestamp": "2017-02-04T09:40:29Z",
      "version": 1,
      "changeset": 45800356,
      "user": "Milton Bengui",
      "uid": 5044448,
      "tags": {
        "addr:street": "Rua 1",
        "amenity": "bar",
        "name": "TayTay Lounge Bar",
        "name:en": "TayTay Lounge Bar",
        "name:pt": "TayTay Lounge Bar"
      }
    },
    {
      "type": "node",
      "id": 4676846566,
      "lat": -8.9163568,
      "lon": 13.1685795,
      "timestamp": "2017-02-09T16:21:58Z",
      "version": 1,
      "changeset": 45951354,
      "user": "Diógenes de Sinope",
      "uid": 2972418,
      "tags": {
        "addr:city": "Luanda",
        "addr:street": "Via C4",
        "amenity": "pub"
      }
    },
    {
      "type": "node",
      "id": 4692068290,
      "lat": -8.9141765,
      "lon": 13.1771744,
      "timestamp": "2017-05-17T15:53:38Z",
      "version": 2,
      "changeset": 48766557,
      "user": "Paulo Daniel",
      "uid": 5973572,
      "tags": {
        "amenity": "bar",
        "opening_hours": "Tu-Su 19:00-05:00"
      }
    },
    {
      "type": "node",
      "id": 4701607516,
      "lat": -4.3049636,
      "lon": 15.3032781,
      "timestamp": "2023-05-13T09:29:21Z",
      "version": 3,
      "changeset": 136046187,
      "user": "Mariannamukulunga",
      "uid": 11500943,
      "tags": {
        "amenity": "biergarten",
        "check_date": "2023-05-13",
        "name": "Cave de Bacchus"
      }
    },
    {
      "type": "node",
      "id": 4737271190,
      "lat": -8.8264034,
      "lon": 13.223557,
      "timestamp": "2017-04-08T19:58:01Z",
      "version": 2,
      "changeset": 47577759,
      "user": "Diógenes de Sinope",
      "uid": 2972418,
      "tags": {
        "addr:city": "Luanda",
        "addr:street": "Rua dos Heróis (ex Rua da Samba)",
        "amenity": "bar"
      }
    },
    {
      "type": "node",
      "id": 4738193561,
      "lat": -8.8395635,
      "lon": 13.2139991,
      "timestamp": "2019-05-31T12:40:47Z",
      "version": 3,
      "changeset": 70807464,
      "user": "Diógenes de Sinope",
      "uid": 2972418,
      "tags": {
        "addr:city": "Luanda",
        "addr:housenumber": "173a",
        "addr:street": "Estrada da Samba",
        "amenity": "bar",
        "name": "Bar Chandell"
      }
    },
    {
      "type": "node",
      "id": 4769629039,
      "lat": -4.39321,
      "lon": 15.372754,
      "timestamp": "2019-07-30T15:11:07Z",
      "version": 2,
      "changeset": 72817664,
      "user": "Kimpembe",
      "uid": 6249276,
      "tags": {
        "amenity": "bar",
        "name": "Bar Cour Suprême",
        "source": "MSF survey 2016"
      }
    },
    {
      "type": "node",
      "id": 4783570654,
      "lat": -8.8451696,
      "lon": 13.2121838,
      "timestamp": "2017-04-08T20:38:57Z",
      "version": 1,
      "changeset": 47578553,
      "user": "Diógenes de Sinope",
      "uid": 2972418,
      "tags": {
        "amenity": "bar"
      }
    },
    {
      "type": "node",
      "id": 4786386746,
      "lat": -8.838038,
      "lon": 13.2143616,
      "timestamp": "2017-04-10T14:21:14Z",
      "version": 1,
      "changeset": 47625306,
      "user": "Diógenes de Sinope",
      "uid": 2972418,
      "tags": {
        "addr:city": "Luanda",
        "addr:street": "Estrada da Samba",
        "amenity": "bar",
        "name": "Snack Bar Cantinho da Ana"
      }
    },
    {
      "type": "node",
      "id": 4786527026,
      "lat": -8.8153972,
      "lon": 13.2352061,
      "timestamp": "2017-04-10T15:47:28Z",
      "version": 1,
      "changeset": 47628264,
      "user": "Diógenes de Sinope",
      "uid": 2972418,
      "tags": {
        "addr:city": "Luanda",
        "addr:street": "Rua da Missão",
        "amenity": "bar",
        "name": "Tendinha Takeaway"
      }
    },
    {
      "type": "node",
      "id": 4786527048,
      "lat": -8.8152656,
      "lon": 13.236352,
      "timestamp": "2017-04-10T15:47:29Z",
      "version": 1,
      "changeset": 47628264,
      "user": "Diógenes de Sinope",
      "uid": 2972418,
      "tags": {
        "addr:city": "Luanda",
        "amenity": "bar",
        "name": "Vida Bar"
      }
    },
    {
      "type": "node",
      "id": 4792100021,
      "lat": -4.2802316,
      "lon": 15.2420281,
      "timestamp": "2025-04-27T13:08:31Z",
      "version": 2,
      "changeset": 165505128,
      "user": "VisibleSouth",
      "uid": 11888798,
      "tags": {
        "amenity": "bar",
        "name": "Le \"B\" d'or",
        "name:fr": "Le \"B\" d'or"
      }
    },
    {
      "type": "node",
      "id": 4792142523,
      "lat": -4.2806149,
      "lon": 15.2388081,
      "timestamp": "2025-04-27T13:08:31Z",
      "version": 2,
      "changeset": 165505128,
      "user": "VisibleSouth",
      "uid": 11888798,
      "tags": {
        "amenity": "bar",
        "name": "Le Salto",
        "name:fr": "Le Salto"
      }
    },
    {
      "type": "node",
      "id": 4792142524,
      "lat": -4.2805277,
      "lon": 15.243606,
      "timestamp": "2025-04-27T13:08:31Z",
      "version": 3,
      "changeset": 165505128,
      "user": "VisibleSouth",
      "uid": 11888798,
      "tags": {
        "addr:street": "Miandzoukouta",
        "amenity": "bar",
        "name": "Arrêt jardien"
      }
    },
    {
      "type": "node",
      "id": 4796297344,
      "lat": -4.393532,
      "lon": 15.375495,
      "timestamp": "2017-04-16T08:44:18Z",
      "version": 1,
      "changeset": 47832829,
      "user": "hebolz",
      "uid": 2249513,
      "tags": {
        "amenity": "bar",
        "name": "Joli site",
        "source": "MSF survey 2016"
      }
    },
    {
      "type": "node",
      "id": 4796298757,
      "lat": -4.396261,
      "lon": 15.375646,
      "timestamp": "2017-04-16T08:46:00Z",
      "version": 1,
      "changeset": 47832862,
      "user": "hebolz",
      "uid": 2249513,
      "tags": {
        "amenity": "bar",
        "name": "Les Vieux Sages",
        "source": "MSF survey 2016"
      }
    },
    {
      "type": "node",
      "id": 4796453812,
      "lat": -4.430395,
      "lon": 15.4308417,
      "timestamp": "2017-04-16T11:47:05Z",
      "version": 1,
      "changeset": 47836384,
      "user": "hebolz",
      "uid": 2249513,
      "tags": {
        "amenity": "bar",
        "name": "Bar Etat-Major",
        "source": "MSF survey 2016"
      }
    },
    {
      "type": "node",
      "id": 4798307190,
      "lat": -4.4251316,
      "lon": 15.3990467,
      "timestamp": "2017-04-17T08:25:35Z",
      "version": 1,
      "changeset": 47861593,
      "user": "hebolz",
      "uid": 2249513,
      "tags": {
        "amenity": "bar",
        "name": "Couloir des Stareos",
        "source": "MSF survey 2016"
      }
    },
    {
      "type": "node",
      "id": 4798840104,
      "lat": -4.403135,
      "lon": 15.407525,
      "timestamp": "2017-04-17T12:50:26Z",
      "version": 1,
      "changeset": 47869937,
      "user": "hebolz",
      "uid": 2249513,
      "tags": {
        "amenity": "bar",
        "name": "Aeroclub",
        "source": "MSF survey 2016"
      }
    },
    {
      "type": "node",
      "id": 4801956120,
      "lat": -4.3991201,
      "lon": 15.3938018,
      "timestamp": "2017-04-18T17:07:38Z",
      "version": 1,
      "changeset": 47912319,
      "user": "hebolz",
      "uid": 2249513,
      "tags": {
        "amenity": "bar",
        "source": "MSF survey 2016"
      }
    },
    {
      "type": "node",
      "id": 4801977323,
      "lat": -4.4013083,
      "lon": 15.3980969,
      "timestamp": "2017-04-18T17:18:11Z",
      "version": 1,
      "changeset": 47912606,
      "user": "hebolz",
      "uid": 2249513,
      "tags": {
        "amenity": "bar",
        "source": "MSF survey 2016"
      }
    },
    {
      "type": "node",
      "id": 4816609158,
      "lat": -4.781615,
      "lon": 11.860485,
      "timestamp": "2017-04-25T20:42:01Z",
      "version": 1,
      "changeset": 48141660,
      "user": "MickeyDasi",
      "uid": 2040201,
      "tags": {
        "addr:city": "Pointe Noire",
        "addr:street": "Avenue Jacques Opangault",
        "amenity": "bar"
      }
    },
    {
      "type": "node",
      "id": 4834684902,
      "lat": -8.8944641,
      "lon": 13.1897594,
      "timestamp": "2019-10-09T18:41:23Z",
      "version": 2,
      "changeset": 75478761,
      "user": "Diógenes de Sinope",
      "uid": 2972418,
      "tags": {
        "addr:city": "Luanda",
        "addr:street": "Avenida 21 de Janeiro",
        "amenity": "bar",
        "name": "Living Lounge Bar"
      }
    },
    {
      "type": "node",
      "id": 4834685474,
      "lat": -8.8964708,
      "lon": 13.1957153,
      "timestamp": "2017-05-04T13:06:57Z",
      "version": 1,
      "changeset": 48394440,
      "user": "Diógenes de Sinope",
      "uid": 2972418,
      "tags": {
        "addr:city": "Luanda",
        "amenity": "bar",
        "name": "Snack Bar Irmãos Charmossos"
      }
    },
    {
      "type": "node",
      "id": 4836778376,
      "lat": -8.8363748,
      "lon": 13.2301732,
      "timestamp": "2017-05-05T12:41:15Z",
      "version": 1,
      "changeset": 48425842,
      "user": "Diógenes de Sinope",
      "uid": 2972418,
      "tags": {
        "addr:city": "Luanda",
        "addr:street": "Avenida Comandante Gika",
        "amenity": "bar"
      }
    },
    {
      "type": "node",
      "id": 4849498815,
      "lat": -4.7620876,
      "lon": 11.8664492,
      "timestamp": "2017-05-12T11:36:56Z",
      "version": 1,
      "changeset": 48621310,
      "user": "ELENGA",
      "uid": 5787360,
      "tags": {
        "amenity": "bar",
        "name": "VIP"
      }
    },
    {
      "type": "node",
      "id": 4896815922,
      "lat": -4.2098446,
      "lon": 12.6759879,
      "timestamp": "2017-06-05T08:12:55Z",
      "version": 1,
      "changeset": 49261564,
      "user": "Obalolayama",
      "uid": 5504439,
      "tags": {
        "amenity": "pub",
        "name": "La cours des grands",
        "name:fr": "La cours des grands"
      }
    },
    {
      "type": "node",
      "id": 4896815923,
      "lat": -4.2049167,
      "lon": 12.6780982,
      "timestamp": "2017-06-05T08:12:56Z",
      "version": 1,
      "changeset": 49261564,
      "user": "Obalolayama",
      "uid": 5504439,
      "tags": {
        "amenity": "pub",
        "name": "Gerda",
        "name:fr": "Gerda"
      }
    },
    {
      "type": "node",
      "id": 4897944826,
      "lat": -4.7542799,
      "lon": 11.8996182,
      "timestamp": "2017-06-05T18:36:26Z",
      "version": 1,
      "changeset": 49282606,
      "user": "loukakou",
      "uid": 5284027,
      "tags": {
        "amenity": "bar",
        "name": "Thiamoukouélé",
        "name:fr": "Thiamoukouélé"
      }
    },
    {
      "type": "node",
      "id": 4924534721,
      "lat": -4.7533116,
      "lon": 11.9016418,
      "timestamp": "2017-06-19T14:55:04Z",
      "version": 1,
      "changeset": 49669624,
      "user": "loukakou",
      "uid": 5284027,
      "tags": {
        "amenity": "pub",
        "name": "Chez maman nono",
        "name:fr": "Chez maman nono"
      }
    },
    {
      "type": "node",
      "id": 4929307322,
      "lat": -4.2874819,
      "lon": 15.2552078,
      "timestamp": "2017-06-21T18:26:55Z",
      "version": 1,
      "changeset": 49727507,
      "user": "Belphron Kimson",
      "uid": 5169681,
      "tags": {
        "addr:street": "Rue Fouékélé",
        "amenity": "bar",
        "name": "Mild-vie",
        "name:fr": "Mild-vie"
      }
    },
    {
      "type": "node",
      "id": 4942569721,
      "lat": -4.3017138,
      "lon": 15.3109098,
      "timestamp": "2025-04-23T12:04:07Z",
      "version": 3,
      "changeset": 165330255,
      "user": "VisibleSouth",
      "uid": 11888798,
      "tags": {
        "addr:street": "Avenue de la Paix",
        "amenity": "bar",
        "check_date": "2023-05-06",
        "name": "Anny Mav",
        "name:fr": "Anny Mav (Chez l'ambassadeur)"
      }
    },
    {
      "type": "node",
      "id": 4963837021,
      "lat": -4.8185851,
      "lon": 11.8535766,
      "timestamp": "2021-08-15T20:35:53Z",
      "version": 2,
      "changeset": 109715226,
      "user": "Ossokam",
      "uid": 13938836,
      "tags": {
        "amenity": "pub",
        "name": "Voile blanche"
      }
    },
    {
      "type": "node",
      "id": 4996055823,
      "lat": -8.927238,
      "lon": 13.1703347,
      "timestamp": "2017-07-27T05:37:12Z",
      "version": 1,
      "changeset": 50608033,
      "user": "Sergio Binda Mbatchi",
      "uid": 5244528,
      "tags": {
        "amenity": "pub",
        "name": "Combate Espiritual",
        "name:en": "MEELA"
      }
    },
    {
      "type": "node",
      "id": 5147336679,
      "lat": -8.8026699,
      "lon": 13.2224652,
      "timestamp": "2017-10-04T11:15:03Z",
      "version": 1,
      "changeset": 52622039,
      "user": "Diógenes de Sinope",
      "uid": 2972418,
      "tags": {
        "addr:city": "Luanda",
        "addr:street": "Avenida Murtala Mohamed (Ex Avenida Marchal Gomes da Costa)",
        "amenity": "bar"
      }
    },
    {
      "type": "node",
      "id": 5148614767,
      "lat": -8.7860613,
      "lon": 13.2318359,
      "timestamp": "2021-06-29T16:12:06Z",
      "version": 2,
      "changeset": 107158733,
      "user": "Diógenes de Sinope",
      "uid": 2972418,
      "tags": {
        "addr:city": "Luanda",
        "addr:street": "Avenida Murtala Mohamed (Ex Avenida Marchal Gomes da Costa)",
        "amenity": "bar",
        "name": "União Mundo da Eka"
      }
    },
    {
      "type": "node",
      "id": 5148614784,
      "lat": -8.7855292,
      "lon": 13.2324782,
      "timestamp": "2021-06-29T16:15:13Z",
      "version": 2,
      "changeset": 107158848,
      "user": "Diógenes de Sinope",
      "uid": 2972418,
      "tags": {
        "addr:city": "Luanda",
        "addr:street": "Avenida Murtala Mohamed (Ex Avenida Marchal Gomes da Costa)",
        "amenity": "bar"
      }
    },
    {
      "type": "node",
      "id": 5148614935,
      "lat": -8.7820718,
      "lon": 13.2367702,
      "timestamp": "2022-12-26T17:58:53Z",
      "version": 3,
      "changeset": 130526110,
      "user": "Diógenes de Sinope",
      "uid": 2972418,
      "tags": {
        "addr:city": "Luanda",
        "addr:street": "Avenida Murtala Mohamed (Ex Avenida Marchal Gomes da Costa)",
        "amenity": "bar"
      }
    },
    {
      "type": "node",
      "id": 5148614961,
      "lat": -8.7808662,
      "lon": 13.238757,
      "timestamp": "2017-10-04T23:29:09Z",
      "version": 1,
      "changeset": 52640439,
      "user": "Diógenes de Sinope",
      "uid": 2972418,
      "tags": {
        "addr:city": "Luanda",
        "addr:street": "Avenida Murtala Mohamed (Ex Avenida Marchal Gomes da Costa)",
        "amenity": "bar",
        "name": "Villão - Lanchonete e Takeway",
        "takeaway": "yes"
      }
    },
    {
      "type": "node",
      "id": 5148614998,
      "lat": -8.7786932,
      "lon": 13.2421463,
      "timestamp": "2017-10-04T23:29:10Z",
      "version": 1,
      "changeset": 52640439,
      "user": "Diógenes de Sinope",
      "uid": 2972418,
      "tags": {
        "addr:city": "Luanda",
        "addr:street": "Avenida Murtala Mohamed (Ex Avenida Marchal Gomes da Costa)",
        "amenity": "bar",
        "name": "Kintal da Tia Guida"
      }
    },
    {
      "type": "node",
      "id": 5148615005,
      "lat": -8.7785378,
      "lon": 13.2424887,
      "timestamp": "2017-10-04T23:29:10Z",
      "version": 1,
      "changeset": 52640439,
      "user": "Diógenes de Sinope",
      "uid": 2972418,
      "tags": {
        "addr:city": "Luanda",
        "addr:street": "Avenida Murtala Mohamed (Ex Avenida Marchal Gomes da Costa)",
        "amenity": "bar"
      }
    },
    {
      "type": "node",
      "id": 5151071138,
      "lat": -8.7626187,
      "lon": 13.2603074,
      "timestamp": "2017-10-06T05:54:38Z",
      "version": 1,
      "changeset": 52672228,
      "user": "Diógenes de Sinope",
      "uid": 2972418,
      "tags": {
        "addr:city": "Luanda",
        "addr:street": "Avenida Murtala Mohamed (Ex Avenida Marchal Gomes da Costa)",
        "amenity": "bar"
      }
    },
    {
      "type": "node",
      "id": 5151071220,
      "lat": -8.7664943,
      "lon": 13.2564725,
      "timestamp": "2017-10-06T05:54:39Z",
      "version": 1,
      "changeset": 52672228,
      "user": "Diógenes de Sinope",
      "uid": 2972418,
      "tags": {
        "addr:city": "Luanda",
        "addr:street": "Avenida Murtala Mohamed (Ex Avenida Marchal Gomes da Costa)",
        "amenity": "bar"
      }
    },
    {
      "type": "node",
      "id": 5163886021,
      "lat": -8.8280621,
      "lon": 13.2142548,
      "timestamp": "2017-10-12T20:37:17Z",
      "version": 1,
      "changeset": 52871525,
      "user": "Diógenes de Sinope",
      "uid": 2972418,
      "tags": {
        "addr:city": "Luanda",
        "addr:street": "Avenida Agostinho Neto",
        "amenity": "bar",
        "name": "Bar Lubito"
      }
    },
    {
      "type": "node",
      "id": 5167285312,
      "lat": -4.3398602,
      "lon": 15.3174412,
      "timestamp": "2017-10-14T12:50:11Z",
      "version": 1,
      "changeset": 52923226,
      "user": "yongololo",
      "uid": 5384179,
      "tags": {
        "amenity": "bar"
      }
    },
    {
      "type": "node",
      "id": 5172297589,
      "lat": -8.84553,
      "lon": 13.2301238,
      "timestamp": "2021-07-02T13:17:23Z",
      "version": 4,
      "changeset": 107313008,
      "user": "Diógenes de Sinope",
      "uid": 2972418,
      "tags": {
        "addr:city": "Luanda",
        "addr:street": "Rua 8",
        "amenity": "bar"
      }
    },
    {
      "type": "node",
      "id": 5182837552,
      "lat": -4.3414816,
      "lon": 15.2807709,
      "timestamp": "2017-10-23T03:08:06Z",
      "version": 1,
      "changeset": 53166206,
      "user": "christian shadrack",
      "uid": 5478316,
      "tags": {
        "addr:city": "Kinshasa",
        "addr:street": "Avenue Kasa-Vubu",
        "amenity": "bar",
        "outdoor_seating": "yes",
        "smoking": "separated"
      }
    },
    {
      "type": "node",
      "id": 5287475024,
      "lat": -4.4033037,
      "lon": 15.3161532,
      "timestamp": "2022-01-23T18:22:42Z",
      "version": 3,
      "changeset": 116510366,
      "user": "hebolz",
      "uid": 2249513,
      "tags": {
        "amenity": "bar",
        "name": "Bar Grand Monde"
      }
    },
    {
      "type": "node",
      "id": 5287475025,
      "lat": -4.3908906,
      "lon": 15.3146692,
      "timestamp": "2025-03-21T07:31:07Z",
      "version": 2,
      "changeset": 163892267,
      "user": "VisibleSouth",
      "uid": 11888798,
      "tags": {
        "amenity": "bar",
        "name": "Metro Bar"
      }
    },
    {
      "type": "node",
      "id": 5338068799,
      "lat": -4.3411853,
      "lon": 15.2611256,
      "timestamp": "2018-01-13T23:46:49Z",
      "version": 1,
      "changeset": 55419350,
      "user": "clairedelune",
      "uid": 190626,
      "tags": {
        "amenity": "pub",
        "name": "Chez Bob",
        "outdoor_seating": "yes"
      }
    },
    {
      "type": "node",
      "id": 5352410611,
      "lat": -4.8160895,
      "lon": 11.8726802,
      "timestamp": "2018-01-21T11:07:15Z",
      "version": 1,
      "changeset": 55624753,
      "user": "Arnaud Delpoux",
      "uid": 2084495,
      "tags": {
        "amenity": "bar",
        "name": "Le Pacha"
      }
    },
    {
      "type": "node",
      "id": 5496060421,
      "lat": -4.3256846,
      "lon": 15.3011489,
      "timestamp": "2025-05-26T20:38:32Z",
      "version": 3,
      "changeset": 166797482,
      "user": "VisibleSouth",
      "uid": 11888798,
      "tags": {
        "amenity": "bar",
        "check_date": "2023-05-08",
        "name": "Club Daniella"
      }
    },
    {
      "type": "node",
      "id": 5497549506,
      "lat": -8.9153836,
      "lon": 13.1671435,
      "timestamp": "2018-03-22T20:34:07Z",
      "version": 1,
      "changeset": 57436936,
      "user": "Diógenes de Sinope",
      "uid": 2972418,
      "tags": {
        "addr:city": "Luanda",
        "addr:street": "Rua 28 de Agosto",
        "amenity": "bar"
      }
    },
    {
      "type": "node",
      "id": 5497549508,
      "lat": -8.9153219,
      "lon": 13.1672555,
      "timestamp": "2018-03-22T20:34:07Z",
      "version": 1,
      "changeset": 57436936,
      "user": "Diógenes de Sinope",
      "uid": 2972418,
      "tags": {
        "addr:city": "Luanda",
        "addr:street": "Rua 28 de Agosto",
        "amenity": "bar",
        "name": "Há Sopa e Almoço"
      }
    },
    {
      "type": "node",
      "id": 5497549525,
      "lat": -8.9147663,
      "lon": 13.1683005,
      "timestamp": "2018-03-22T20:34:08Z",
      "version": 1,
      "changeset": 57436936,
      "user": "Diógenes de Sinope",
      "uid": 2972418,
      "tags": {
        "addr:city": "Luanda",
        "addr:street": "Rua 28 de Agosto",
        "amenity": "bar",
        "name": "Há Sopa e Almoço"
      }
    },
    {
      "type": "node",
      "id": 5497549549,
      "lat": -8.9139838,
      "lon": 13.1693291,
      "timestamp": "2018-03-22T20:34:09Z",
      "version": 1,
      "changeset": 57436936,
      "user": "Diógenes de Sinope",
      "uid": 2972418,
      "tags": {
        "addr:city": "Luanda",
        "addr:street": "Rua 28 de Agosto",
        "amenity": "bar",
        "name": "Snack Bar Pipocas & Finos",
        "phone": "+244 947 484 698"
      }
    },
    {
      "type": "node",
      "id": 5497549588,
      "lat": -8.9119737,
      "lon": 13.1704149,
      "timestamp": "2018-03-22T20:34:10Z",
      "version": 1,
      "changeset": 57436936,
      "user": "Diógenes de Sinope",
      "uid": 2972418,
      "tags": {
        "addr:city": "Luanda",
        "addr:street": "Rua 28 de Agosto",
        "amenity": "bar",
        "name": "Há Sopa"
      }
    },
    {
      "type": "node",
      "id": 5497549596,
      "lat": -8.9117455,
      "lon": 13.1704919,
      "timestamp": "2018-03-22T20:34:10Z",
      "version": 1,
      "changeset": 57436936,
      "user": "Diógenes de Sinope",
      "uid": 2972418,
      "tags": {
        "addr:city": "Luanda",
        "addr:street": "Rua 28 de Agosto",
        "amenity": "bar"
      }
    },
    {
      "type": "node",
      "id": 5497549605,
      "lat": -8.9113845,
      "lon": 13.1706272,
      "timestamp": "2018-03-22T20:34:10Z",
      "version": 1,
      "changeset": 57436936,
      "user": "Diógenes de Sinope",
      "uid": 2972418,
      "tags": {
        "addr:city": "Luanda",
        "addr:street": "Rua 28 de Agosto",
        "amenity": "bar"
      }
    },
    {
      "type": "node",
      "id": 5506730700,
      "lat": -8.90815,
      "lon": 13.1647467,
      "timestamp": "2018-03-26T21:50:22Z",
      "version": 1,
      "changeset": 57549799,
      "user": "Diógenes de Sinope",
      "uid": 2972418,
      "tags": {
        "addr:city": "Luanda",
        "addr:street": "Rua das Construções",
        "amenity": "bar"
      }
    },
    {
      "type": "node",
      "id": 5506730825,
      "lat": -8.9072782,
      "lon": 13.1625453,
      "timestamp": "2018-03-26T21:50:23Z",
      "version": 1,
      "changeset": 57549799,
      "user": "Diógenes de Sinope",
      "uid": 2972418,
      "tags": {
        "addr:city": "Luanda",
        "amenity": "bar",
        "name": "Bar Sossego Chicaneno"
      }
    },
    {
      "type": "node",
      "id": 5560653301,
      "lat": -8.9083278,
      "lon": 13.2164857,
      "timestamp": "2018-04-18T00:52:33Z",
      "version": 1,
      "changeset": 58186130,
      "user": "Diógenes de Sinope",
      "uid": 2972418,
      "tags": {
        "addr:city": "Luanda",
        "amenity": "bar",
        "name": "Taba Bar"
      }
    },
    {
      "type": "node",
      "id": 5579694062,
      "lat": -8.8421473,
      "lon": 13.2434911,
      "timestamp": "2019-01-12T21:43:36Z",
      "version": 2,
      "changeset": 66261248,
      "user": "Diógenes de Sinope",
      "uid": 2972418,
      "tags": {
        "addr:city": "Luanda",
        "addr:street": "Avenida M. Alves de Pinho",
        "amenity": "pub"
      }
    },
    {
      "type": "node",
      "id": 5579694085,
      "lat": -8.841372,
      "lon": 13.2453433,
      "timestamp": "2018-04-26T05:00:23Z",
      "version": 1,
      "changeset": 58429822,
      "user": "Diógenes de Sinope",
      "uid": 2972418,
      "tags": {
        "addr:city": "Luanda",
        "addr:street": "Avenida M. Alves de Pinho",
        "amenity": "bar"
      }
    },
    {
      "type": "node",
      "id": 5580723146,
      "lat": -8.8374397,
      "lon": 13.2549967,
      "timestamp": "2018-04-26T15:32:49Z",
      "version": 1,
      "changeset": 58447822,
      "user": "Diógenes de Sinope",
      "uid": 2972418,
      "tags": {
        "addr:city": "Luanda",
        "addr:street": "Avenida da Cidade de Coimbra",
        "amenity": "bar"
      }
    },
    {
      "type": "node",
      "id": 5613399259,
      "lat": -0.6924557,
      "lon": 10.2196996,
      "timestamp": "2023-02-16T18:05:39Z",
      "version": 2,
      "changeset": 132641189,
      "user": "Władysław Komorek",
      "uid": 693154,
      "tags": {
        "amenity": "bar"
      }
    },
    {
      "type": "node",
      "id": 5650251240,
      "lat": -0.7329205,
      "lon": 18.1309377,
      "timestamp": "2018-06-04T16:59:30Z",
      "version": 2,
      "changeset": 59544341,
      "user": "christian shadrack",
      "uid": 5478316,
      "tags": {
        "amenity": "pub",
        "name": "Espace Boyokani",
        "source": "MSF",
        "source:date": "2018-05-22"
      }
    },
    {
      "type": "node",
      "id": 5664330869,
      "lat": -0.7370224,
      "lon": 18.1374402,
      "timestamp": "2018-06-04T16:59:29Z",
      "version": 1,
      "changeset": 59544341,
      "user": "christian shadrack",
      "uid": 5478316,
      "tags": {
        "amenity": "bar",
        "name": "Coin Melak"
      }
    },
    {
      "type": "node",
      "id": 5664330870,
      "lat": -0.7364512,
      "lon": 18.1353956,
      "timestamp": "2018-06-04T16:59:29Z",
      "version": 1,
      "changeset": 59544341,
      "user": "christian shadrack",
      "uid": 5478316,
      "tags": {
        "amenity": "bar",
        "name": "Mama Paulette"
      }
    },
    {
      "type": "node",
      "id": 5664330875,
      "lat": -0.7327438,
      "lon": 18.1316473,
      "timestamp": "2018-06-04T16:59:30Z",
      "version": 1,
      "changeset": 59544341,
      "user": "christian shadrack",
      "uid": 5478316,
      "tags": {
        "amenity": "bar",
        "name": "Chez Freddy"
      }
    },
    {
      "type": "node",
      "id": 5664433605,
      "lat": -8.9121347,
      "lon": 13.2387677,
      "timestamp": "2018-06-04T17:56:46Z",
      "version": 1,
      "changeset": 59545758,
      "user": "Diógenes de Sinope",
      "uid": 2972418,
      "tags": {
        "addr:city": "Luanda",
        "addr:street": "Rua do Mufulama",
        "amenity": "bar"
      }
    },
    {
      "type": "node",
      "id": 5664434759,
      "lat": -8.9145408,
      "lon": 13.2388732,
      "timestamp": "2018-06-04T17:56:48Z",
      "version": 1,
      "changeset": 59545758,
      "user": "Diógenes de Sinope",
      "uid": 2972418,
      "tags": {
        "addr:city": "Luanda",
        "addr:street": "Rua do Mufulama",
        "amenity": "bar"
      }
    },
    {
      "type": "node",
      "id": 5664434769,
      "lat": -8.9148285,
      "lon": 13.2387615,
      "timestamp": "2018-06-04T17:56:48Z",
      "version": 1,
      "changeset": 59545758,
      "user": "Diógenes de Sinope",
      "uid": 2972418,
      "tags": {
        "addr:city": "Luanda",
        "addr:street": "Rua do Mufulama",
        "amenity": "bar",
        "name": "Casa de Calulu"
      }
    },
    {
      "type": "node",
      "id": 5664434785,
      "lat": -8.9155765,
      "lon": 13.23878,
      "timestamp": "2018-06-04T17:56:49Z",
      "version": 1,
      "changeset": 59545758,
      "user": "Diógenes de Sinope",
      "uid": 2972418,
      "tags": {
        "addr:city": "Luanda",
        "addr:street": "Rua do Mufulama",
        "amenity": "bar"
      }
    },
    {
      "type": "node",
      "id": 5666335174,
      "lat": -0.7332241,
      "lon": 18.134922,
      "timestamp": "2018-06-05T10:21:45Z",
      "version": 1,
      "changeset": 59564567,
      "user": "christian shadrack",
      "uid": 5478316,
      "tags": {
        "addr:city": "Bikoro",
        "amenity": "bar",
        "name": "chez Tobala"
      }
    },
    {
      "type": "node",
      "id": 5666335183,
      "lat": -0.7272453,
      "lon": 18.1332473,
      "timestamp": "2018-06-05T10:21:46Z",
      "version": 1,
      "changeset": 59564567,
      "user": "christian shadrack",
      "uid": 5478316,
      "tags": {
        "addr:city": "Bikoro",
        "amenity": "bar",
        "name": "Koro"
      }
    },
    {
      "type": "node",
      "id": 5666350602,
      "lat": -0.7341062,
      "lon": 18.1203093,
      "timestamp": "2018-06-05T10:28:19Z",
      "version": 1,
      "changeset": 59564765,
      "user": "christian shadrack",
      "uid": 5478316,
      "tags": {
        "amenity": "bar",
        "name": "Nebetoi"
      }
    },
    {
      "type": "node",
      "id": 5666350603,
      "lat": -0.7378136,
      "lon": 18.1169269,
      "timestamp": "2018-06-05T10:28:19Z",
      "version": 1,
      "changeset": 59564765,
      "user": "christian shadrack",
      "uid": 5478316,
      "tags": {
        "addr:city": "Bikoro",
        "amenity": "bar",
        "name": "Bar Nokanga"
      }
    },
    {
      "type": "node",
      "id": 5691247975,
      "lat": -8.9369934,
      "lon": 13.2626578,
      "timestamp": "2018-06-14T17:03:28Z",
      "version": 1,
      "changeset": 59852326,
      "user": "Diógenes de Sinope",
      "uid": 2972418,
      "tags": {
        "amenity": "bar"
      }
    },
    {
      "type": "node",
      "id": 5693244116,
      "lat": -8.9164132,
      "lon": 13.1711115,
      "timestamp": "2018-06-15T15:44:45Z",
      "version": 1,
      "changeset": 59877528,
      "user": "Diógenes de Sinope",
      "uid": 2972418,
      "tags": {
        "addr:city": "Luanda",
        "amenity": "bar",
        "phone": "+244 929 188 600, +244 946 331 783"
      }
    },
    {
      "type": "node",
      "id": 5693759941,
      "lat": -8.9311402,
      "lon": 13.2390606,
      "timestamp": "2018-06-15T20:41:34Z",
      "version": 1,
      "changeset": 59883562,
      "user": "Diógenes de Sinope",
      "uid": 2972418,
      "tags": {
        "addr:city": "Luanda",
        "addr:street": "Rua do Mufulama",
        "amenity": "bar"
      }
    },
    {
      "type": "node",
      "id": 5693759968,
      "lat": -8.9347281,
      "lon": 13.2391844,
      "timestamp": "2018-06-15T20:41:34Z",
      "version": 1,
      "changeset": 59883562,
      "user": "Diógenes de Sinope",
      "uid": 2972418,
      "tags": {
        "addr:city": "Luanda",
        "addr:street": "Rua do Mufulama",
        "amenity": "bar"
      }
    },
    {
      "type": "node",
      "id": 5694685419,
      "lat": -8.9185264,
      "lon": 13.2621047,
      "timestamp": "2018-06-16T12:03:57Z",
      "version": 1,
      "changeset": 59893282,
      "user": "Diógenes de Sinope",
      "uid": 2972418,
      "tags": {
        "addr:city": "Luanda",
        "addr:street": "Via Expressa Golfe-Camama",
        "amenity": "bar",
        "name": "Cantinho"
      }
    },
    {
      "type": "node",
      "id": 5765933152,
      "lat": -4.4071834,
      "lon": 15.3479976,
      "timestamp": "2018-07-17T12:40:09Z",
      "version": 1,
      "changeset": 60799543,
      "user": "yongololo",
      "uid": 5384179,
      "tags": {
        "amenity": "bar",
        "name": "Bambier"
      }
    },
    {
      "type": "node",
      "id": 5767639400,
      "lat": -4.4020655,
      "lon": 15.3528001,
      "timestamp": "2018-07-18T08:21:52Z",
      "version": 1,
      "changeset": 60826188,
      "user": "Bakajika",
      "uid": 5508992,
      "tags": {
        "amenity": "bar",
        "name": "Bar Tout kin"
      }
    },
    {
      "type": "node",
      "id": 5767857942,
      "lat": -4.4134278,
      "lon": 15.3546944,
      "timestamp": "2018-07-18T09:49:05Z",
      "version": 1,
      "changeset": 60829696,
      "user": "christebenya",
      "uid": 6489264,
      "tags": {
        "amenity": "biergarten"
      }
    },
    {
      "type": "node",
      "id": 5768490413,
      "lat": -4.4172727,
      "lon": 15.3401039,
      "timestamp": "2018-07-18T14:30:10Z",
      "version": 1,
      "changeset": 60839829,
      "user": "christebenya",
      "uid": 6489264,
      "tags": {
        "amenity": "bar"
      }
    },
    {
      "type": "node",
      "id": 5771174816,
      "lat": -8.895792,
      "lon": 13.2247867,
      "timestamp": "2022-08-13T13:05:28Z",
      "version": 2,
      "changeset": 124852600,
      "user": "Diógenes de Sinope",
      "uid": 2972418,
      "tags": {
        "addr:city": "Luanda",
        "addr:street": "Avenida Pedro de C. Vandunem-Loy",
        "amenity": "bar",
        "name": "Bar da Amizade - Nova Vida",
        "phone": "+244 933 588 685, +244 943 167 226"
      }
    },
    {
      "type": "node",
      "id": 5772014251,
      "lat": -8.9051565,
      "lon": 13.185293,
      "timestamp": "2018-07-20T01:42:47Z",
      "version": 1,
      "changeset": 60887117,
      "user": "Diógenes de Sinope",
      "uid": 2972418,
      "tags": {
        "addr:city": "Luanda",
        "addr:street": "Avenida Pedro de C. Vandunem-Loy",
        "amenity": "bar",
        "name": "Exclusive Lounge"
      }
    },
    {
      "type": "node",
      "id": 5775944053,
      "lat": -4.755326,
      "lon": 11.8655099,
      "timestamp": "2018-07-22T00:41:25Z",
      "version": 1,
      "changeset": 60942084,
      "user": "Fersney Ndouna Jora",
      "uid": 8583394,
      "tags": {
        "amenity": "bar",
        "name": "Vip androïde",
        "name:en": "nigth club androïde"
      }
    },
    {
      "type": "node",
      "id": 5799621818,
      "lat": -8.9134541,
      "lon": 13.237428,
      "timestamp": "2018-07-31T19:06:21Z",
      "version": 1,
      "changeset": 61238939,
      "user": "Diógenes de Sinope",
      "uid": 2972418,
      "tags": {
        "addr:city": "Luanda",
        "amenity": "bar"
      }
    },
    {
      "type": "node",
      "id": 5799621827,
      "lat": -8.9127499,
      "lon": 13.2363203,
      "timestamp": "2018-07-31T19:06:21Z",
      "version": 1,
      "changeset": 61238939,
      "user": "Diógenes de Sinope",
      "uid": 2972418,
      "tags": {
        "addr:city": "Luanda",
        "addr:street": "Dangereux-Camama",
        "amenity": "bar"
      }
    },
    {
      "type": "node",
      "id": 5799784261,
      "lat": -8.8168895,
      "lon": 13.2544242,
      "timestamp": "2018-07-31T20:36:17Z",
      "version": 1,
      "changeset": 61241431,
      "user": "Wonderworld",
      "uid": 6907857,
      "tags": {
        "addr:city": "Luanda",
        "addr:country": "AO",
        "addr:street": "Rua Gil Liberdade",
        "amenity": "bar",
        "facebook": "https://www.facebook.com/El-Bar-216734079045504/",
        "name": "El Bar"
      }
    },
    {
      "type": "node",
      "id": 5806946173,
      "lat": -0.1031575,
      "lon": 11.6064483,
      "timestamp": "2023-01-21T18:20:38Z",
      "version": 3,
      "changeset": 131550092,
      "user": "Allouche OBAME",
      "uid": 11158872,
      "tags": {
        "addr:city": "lopé",
        "amenity": "bar",
        "name": "Snack",
        "opening_hours": "24/7",
        "smoking": "yes"
      }
    },
    {
      "type": "node",
      "id": 5837282852,
      "lat": -8.8959789,
      "lon": 13.1805757,
      "timestamp": "2018-08-17T00:15:11Z",
      "version": 1,
      "changeset": 61730331,
      "user": "Diógenes de Sinope",
      "uid": 2972418,
      "tags": {
        "addr:city": "Luanda",
        "addr:street": "Rua 21 de Janeiro",
        "amenity": "bar"
      }
    },
    {
      "type": "node",
      "id": 5847409889,
      "lat": -4.7964476,
      "lon": 11.8712811,
      "timestamp": "2018-08-21T23:40:00Z",
      "version": 1,
      "changeset": 61872425,
      "user": "Mack Gladino",
      "uid": 8719669,
      "tags": {
        "amenity": "pub",
        "name": "VIP la case ta côté"
      }
    },
    {
      "type": "node",
      "id": 5847409890,
      "lat": -4.7828664,
      "lon": 11.8748799,
      "timestamp": "2018-08-21T23:40:02Z",
      "version": 1,
      "changeset": 61872425,
      "user": "Mack Gladino",
      "uid": 8719669,
      "tags": {
        "amenity": "pub",
        "name": "Cave de Julianna"
      }
    },
    {
      "type": "node",
      "id": 5860906604,
      "lat": -3.309549,
      "lon": 17.3695655,
      "timestamp": "2018-08-27T12:03:28Z",
      "version": 1,
      "changeset": 62037733,
      "user": "Don20",
      "uid": 5346162,
      "tags": {
        "amenity": "bar",
        "name": "Du bois"
      }
    },
    {
      "type": "node",
      "id": 5860906605,
      "lat": -3.3105368,
      "lon": 17.3690572,
      "timestamp": "2018-08-27T12:03:28Z",
      "version": 1,
      "changeset": 62037733,
      "user": "Don20",
      "uid": 5346162,
      "tags": {
        "amenity": "bar"
      }
    },
    {
      "type": "node",
      "id": 5860906606,
      "lat": -3.3102959,
      "lon": 17.368105,
      "timestamp": "2018-08-27T12:03:28Z",
      "version": 1,
      "changeset": 62037733,
      "user": "Don20",
      "uid": 5346162,
      "tags": {
        "amenity": "bar"
      }
    },
    {
      "type": "node",
      "id": 5860933265,
      "lat": -3.3172279,
      "lon": 17.3805245,
      "timestamp": "2018-08-27T12:20:13Z",
      "version": 1,
      "changeset": 62038293,
      "user": "Don20",
      "uid": 5346162,
      "tags": {
        "amenity": "bar",
        "name": "Kimbuta",
        "note": "Bar le plus chaud et populaire de la ville",
        "operator": "Patrick Pemba",
        "smoking": "yes"
      }
    },
    {
      "type": "node",
      "id": 5860933266,
      "lat": -3.3174446,
      "lon": 17.3804609,
      "timestamp": "2018-08-27T12:20:13Z",
      "version": 1,
      "changeset": 62038293,
      "user": "Don20",
      "uid": 5346162,
      "tags": {
        "amenity": "bar",
        "name": "Bedo"
      }
    },
    {
      "type": "node",
      "id": 5860933267,
      "lat": -3.3172738,
      "lon": 17.3809302,
      "timestamp": "2018-08-27T12:20:13Z",
      "version": 1,
      "changeset": 62038293,
      "user": "Don20",
      "uid": 5346162,
      "tags": {
        "amenity": "bar",
        "name": "Station Engen",
        "operator": "Patrick Pemba",
        "smoking": "no"
      }
    },
    {
      "type": "node",
      "id": 5891885683,
      "lat": -8.7657608,
      "lon": 13.2585357,
      "timestamp": "2018-09-08T00:56:38Z",
      "version": 1,
      "changeset": 62391470,
      "user": "Diógenes de Sinope",
      "uid": 2972418,
      "tags": {
        "addr:city": "Luanda",
        "amenity": "bar",
        "name": "Player’s Sports Bar"
      }
    },
    {
      "type": "node",
      "id": 5891886365,
      "lat": -8.8121599,
      "lon": 13.2331048,
      "timestamp": "2018-09-08T00:56:40Z",
      "version": 1,
      "changeset": 62391470,
      "user": "Diógenes de Sinope",
      "uid": 2972418,
      "tags": {
        "addr:city": "Luanda",
        "addr:street": "Rua Engenheiro Fragoso (ex Doutor Alfredo Troni)",
        "amenity": "bar",
        "name": "Café Arábica"
      }
    },
    {
      "type": "node",
      "id": 5891924766,
      "lat": -8.8137653,
      "lon": 13.2294782,
      "timestamp": "2018-09-08T02:00:19Z",
      "version": 1,
      "changeset": 62391940,
      "user": "Diógenes de Sinope",
      "uid": 2972418,
      "tags": {
        "addr:city": "Luanda",
        "addr:street": "Travessa da Sé",
        "amenity": "pub",
        "name": "Royale"
      }
    },
    {
      "type": "node",
      "id": 5891924767,
      "lat": -8.8123367,
      "lon": 13.2326298,
      "timestamp": "2018-09-08T02:00:19Z",
      "version": 1,
      "changeset": 62391940,
      "user": "Diógenes de Sinope",
      "uid": 2972418,
      "tags": {
        "addr:city": "Luanda",
        "addr:street": "Largo T. da Cunha",
        "amenity": "bar",
        "name": "Elinga"
      }
    },
    {
      "type": "node",
      "id": 5891924768,
      "lat": -8.8134976,
      "lon": 13.2318252,
      "timestamp": "2018-09-08T02:00:19Z",
      "version": 1,
      "changeset": 62391940,
      "user": "Diógenes de Sinope",
      "uid": 2972418,
      "tags": {
        "addr:city": "Luanda",
        "addr:street": "Rua Rainha Ginga",
        "amenity": "bar",
        "name": "Cervejaria Biker"
      }
    },
    {
      "type": "node",
      "id": 5893915786,
      "lat": -8.9927637,
      "lon": 13.2772762,
      "timestamp": "2018-09-09T05:56:10Z",
      "version": 1,
      "changeset": 62416409,
      "user": "HeliousBloger",
      "uid": 8798603,
      "tags": {
        "amenity": "pub",
        "name": "Kilambar",
        "opening_hours": "Mo-Su 15:00-02:00"
      }
    },
    {
      "type": "node",
      "id": 5895278086,
      "lat": -8.9061782,
      "lon": 13.2406142,
      "timestamp": "2018-09-10T02:23:36Z",
      "version": 1,
      "changeset": 62438337,
      "user": "Diógenes de Sinope",
      "uid": 2972418,
      "tags": {
        "addr:city": "Luanda",
        "addr:street": "Rua 51",
        "amenity": "bar"
      }
    },
    {
      "type": "node",
      "id": 5915879913,
      "lat": -8.8478881,
      "lon": 13.2283126,
      "timestamp": "2018-09-19T11:19:19Z",
      "version": 1,
      "changeset": 62726439,
      "user": "Diógenes de Sinope",
      "uid": 2972418,
      "tags": {
        "addr:city": "Luanda",
        "addr:street": "Rua 21 de Janeiro",
        "amenity": "pub"
      }
    },
    {
      "type": "node",
      "id": 5916656072,
      "lat": -8.8858602,
      "lon": 13.1828909,
      "timestamp": "2018-09-19T18:56:45Z",
      "version": 1,
      "changeset": 62740652,
      "user": "Diógenes de Sinope",
      "uid": 2972418,
      "tags": {
        "addr:city": "Luanda",
        "addr:street": "Rua Projectada",
        "amenity": "pub"
      }
    },
    {
      "type": "node",
      "id": 5919170121,
      "lat": -8.8483611,
      "lon": 13.2116379,
      "timestamp": "2018-09-20T19:52:25Z",
      "version": 1,
      "changeset": 62775791,
      "user": "Diógenes de Sinope",
      "uid": 2972418,
      "tags": {
        "addr:city": "Luanda",
        "amenity": "pub"
      }
    },
    {
      "type": "node",
      "id": 5919449177,
      "lat": -8.8366727,
      "lon": 13.2156598,
      "timestamp": "2018-09-20T23:27:44Z",
      "version": 1,
      "changeset": 62779515,
      "user": "Diógenes de Sinope",
      "uid": 2972418,
      "tags": {
        "addr:city": "Luanda",
        "addr:street": "Estrada da Samba",
        "amenity": "pub"
      }
    },
    {
      "type": "node",
      "id": 5921880133,
      "lat": -8.8239531,
      "lon": 13.2312578,
      "timestamp": "2018-09-22T04:26:20Z",
      "version": 1,
      "changeset": 62815547,
      "user": "Diógenes de Sinope",
      "uid": 2972418,
      "tags": {
        "addr:city": "Luanda",
        "addr:street": "Rua Kruame Krumah",
        "amenity": "pub"
      }
    },
    {
      "type": "node",
      "id": 5981330685,
      "lat": -2.2130826,
      "lon": 11.4672035,
      "timestamp": "2023-01-21T17:18:38Z",
      "version": 2,
      "changeset": 131548399,
      "user": "Władysław Komorek",
      "uid": 693154,
      "tags": {
        "amenity": "bar",
        "name": "Bar de Lebamba"
      }
    },
    {
      "type": "node",
      "id": 6030433685,
      "lat": -8.8358702,
      "lon": 13.2130889,
      "timestamp": "2018-11-01T19:26:20Z",
      "version": 1,
      "changeset": 64091017,
      "user": "Pina Bugillo",
      "uid": 6544143,
      "tags": {
        "addr:housenumber": "0115",
        "addr:street": "Rua da Nova Samba",
        "amenity": "bar",
        "cuisine": "african;breakfast;hotdog;tea;cake;coffee_shop;american;steak_house;deli;german;barbecue",
        "internet_access": "wlan",
        "name": "Garrafeira",
        "name:en": "Bar",
        "opening_hours": "24/7"
      }
    },
    {
      "type": "node",
      "id": 6034337785,
      "lat": -4.7605615,
      "lon": 11.8542509,
      "timestamp": "2018-11-03T16:20:25Z",
      "version": 1,
      "changeset": 64144370,
      "user": "Franck ENKOU",
      "uid": 4401034,
      "tags": {
        "amenity": "bar",
        "name": "Mazra Bar"
      }
    },
    {
      "type": "node",
      "id": 6036833300,
      "lat": -4.3300044,
      "lon": 15.3468108,
      "timestamp": "2018-11-10T09:25:19Z",
      "version": 2,
      "changeset": 64347418,
      "user": "yongololo",
      "uid": 5384179,
      "tags": {
        "amenity": "pub",
        "name": "Chez René"
      }
    },
    {
      "type": "node",
      "id": 6039002705,
      "lat": -4.3326201,
      "lon": 15.3397934,
      "timestamp": "2018-11-16T15:18:51Z",
      "version": 2,
      "changeset": 64570770,
      "user": "yongololo",
      "uid": 5384179,
      "tags": {
        "amenity": "bar"
      }
    },
    {
      "type": "node",
      "id": 6039060620,
      "lat": -4.3323259,
      "lon": 15.3419814,
      "timestamp": "2018-11-16T14:53:12Z",
      "version": 2,
      "changeset": 64570114,
      "user": "yongololo",
      "uid": 5384179,
      "tags": {
        "amenity": "bar",
        "name": "Chez Maman Chantal"
      }
    },
    {
      "type": "node",
      "id": 6039060625,
      "lat": -4.3329317,
      "lon": 15.339839,
      "timestamp": "2018-11-16T15:18:51Z",
      "version": 2,
      "changeset": 64570770,
      "user": "yongololo",
      "uid": 5384179,
      "tags": {
        "amenity": "bar",
        "name": "Le goùt du changement"
      }
    },
    {
      "type": "node",
      "id": 6039103097,
      "lat": -4.3337628,
      "lon": 15.3428552,
      "timestamp": "2021-06-03T15:43:17Z",
      "version": 6,
      "changeset": 105788378,
      "user": "christian shadrack",
      "uid": 5478316,
      "tags": {
        "amenity": "bar",
        "name": "N'oublie pas 1822"
      }
    },
    {
      "type": "node",
      "id": 6039148131,
      "lat": -4.3320986,
      "lon": 15.3455467,
      "timestamp": "2018-11-16T15:35:27Z",
      "version": 3,
      "changeset": 64571240,
      "user": "yongololo",
      "uid": 5384179,
      "tags": {
        "amenity": "bar"
      }
    },
    {
      "type": "node",
      "id": 6043767835,
      "lat": -4.338777,
      "lon": 15.3452853,
      "timestamp": "2019-01-26T18:05:25Z",
      "version": 5,
      "changeset": 66660750,
      "user": "clairedelune",
      "uid": 190626,
      "tags": {
        "amenity": "bar",
        "name": "Business Moto"
      }
    },
    {
      "type": "node",
      "id": 6044081876,
      "lat": -4.330167,
      "lon": 15.3460646,
      "timestamp": "2018-11-16T14:53:14Z",
      "version": 2,
      "changeset": 64570114,
      "user": "yongololo",
      "uid": 5384179,
      "tags": {
        "amenity": "bar",
        "name": "Muntu Wa Nzambe"
      }
    },
    {
      "type": "node",
      "id": 6044140082,
      "lat": -4.3417396,
      "lon": 15.3494574,
      "timestamp": "2018-11-16T13:56:36Z",
      "version": 2,
      "changeset": 64568061,
      "user": "yongololo",
      "uid": 5384179,
      "tags": {
        "amenity": "bar",
        "name": "Chez man's"
      }
    },
    {
      "type": "node",
      "id": 6115682396,
      "lat": -4.3463163,
      "lon": 15.3506945,
      "timestamp": "2018-12-05T12:27:20Z",
      "version": 2,
      "changeset": 65200676,
      "user": "yongololo",
      "uid": 5384179,
      "tags": {
        "amenity": "bar",
        "name": "Whatsapp",
        "outdoor_seating": "yes"
      }
    },
    {
      "type": "node",
      "id": 6124721189,
      "lat": -4.3427131,
      "lon": 15.3534153,
      "timestamp": "2018-12-08T10:48:36Z",
      "version": 1,
      "changeset": 65289639,
      "user": "Bobo Jean de dieu",
      "uid": 5921856,
      "tags": {
        "amenity": "bar",
        "name": "Espace Nono M.T",
        "outdoor_seating": "yes"
      }
    },
    {
      "type": "node",
      "id": 6128262014,
      "lat": -8.8207463,
      "lon": 13.2446123,
      "timestamp": "2018-12-10T12:51:46Z",
      "version": 1,
      "changeset": 65343258,
      "user": "Diógenes de Sinope",
      "uid": 2972418,
      "tags": {
        "addr:city": "Luanda",
        "amenity": "pub"
      }
    },
    {
      "type": "node",
      "id": 6136077637,
      "lat": -8.9014185,
      "lon": 13.2545906,
      "timestamp": "2018-12-13T23:56:48Z",
      "version": 1,
      "changeset": 65457993,
      "user": "Diógenes de Sinope",
      "uid": 2972418,
      "tags": {
        "amenity": "bar",
        "name": "Snack Bar"
      }
    },
    {
      "type": "node",
      "id": 6138154262,
      "lat": -8.932788,
      "lon": 13.2631612,
      "timestamp": "2019-03-06T11:24:30Z",
      "version": 2,
      "changeset": 67840085,
      "user": "Diógenes de Sinope",
      "uid": 2972418,
      "tags": {
        "amenity": "bar"
      }
    },
    {
      "type": "node",
      "id": 6138830007,
      "lat": -4.8003197,
      "lon": 11.8448632,
      "timestamp": "2018-12-15T11:20:54Z",
      "version": 1,
      "changeset": 65497158,
      "user": "rich malonda",
      "uid": 9141043,
      "tags": {
        "amenity": "bar",
        "name": "Piano bar"
      }
    },
    {
      "type": "node",
      "id": 6139526676,
      "lat": -8.9876234,
      "lon": 13.3954101,
      "timestamp": "2018-12-15T21:24:42Z",
      "version": 1,
      "changeset": 65509880,
      "user": "Diógenes de Sinope",
      "uid": 2972418,
      "tags": {
        "amenity": "bar"
      }
    },
    {
      "type": "node",
      "id": 6144115157,
      "lat": -8.812317,
      "lon": 13.2436154,
      "timestamp": "2018-12-18T03:54:25Z",
      "version": 1,
      "changeset": 65569227,
      "user": "Diógenes de Sinope",
      "uid": 2972418,
      "tags": {
        "addr:city": "Luanda",
        "addr:street": "Rua de São Tomé",
        "amenity": "pub",
        "name": "Botequim Zézona"
      }
    },
    {
      "type": "node",
      "id": 6214531588,
      "lat": -4.7376565,
      "lon": 11.9145473,
      "timestamp": "2019-01-16T20:52:08Z",
      "version": 1,
      "changeset": 66375586,
      "user": "rich malonda",
      "uid": 9141043,
      "tags": {
        "amenity": "bar",
        "name": "Vip bar Wapedjo"
      }
    },
    {
      "type": "node",
      "id": 6219110200,
      "lat": -8.9013881,
      "lon": 13.2571172,
      "timestamp": "2019-01-18T17:22:30Z",
      "version": 1,
      "changeset": 66434447,
      "user": "Diógenes de Sinope",
      "uid": 2972418,
      "tags": {
        "amenity": "bar"
      }
    },
    {
      "type": "node",
      "id": 6223647986,
      "lat": -4.3436082,
      "lon": 15.2822928,
      "timestamp": "2019-01-20T23:57:19Z",
      "version": 2,
      "changeset": 66488613,
      "user": "clairedelune",
      "uid": 190626,
      "tags": {
        "amenity": "bar",
        "name": "Chez Emilia Nsuele",
        "outdoor_seating": "yes"
      }
    },
    {
      "type": "node",
      "id": 6223647987,
      "lat": -4.3435777,
      "lon": 15.2822949,
      "timestamp": "2019-01-20T23:57:19Z",
      "version": 2,
      "changeset": 66488613,
      "user": "clairedelune",
      "uid": 190626,
      "tags": {
        "alt_name": "Chez ML",
        "amenity": "bar",
        "name": "M.L. de Bruxelles",
        "note": "On y sert le ngulu / Grilled pig is served there",
        "outdoor_seating": "yes"
      }
    },
    {
      "type": "node",
      "id": 6223686385,
      "lat": -4.3436399,
      "lon": 15.2822897,
      "timestamp": "2019-01-20T23:57:19Z",
      "version": 2,
      "changeset": 66488613,
      "user": "clairedelune",
      "uid": 190626,
      "tags": {
        "amenity": "bar",
        "name": "Chez Mireille Lufuma",
        "outdoor_seating": "yes"
      }
    },
    {
      "type": "node",
      "id": 6223905911,
      "lat": -8.8266426,
      "lon": 13.2487794,
      "timestamp": "2019-01-21T01:05:32Z",
      "version": 1,
      "changeset": 66489278,
      "user": "Diógenes de Sinope",
      "uid": 2972418,
      "tags": {
        "addr:city": "Luanda",
        "addr:street": "Rua de João de Deus",
        "amenity": "bar"
      }
    },
    {
      "type": "node",
      "id": 6224211762,
      "lat": -8.8279443,
      "lon": 13.2528725,
      "timestamp": "2019-01-21T05:30:25Z",
      "version": 1,
      "changeset": 66493183,
      "user": "Diógenes de Sinope",
      "uid": 2972418,
      "tags": {
        "addr:city": "Luanda",
        "addr:street": "Rua do Cesário Verde",
        "amenity": "pub"
      }
    },
    {
      "type": "node",
      "id": 6224211891,
      "lat": -8.8308129,
      "lon": 13.251573,
      "timestamp": "2019-01-21T05:30:26Z",
      "version": 1,
      "changeset": 66493183,
      "user": "Diógenes de Sinope",
      "uid": 2972418,
      "tags": {
        "addr:city": "Luanda",
        "addr:street": "Rua Liberdade",
        "amenity": "bar",
        "name": "Botequim Martucha"
      }
    },
    {
      "type": "node",
      "id": 6228755336,
      "lat": -8.9258343,
      "lon": 13.2152992,
      "timestamp": "2019-01-23T05:27:17Z",
      "version": 1,
      "changeset": 66558408,
      "user": "Diógenes de Sinope",
      "uid": 2972418,
      "tags": {
        "amenity": "pub"
      }
    },
    {
      "type": "node",
      "id": 6231160264,
      "lat": -8.928465,
      "lon": 13.2117996,
      "timestamp": "2019-01-23T21:18:38Z",
      "version": 1,
      "changeset": 66582137,
      "user": "Diógenes de Sinope",
      "uid": 2972418,
      "tags": {
        "amenity": "pub"
      }
    },
    {
      "type": "node",
      "id": 6231160279,
      "lat": -8.9301939,
      "lon": 13.209173,
      "timestamp": "2019-01-23T21:18:39Z",
      "version": 1,
      "changeset": 66582137,
      "user": "Diógenes de Sinope",
      "uid": 2972418,
      "tags": {
        "amenity": "pub"
      }
    },
    {
      "type": "node",
      "id": 6231161322,
      "lat": -8.9316671,
      "lon": 13.2067718,
      "timestamp": "2019-01-23T21:18:40Z",
      "version": 1,
      "changeset": 66582137,
      "user": "Diógenes de Sinope",
      "uid": 2972418,
      "tags": {
        "amenity": "pub"
      }
    },
    {
      "type": "node",
      "id": 6235440165,
      "lat": -8.9063623,
      "lon": 13.2047035,
      "timestamp": "2019-01-25T06:49:14Z",
      "version": 1,
      "changeset": 66622568,
      "user": "Diógenes de Sinope",
      "uid": 2972418,
      "tags": {
        "amenity": "bar"
      }
    },
    {
      "type": "node",
      "id": 6237222489,
      "lat": -8.9386791,
      "lon": 13.1886165,
      "timestamp": "2019-01-26T00:11:38Z",
      "version": 1,
      "changeset": 66646826,
      "user": "Diógenes de Sinope",
      "uid": 2972418,
      "tags": {
        "amenity": "pub"
      }
    },
    {
      "type": "node",
      "id": 6237222550,
      "lat": -8.9345218,
      "lon": 13.1985688,
      "timestamp": "2019-01-26T00:11:40Z",
      "version": 1,
      "changeset": 66646826,
      "user": "Diógenes de Sinope",
      "uid": 2972418,
      "tags": {
        "amenity": "pub"
      }
    },
    {
      "type": "node",
      "id": 6237256095,
      "lat": -8.9306189,
      "lon": 13.2022689,
      "timestamp": "2019-01-26T01:10:35Z",
      "version": 1,
      "changeset": 66647314,
      "user": "Diógenes de Sinope",
      "uid": 2972418,
      "tags": {
        "amenity": "pub"
      }
    },
    {
      "type": "node",
      "id": 6253856068,
      "lat": -3.3108627,
      "lon": 17.3709954,
      "timestamp": "2019-02-02T14:59:55Z",
      "version": 1,
      "changeset": 66856565,
      "user": "Don20",
      "uid": 5346162,
      "tags": {
        "amenity": "bar",
        "name": "Chez Chinois"
      }
    },
    {
      "type": "node",
      "id": 6255374717,
      "lat": -3.3071309,
      "lon": 17.3784426,
      "timestamp": "2019-02-03T08:55:48Z",
      "version": 1,
      "changeset": 66871580,
      "user": "Don20",
      "uid": 5346162,
      "tags": {
        "amenity": "bar",
        "name": "Bar Muzumu"
      }
    },
    {
      "type": "node",
      "id": 6257865084,
      "lat": -4.7969514,
      "lon": 11.8688669,
      "timestamp": "2019-02-04T13:34:52Z",
      "version": 1,
      "changeset": 66903706,
      "user": "IMMERGIS CAMEROUN SAS",
      "uid": 6804882,
      "tags": {
        "amenity": "bar",
        "name": "Coeur de patrice"
      }
    },
    {
      "type": "node",
      "id": 6257867285,
      "lat": -4.7976446,
      "lon": 11.8659812,
      "timestamp": "2019-02-04T13:34:52Z",
      "version": 1,
      "changeset": 66903706,
      "user": "IMMERGIS CAMEROUN SAS",
      "uid": 6804882,
      "tags": {
        "amenity": "bar",
        "name": "La clairette"
      }
    },
    {
      "type": "node",
      "id": 6257867298,
      "lat": -4.8023557,
      "lon": 11.8735033,
      "timestamp": "2019-02-04T13:34:52Z",
      "version": 1,
      "changeset": 66903706,
      "user": "IMMERGIS CAMEROUN SAS",
      "uid": 6804882,
      "tags": {
        "amenity": "bar",
        "name": "Oasis vip"
      }
    },
    {
      "type": "node",
      "id": 6257867333,
      "lat": -4.7993872,
      "lon": 11.8718031,
      "timestamp": "2019-02-04T13:34:54Z",
      "version": 1,
      "changeset": 66903706,
      "user": "IMMERGIS CAMEROUN SAS",
      "uid": 6804882,
      "tags": {
        "amenity": "bar",
        "name": "Village de cohada"
      }
    },
    {
      "type": "node",
      "id": 6257868191,
      "lat": -4.8148656,
      "lon": 11.8652002,
      "timestamp": "2019-02-04T13:35:21Z",
      "version": 1,
      "changeset": 66903706,
      "user": "IMMERGIS CAMEROUN SAS",
      "uid": 6804882,
      "tags": {
        "amenity": "bar",
        "name": "Chez inna"
      }
    },
    {
      "type": "node",
      "id": 6257868200,
      "lat": -4.8123348,
      "lon": 11.8596757,
      "timestamp": "2019-02-04T13:35:21Z",
      "version": 1,
      "changeset": 66903706,
      "user": "IMMERGIS CAMEROUN SAS",
      "uid": 6804882,
      "tags": {
        "amenity": "bar",
        "name": "Eden ( hotel bar restaurant)",
        "tourism": "hotel"
      }
    },
    {
      "type": "node",
      "id": 6257868201,
      "lat": -4.8124984,
      "lon": 11.8595007,
      "timestamp": "2019-02-04T13:35:21Z",
      "version": 1,
      "changeset": 66903706,
      "user": "IMMERGIS CAMEROUN SAS",
      "uid": 6804882,
      "tags": {
        "amenity": "bar",
        "name": "Gg movida vip"
      }
    },
    {
      "type": "node",
      "id": 6257868204,
      "lat": -4.8189671,
      "lon": 11.8625116,
      "timestamp": "2019-02-04T13:35:21Z",
      "version": 1,
      "changeset": 66903706,
      "user": "IMMERGIS CAMEROUN SAS",
      "uid": 6804882,
      "tags": {
        "amenity": "bar",
        "name": "Chez pepe vip"
      }
    },
    {
      "type": "node",
      "id": 6257868205,
      "lat": -4.8192982,
      "lon": 11.8626441,
      "timestamp": "2019-02-04T13:35:21Z",
      "version": 1,
      "changeset": 66903706,
      "user": "IMMERGIS CAMEROUN SAS",
      "uid": 6804882,
      "tags": {
        "amenity": "bar",
        "name": "Le gers"
      }
    },
    {
      "type": "node",
      "id": 6257868215,
      "lat": -4.8188292,
      "lon": 11.8537827,
      "timestamp": "2019-02-04T13:35:22Z",
      "version": 1,
      "changeset": 66903706,
      "user": "IMMERGIS CAMEROUN SAS",
      "uid": 6804882,
      "tags": {
        "amenity": "bar",
        "name": "Exoming beach"
      }
    },
    {
      "type": "node",
      "id": 6257868235,
      "lat": -4.8148912,
      "lon": 11.8517068,
      "timestamp": "2019-02-04T13:35:23Z",
      "version": 1,
      "changeset": 66903706,
      "user": "IMMERGIS CAMEROUN SAS",
      "uid": 6804882,
      "tags": {
        "amenity": "bar",
        "name": "La table bar restaurant"
      }
    },
    {
      "type": "node",
      "id": 6257868236,
      "lat": -4.8156618,
      "lon": 11.855053,
      "timestamp": "2019-02-04T13:35:23Z",
      "version": 1,
      "changeset": 66903706,
      "user": "IMMERGIS CAMEROUN SAS",
      "uid": 6804882,
      "tags": {
        "amenity": "bar",
        "name": "Brasserie le moyo"
      }
    },
    {
      "type": "node",
      "id": 6257868241,
      "lat": -4.8134002,
      "lon": 11.8562209,
      "timestamp": "2019-02-04T13:35:23Z",
      "version": 1,
      "changeset": 66903706,
      "user": "IMMERGIS CAMEROUN SAS",
      "uid": 6804882,
      "tags": {
        "amenity": "bar",
        "name": "Vip le gaillard"
      }
    },
    {
      "type": "node",
      "id": 6257868251,
      "lat": -4.8122236,
      "lon": 11.8575671,
      "timestamp": "2019-02-04T13:35:23Z",
      "version": 1,
      "changeset": 66903706,
      "user": "IMMERGIS CAMEROUN SAS",
      "uid": 6804882,
      "tags": {
        "amenity": "bar",
        "name": "Fax bar resto"
      }
    },
    {
      "type": "node",
      "id": 6257868258,
      "lat": -4.8116219,
      "lon": 11.8582892,
      "timestamp": "2019-02-04T13:35:24Z",
      "version": 1,
      "changeset": 66903706,
      "user": "IMMERGIS CAMEROUN SAS",
      "uid": 6804882,
      "tags": {
        "amenity": "bar",
        "name": "Gjilma et verda"
      }
    },
    {
      "type": "node",
      "id": 6257868351,
      "lat": -4.800329,
      "lon": 11.8448868,
      "timestamp": "2019-02-04T13:35:27Z",
      "version": 1,
      "changeset": 66903706,
      "user": "IMMERGIS CAMEROUN SAS",
      "uid": 6804882,
      "tags": {
        "amenity": "bar",
        "name": "Piano bar"
      }
    },
    {
      "type": "node",
      "id": 6261545862,
      "lat": -3.299727,
      "lon": 17.3680973,
      "timestamp": "2019-02-06T11:00:05Z",
      "version": 1,
      "changeset": 66960364,
      "user": "Don20",
      "uid": 5346162,
      "tags": {
        "amenity": "bar",
        "name": "Kinkole"
      }
    },
    {
      "type": "node",
      "id": 6261546761,
      "lat": -3.3046273,
      "lon": 17.3748887,
      "timestamp": "2019-02-06T11:00:07Z",
      "version": 1,
      "changeset": 66960364,
      "user": "Don20",
      "uid": 5346162,
      "tags": {
        "amenity": "bar",
        "name": "La Zamba"
      }
    },
    {
      "type": "node",
      "id": 6261546766,
      "lat": -3.308435,
      "lon": 17.3751542,
      "timestamp": "2019-02-06T11:00:07Z",
      "version": 1,
      "changeset": 66960364,
      "user": "Don20",
      "uid": 5346162,
      "tags": {
        "amenity": "bar",
        "name": "Terrasse"
      }
    },
    {
      "type": "node",
      "id": 6261546774,
      "lat": -3.3008235,
      "lon": 17.3756973,
      "timestamp": "2019-02-06T11:00:07Z",
      "version": 1,
      "changeset": 66960364,
      "user": "Don20",
      "uid": 5346162,
      "tags": {
        "amenity": "bar",
        "name": "Espace Maman Espe"
      }
    },
    {
      "type": "node",
      "id": 6261546781,
      "lat": -3.2999305,
      "lon": 17.3759066,
      "timestamp": "2019-02-06T11:00:08Z",
      "version": 1,
      "changeset": 66960364,
      "user": "Don20",
      "uid": 5346162,
      "tags": {
        "amenity": "bar",
        "name": "Espace love Bar"
      }
    },
    {
      "type": "node",
      "id": 6261546782,
      "lat": -3.2995368,
      "lon": 17.3760125,
      "timestamp": "2019-02-06T11:00:08Z",
      "version": 1,
      "changeset": 66960364,
      "user": "Don20",
      "uid": 5346162,
      "tags": {
        "amenity": "bar",
        "name": "Terrasse +12"
      }
    },
    {
      "type": "node",
      "id": 6284322325,
      "lat": -4.7851579,
      "lon": 11.8828577,
      "timestamp": "2019-02-17T13:52:01Z",
      "version": 1,
      "changeset": 67279951,
      "user": "rich malonda",
      "uid": 9141043,
      "tags": {
        "amenity": "bar",
        "name": "Night club le Magenta"
      }
    },
    {
      "type": "node",
      "id": 6284336191,
      "lat": -4.7824219,
      "lon": 11.8707977,
      "timestamp": "2019-02-17T13:47:45Z",
      "version": 1,
      "changeset": 67279951,
      "user": "rich malonda",
      "uid": 9141043,
      "tags": {
        "amenity": "pub",
        "name": "Saveur"
      }
    },
    {
      "type": "node",
      "id": 6284336210,
      "lat": -4.7342681,
      "lon": 11.9177215,
      "timestamp": "2019-02-17T13:49:01Z",
      "version": 1,
      "changeset": 67279951,
      "user": "rich malonda",
      "uid": 9141043,
      "tags": {
        "amenity": "bar",
        "name": "Espace MOUP"
      }
    },
    {
      "type": "node",
      "id": 6284336213,
      "lat": -4.7350032,
      "lon": 11.9167861,
      "timestamp": "2019-02-17T13:49:11Z",
      "version": 1,
      "changeset": 67279951,
      "user": "rich malonda",
      "uid": 9141043,
      "tags": {
        "amenity": "bar",
        "name": "Ets NC cave"
      }
    },
    {
      "type": "node",
      "id": 6284336221,
      "lat": -4.7415155,
      "lon": 11.9108238,
      "timestamp": "2019-02-17T13:49:33Z",
      "version": 1,
      "changeset": 67279951,
      "user": "rich malonda",
      "uid": 9141043,
      "tags": {
        "amenity": "bar",
        "name": "Ya Bagaillard"
      }
    },
    {
      "type": "node",
      "id": 6284346686,
      "lat": -4.7823165,
      "lon": 11.8708797,
      "timestamp": "2019-02-17T13:47:39Z",
      "version": 1,
      "changeset": 67279951,
      "user": "rich malonda",
      "uid": 9141043,
      "tags": {
        "amenity": "pub"
      }
    },
    {
      "type": "node",
      "id": 6284346695,
      "lat": -4.7469393,
      "lon": 11.9064662,
      "timestamp": "2019-02-17T13:49:56Z",
      "version": 1,
      "changeset": 67279951,
      "user": "rich malonda",
      "uid": 9141043,
      "tags": {
        "amenity": "bar",
        "name": "R.N service"
      }
    },
    {
      "type": "node",
      "id": 6284346703,
      "lat": -4.7764755,
      "lon": 11.8770575,
      "timestamp": "2019-02-17T13:50:28Z",
      "version": 1,
      "changeset": 67279951,
      "user": "rich malonda",
      "uid": 9141043,
      "tags": {
        "amenity": "bar"
      }
    },
    {
      "type": "node",
      "id": 6284346724,
      "lat": -4.7845798,
      "lon": 11.8829211,
      "timestamp": "2019-02-17T13:52:12Z",
      "version": 1,
      "changeset": 67279951,
      "user": "rich malonda",
      "uid": 9141043,
      "tags": {
        "amenity": "bar",
        "name": "Espace Dol"
      }
    },
    {
      "type": "node",
      "id": 6284346789,
      "lat": -4.7297037,
      "lon": 11.9213486,
      "timestamp": "2019-02-17T13:48:52Z",
      "version": 1,
      "changeset": 67279951,
      "user": "rich malonda",
      "uid": 9141043,
      "tags": {
        "amenity": "pub",
        "name": "Espace guyzo"
      }
    },
    {
      "type": "node",
      "id": 6284346790,
      "lat": -4.7302952,
      "lon": 11.9207797,
      "timestamp": "2019-02-17T13:48:55Z",
      "version": 1,
      "changeset": 67279951,
      "user": "rich malonda",
      "uid": 9141043,
      "tags": {
        "amenity": "bar",
        "name": "Espace la patronna"
      }
    },
    {
      "type": "node",
      "id": 6284346795,
      "lat": -4.7448558,
      "lon": 11.9082198,
      "timestamp": "2019-02-17T13:49:46Z",
      "version": 1,
      "changeset": 67279951,
      "user": "rich malonda",
      "uid": 9141043,
      "tags": {
        "amenity": "bar",
        "name": "Espace Brestone"
      }
    },
    {
      "type": "node",
      "id": 6293491298,
      "lat": -4.4170282,
      "lon": 15.3417265,
      "timestamp": "2019-07-31T15:05:08Z",
      "version": 4,
      "changeset": 72861351,
      "user": "Her21",
      "uid": 8526295,
      "tags": {
        "addr:city": "Kinshasa",
        "addr:housenumber": "36",
        "addr:street": "Avenue Bumba",
        "amenity": "bar",
        "building": "commercial",
        "building:condition": "poor",
        "building:levels": "1",
        "building:material": "metal",
        "name": "Yes We Kin"
      }
    },
    {
      "type": "node",
      "id": 6293491342,
      "lat": -4.4042851,
      "lon": 15.3421283,
      "timestamp": "2019-07-31T15:12:56Z",
      "version": 4,
      "changeset": 72861678,
      "user": "Her21",
      "uid": 8526295,
      "tags": {
        "addr:city": "Kinshasa",
        "addr:housenumber": "34",
        "addr:street": "Kinzau",
        "amenity": "bar",
        "building": "yes",
        "building:condition": "poor",
        "building:levels": "1",
        "building:material": "metal",
        "fixme": "La localisation du Bâtiment",
        "name": "Bar Maman Muyombe"
      }
    },
    {
      "type": "node",
      "id": 6293492112,
      "lat": -4.4088421,
      "lon": 15.3383303,
      "timestamp": "2019-07-08T15:20:09Z",
      "version": 5,
      "changeset": 72019638,
      "user": "vick25",
      "uid": 5352242,
      "tags": {
        "addr:city": "Kinshasa",
        "addr:housenumber": "6",
        "addr:street": "Kiri",
        "amenity": "bar",
        "building": "yes",
        "building:condition": "poor",
        "building:levels": "1",
        "building:material": "brick",
        "name": "Ma Muyombe"
      }
    },
    {
      "type": "node",
      "id": 6293492137,
      "lat": -4.4054404,
      "lon": 15.3397894,
      "timestamp": "2019-07-31T15:12:56Z",
      "version": 4,
      "changeset": 72861678,
      "user": "Her21",
      "uid": 8526295,
      "tags": {
        "addr:city": "Kinshasa",
        "addr:housenumber": "51",
        "addr:street": "Kinzau",
        "amenity": "bar",
        "building": "yes",
        "building:condition": "average",
        "building:levels": "1",
        "building:material": "brick",
        "fixme": "préciser la localisation",
        "name": "Maison Mbala"
      }
    },
    {
      "type": "node",
      "id": 6293492167,
      "lat": -4.4037503,
      "lon": 15.3419352,
      "timestamp": "2019-07-08T15:20:09Z",
      "version": 5,
      "changeset": 72019638,
      "user": "vick25",
      "uid": 5352242,
      "tags": {
        "addr:city": "Kinshasa",
        "addr:housenumber": "36",
        "addr:street": "Avenue Mayinda",
        "amenity": "bar",
        "building": "yes",
        "building:condition": "poor",
        "building:levels": "1",
        "building:material": "brick",
        "fixme": "La localisation du Bâtiment",
        "name": "Couloir Kinshasa"
      }
    },
    {
      "type": "node",
      "id": 6293492168,
      "lat": -4.4045846,
      "lon": 15.3552389,
      "timestamp": "2019-06-20T21:41:50Z",
      "version": 3,
      "changeset": 71461909,
      "user": "csinga",
      "uid": 6312356,
      "tags": {
        "addr:city": "Kinshasa",
        "addr:street": "Avenue De la Paix",
        "amenity": "bar",
        "building": "yes",
        "building:condition": "poor",
        "building:levels": "1",
        "building:material": "brick",
        "fixme": "Preciser la localisation",
        "is_in:admin_level7": "Kisenso",
        "name": "Espace Winner",
        "shop": "lottery"
      }
    },
    {
      "type": "node",
      "id": 6320279183,
      "lat": -8.9698081,
      "lon": 13.3798324,
      "timestamp": "2019-03-06T07:57:14Z",
      "version": 1,
      "changeset": 67834207,
      "user": "Diógenes de Sinope",
      "uid": 2972418,
      "tags": {
        "amenity": "pub"
      }
    },
    {
      "type": "node",
      "id": 6320279500,
      "lat": -8.962805,
      "lon": 13.3762387,
      "timestamp": "2019-03-06T07:57:19Z",
      "version": 1,
      "changeset": 67834207,
      "user": "Diógenes de Sinope",
      "uid": 2972418,
      "tags": {
        "amenity": "pub"
      }
    },
    {
      "type": "node",
      "id": 6329583786,
      "lat": -8.993512,
      "lon": 13.2699078,
      "timestamp": "2021-04-15T11:34:23Z",
      "version": 6,
      "changeset": 102991611,
      "user": "Diógenes de Sinope",
      "uid": 2972418,
      "tags": {
        "amenity": "bar",
        "name": "M18 Bar",
        "name:pt": "M18 Bar"
      }
    },