{
  "version": 0.6,
  "generator": "Overpass API 0.7.62.8 e802775f",
  "osm3s": {
    "timestamp_osm_base": "2025-10-23T19:57:30Z",
    "copyright": "The data included in this document is from www.openstreetmap.org. The data is made available under ODbL."
  },
  "elements": [
    {
      "type": "node",
      "id": 1309210913,
      "lat": 11.5953896,
      "lon": 43.1467937,
      "timestamp": "2018-01-17T18:20:00Z",
      "version": 4,
      "changeset": 55529188,
      "user": "Minotaure",
      "uid": 7141931,
      "tags": {
        "addr:city": "جيبوتي",
        "amenity": "bar",
        "name": "La Galette Bretonne الغاليت بريتون",
        "name:ar": "الغاليت بريتون",
        "name:fr": "La Galette Bretonne"
      }
    },
    {
      "type": "node",
      "id": 2195660260,
      "lat": 11.5436253,
      "lon": 43.1526097,
      "timestamp": "2017-11-01T22:51:11Z",
      "version": 2,
      "changeset": 53437124,
      "user": "سامبا",
      "uid": 4860517,
      "tags": {
        "addr:city": "جيبوتي",
        "amenity": "bar",
        "name": "11 Degrees North / ١١ درجة شمال",
        "name:ar": "١١ درجة شمال",
        "name:en": "11 Degrees North"
      }
    },
    {
      "type": "node",
      "id": 3994757064,
      "lat": 11.5836592,
      "lon": 43.1417041,
      "timestamp": "2017-11-11T08:43:29Z",
      "version": 2,
      "changeset": 53685439,
      "user": "سامبا",
      "uid": 4860517,
      "tags": {
        "addr:city": "جيبوتي",
        "amenity": "bar",
        "name": "حانة",
        "name:ar": "حانة"
      }
    },
    {
      "type": "node",
      "id": 5276281725,
      "lat": 13.2088989,
      "lon": 40.8614583,
      "timestamp": "2017-12-10T22:30:38Z",
      "version": 1,
      "changeset": 54524223,
      "user": "Charlie Fleurène",
      "uid": 4027926,
      "tags": {
        "amenity": "bar"
      }
    },
    {
      "type": "node",
      "id": 5550755822,
      "lat": 13.845284,
      "lon": 40.0119836,
      "timestamp": "2018-04-13T17:56:45Z",
      "version": 1,
      "changeset": 58071751,
      "user": "Haftom Negash",
      "uid": 8111241,
      "tags": {
        "amenity": "bar",
        "name:en": "Berahle"
      }
    },
    {
      "type": "node",
      "id": 5550763522,
      "lat": 13.8451125,
      "lon": 40.0118636,
      "timestamp": "2018-04-13T17:56:46Z",
      "version": 1,
      "changeset": 58071751,
      "user": "Haftom Negash",
      "uid": 8111241,
      "tags": {
        "addr:housenumber": "8895",
        "addr:postcode": "1212",
        "amenity": "bar",
        "name:en": "Haftom restsurant",
        "phone": "0913931443"
      }
    },
    {
      "type": "node",
      "id": 5550777522,
      "lat": 13.8451222,
      "lon": 40.0120779,
      "timestamp": "2018-04-13T17:56:48Z",
      "version": 1,
      "changeset": 58071751,
      "user": "Haftom Negash",
      "uid": 8111241,
      "tags": {
        "amenity": "bar",
        "name:en": "Haftom Restaurant"
      }
    },
    {
      "type": "node",
      "id": 5556512021,
      "lat": 13.8451872,
      "lon": 40.0121783,
      "timestamp": "2018-04-16T12:19:24Z",
      "version": 1,
      "changeset": 58136227,
      "user": "Haftom Negash",
      "uid": 8111241,
      "tags": {
        "amenity": "bar",
        "name:en": "Restaurant"
      }
    },
    {
      "type": "node",
      "id": 5668150829,
      "lat": 14.0053233,
      "lon": 45.183124,
      "timestamp": "2018-06-06T02:03:40Z",
      "version": 1,
      "changeset": 59585828,
      "user": "ابو جواد",
      "uid": 8379081,
      "tags": {
        "amenity": "pub"
      }
    },
    {
      "type": "node",
      "id": 5775496553,
      "lat": 14.2801451,
      "lon": 44.3733671,
      "timestamp": "2018-07-21T18:11:15Z",
      "version": 1,
      "changeset": 60936318,
      "user": "Saddam alkhalaky",
      "uid": 8420742,
      "tags": {
        "amenity": "pub",
        "name": "ارياب"
      }
    },
    {
      "type": "node",
      "id": 5905808885,
      "lat": 13.3126606,
      "lon": 44.1122826,
      "timestamp": "2018-09-14T08:05:15Z",
      "version": 1,
      "changeset": 62574832,
      "user": "عصام عبده سعيد",
      "uid": 4149610,
      "tags": {
        "amenity": "pub"
      }
    },
    {
      "type": "node",
      "id": 6178623985,
      "lat": 14.9588104,
      "lon": 45.8705229,
      "timestamp": "2019-01-02T14:55:50Z",
      "version": 1,
      "changeset": 65960851,
      "user": "Adel Alsharafi",
      "uid": 5743291,
      "tags": {
        "amenity": "bar",
        "name": "دبابة مدمرة"
      }
    },
    {
      "type": "node",
      "id": 6584238591,
      "lat": 14.0868095,
      "lon": 40.277638,
      "timestamp": "2019-07-02T14:34:00Z",
      "version": 1,
      "changeset": 71824833,
      "user": "Santiago Trujillo Pereira",
      "uid": 4905628,
      "tags": {
        "amenity": "bar"
      }
    },
    {
      "type": "node",
      "id": 6989198585,
      "lat": 15.6508039,
      "lon": 43.8548835,
      "timestamp": "2019-11-19T08:36:59Z",
      "version": 1,
      "changeset": 77261999,
      "user": "محمود شوعي",
      "uid": 10072376,
      "tags": {
        "addr:street": "عمران حجة",
        "amenity": "bar",
        "internet_access": "wlan",
        "name": "وادي عقار"
      }
    },
    {
      "type": "node",
      "id": 7490833886,
      "lat": 15.3521467,
      "lon": 44.1752414,
      "timestamp": "2021-11-25T18:18:34Z",
      "version": 2,
      "changeset": 114233990,
      "user": "Mohammed Qubati",
      "uid": 8444499,
      "tags": {
        "addr:street": "شارع الستين",
        "amenity": "pub",
        "name": "امين الحميدي للقات النهمي"
      }
    },
    {
      "type": "node",
      "id": 7947923085,
      "lat": 15.6225046,
      "lon": 43.5279323,
      "timestamp": "2020-09-27T14:39:55Z",
      "version": 1,
      "changeset": 91586076,
      "user": "محمود شوعي",
      "uid": 10072376,
      "tags": {
        "addr:street": "المغربة",
        "amenity": "bar",
        "internet_access": "wlan",
        "name": "حي القنان"
      }
    },
    {
      "type": "node",
      "id": 8765527920,
      "lat": 10.5276937,
      "lon": 40.7584026,
      "timestamp": "2021-05-25T17:18:30Z",
      "version": 1,
      "changeset": 105307207,
      "user": "Hassangire",
      "uid": 13411306,
      "tags": {
        "amenity": "pub",
        "name:en": "Candhufo"
      }
    },
    {
      "type": "node",
      "id": 8948238418,
      "lat": 12.8772077,
      "lon": 44.9918667,
      "timestamp": "2021-07-25T08:46:47Z",
      "version": 1,
      "changeset": 108556679,
      "user": "أبو أحمد 2051",
      "uid": 13568635,
      "tags": {
        "amenity": "biergarten",
        "name": "الجرادي للديكورات"
      }
    },
    {
      "type": "node",
      "id": 9287123917,
      "lat": 12.8078279,
      "lon": 45.0359562,
      "timestamp": "2021-11-26T22:58:09Z",
      "version": 1,
      "changeset": 114280560,
      "user": "احمد الشعبي",
      "uid": 10091652,
      "tags": {
        "amenity": "biergarten",
        "name": "جوله البط"
      }
    },
    {
      "type": "node",
      "id": 9389362718,
      "lat": 13.1812971,
      "lon": 44.2099727,
      "timestamp": "2022-01-03T20:28:44Z",
      "version": 1,
      "changeset": 115727460,
      "user": "aghbari",
      "uid": 13576052,
      "tags": {
        "amenity": "bar",
        "name": "عقبه صغيره"
      }
    },
    {
      "type": "node",
      "id": 9389362719,
      "lat": 13.1666301,
      "lon": 44.1914854,
      "timestamp": "2022-01-03T20:28:45Z",
      "version": 1,
      "changeset": 115727460,
      "user": "aghbari",
      "uid": 13576052,
      "tags": {
        "amenity": "bar",
        "name": "نزله مسفلته"
      }
    },
    {
      "type": "node",
      "id": 9389362818,
      "lat": 13.1630571,
      "lon": 44.2598885,
      "timestamp": "2022-01-03T20:28:46Z",
      "version": 1,
      "changeset": 115727460,
      "user": "aghbari",
      "uid": 13576052,
      "tags": {
        "amenity": "bar",
        "name": "بداية الاسفلت معبق"
      }
    },
    {
      "type": "node",
      "id": 9603291917,
      "lat": 15.1169507,
      "lon": 43.3512794,
      "timestamp": "2022-03-24T13:22:12Z",
      "version": 1,
      "changeset": 118865035,
      "user": "Faisal Jayash",
      "uid": 11699024,
      "tags": {
        "amenity": "bar",
        "name": "نقطة باجل-تفتيش"
      }
    },
    {
      "type": "node",
      "id": 9785005417,
      "lat": 14.108906,
      "lon": 44.6257494,
      "timestamp": "2022-05-31T09:42:29Z",
      "version": 1,
      "changeset": 121758523,
      "user": "Alwalhan Tawil",
      "uid": 5780942,
      "tags": {
        "addr:street": "طريق الحذذ - دمت",
        "amenity": "pub",
        "name": "الجناب بيت حيدرة"
      }
    },
    {
      "type": "node",
      "id": 9785005418,
      "lat": 14.1158513,
      "lon": 44.6195982,
      "timestamp": "2022-05-31T09:42:32Z",
      "version": 1,
      "changeset": 121758523,
      "user": "Alwalhan Tawil",
      "uid": 5780942,
      "tags": {
        "addr:street": "دمت - شريح شخب عمار",
        "amenity": "pub",
        "name": "منزل حسين طويل واخوانة"
      }
    },
    {
      "type": "node",
      "id": 9785005617,
      "lat": 14.1182528,
      "lon": 44.6158908,
      "timestamp": "2022-05-31T09:42:31Z",
      "version": 1,
      "changeset": 121758523,
      "user": "Alwalhan Tawil",
      "uid": 5780942,
      "tags": {
        "addr:postcode": "1234",
        "addr:street": "الخربه - بيت الطويل",
        "amenity": "pub",
        "name": "الخربه - بيت الطويل"
      }
    },
    {
      "type": "node",
      "id": 9943594818,
      "lat": 16.1338548,
      "lon": 44.8957162,
      "timestamp": "2022-08-09T22:18:21Z",
      "version": 1,
      "changeset": 124705281,
      "user": "salm321",
      "uid": 16567092,
      "tags": {
        "amenity": "bar"
      }
    },
    {
      "type": "node",
      "id": 9943606917,
      "lat": 16.0910498,
      "lon": 44.9871091,
      "timestamp": "2022-08-09T22:18:18Z",
      "version": 1,
      "changeset": 124705281,
      "user": "salm321",
      "uid": 16567092,
      "tags": {
        "amenity": "bar"
      }
    },
    {
      "type": "node",
      "id": 9975717217,
      "lat": 16.0731524,
      "lon": 45.0257343,
      "timestamp": "2022-08-24T20:01:18Z",
      "version": 1,
      "changeset": 125331169,
      "user": "salm321",
      "uid": 16567092,
      "tags": {
        "amenity": "bar"
      }
    },
    {
      "type": "node",
      "id": 9975728817,
      "lat": 16.0178071,
      "lon": 45.1993187,
      "timestamp": "2022-08-24T20:06:09Z",
      "version": 1,
      "changeset": 125331348,
      "user": "salm321",
      "uid": 16567092,
      "tags": {
        "amenity": "bar"
      }
    },
    {
      "type": "node",
      "id": 9975731619,
      "lat": 15.7511711,
      "lon": 45.3591445,
      "timestamp": "2022-08-24T20:27:40Z",
      "version": 1,
      "changeset": 125332036,
      "user": "salm321",
      "uid": 16567092,
      "tags": {
        "amenity": "bar"
      }
    },
    {
      "type": "node",
      "id": 9975733519,
      "lat": 15.6110892,
      "lon": 45.3360952,
      "timestamp": "2022-08-24T20:29:01Z",
      "version": 1,
      "changeset": 125332085,
      "user": "salm321",
      "uid": 16567092,
      "tags": {
        "amenity": "bar"
      }
    },
    {
      "type": "node",
      "id": 9975742818,
      "lat": 15.5838106,
      "lon": 45.3373495,
      "timestamp": "2022-08-24T20:29:41Z",
      "version": 1,
      "changeset": 125332116,
      "user": "salm321",
      "uid": 16567092,
      "tags": {
        "amenity": "bar"
      }
    },
    {
      "type": "node",
      "id": 9975742819,
      "lat": 15.5275064,
      "lon": 45.3360197,
      "timestamp": "2022-08-24T20:30:58Z",
      "version": 1,
      "changeset": 125332160,
      "user": "salm321",
      "uid": 16567092,
      "tags": {
        "amenity": "bar"
      }
    },
    {
      "type": "node",
      "id": 9975742820,
      "lat": 15.4865688,
      "lon": 45.33766,
      "timestamp": "2022-08-24T20:31:38Z",
      "version": 1,
      "changeset": 125332180,
      "user": "salm321",
      "uid": 16567092,
      "tags": {
        "amenity": "bar"
      }
    },
    {
      "type": "node",
      "id": 9975743521,
      "lat": 15.9078821,
      "lon": 45.5507189,
      "timestamp": "2022-08-24T20:23:58Z",
      "version": 1,
      "changeset": 125331909,
      "user": "salm321",
      "uid": 16567092,
      "tags": {
        "amenity": "bar"
      }
    },
    {
      "type": "node",
      "id": 9975743522,
      "lat": 15.8924926,
      "lon": 45.865842,
      "timestamp": "2022-08-24T20:27:01Z",
      "version": 1,
      "changeset": 125332010,
      "user": "salm321",
      "uid": 16567092,
      "tags": {
        "amenity": "bar"
      }
    },
    {
      "type": "node",
      "id": 9975753419,
      "lat": 15.88936,
      "lon": 45.9771393,
      "timestamp": "2022-08-24T20:24:36Z",
      "version": 1,
      "changeset": 125331923,
      "user": "salm321",
      "uid": 16567092,
      "tags": {
        "amenity": "bar"
      }
    },
    {
      "type": "node",
      "id": 9975753420,
      "lat": 15.8865373,
      "lon": 46.0043953,
      "timestamp": "2022-08-24T20:24:39Z",
      "version": 1,
      "changeset": 125331923,
      "user": "salm321",
      "uid": 16567092,
      "tags": {
        "amenity": "bar"
      }
    },
    {
      "type": "node",
      "id": 9975753519,
      "lat": 15.9573781,
      "lon": 45.4833229,
      "timestamp": "2022-08-24T20:23:07Z",
      "version": 1,
      "changeset": 125331875,
      "user": "salm321",
      "uid": 16567092,
      "tags": {
        "amenity": "bar"
      }
    },
    {
      "type": "node",
      "id": 9975753522,
      "lat": 15.5540214,
      "lon": 45.3388409,
      "timestamp": "2022-08-24T20:29:56Z",
      "version": 1,
      "changeset": 125332127,
      "user": "salm321",
      "uid": 16567092,
      "tags": {
        "amenity": "bar"
      }
    },
    {
      "type": "node",
      "id": 9975754518,
      "lat": 15.8922906,
      "lon": 45.7062379,
      "timestamp": "2022-08-24T20:23:35Z",
      "version": 1,
      "changeset": 125331875,
      "user": "salm321",
      "uid": 16567092,
      "tags": {
        "amenity": "bar"
      }
    },
    {
      "type": "node",
      "id": 9975754519,
      "lat": 15.8782502,
      "lon": 46.0538115,
      "timestamp": "2022-08-24T20:24:54Z",
      "version": 1,
      "changeset": 125331936,
      "user": "salm321",
      "uid": 16567092,
      "tags": {
        "amenity": "bar"
      }
    },
    {
      "type": "node",
      "id": 9975755817,
      "lat": 15.9011173,
      "lon": 45.5716885,
      "timestamp": "2022-08-24T20:23:25Z",
      "version": 1,
      "changeset": 125331875,
      "user": "salm321",
      "uid": 16567092,
      "tags": {
        "amenity": "bar"
      }
    },
    {
      "type": "node",
      "id": 9975756117,
      "lat": 15.8986464,
      "lon": 45.6375599,
      "timestamp": "2022-08-24T20:23:30Z",
      "version": 1,
      "changeset": 125331875,
      "user": "salm321",
      "uid": 16567092,
      "tags": {
        "amenity": "bar"
      }
    },
    {
      "type": "node",
      "id": 9975756118,
      "lat": 15.889652,
      "lon": 45.8092949,
      "timestamp": "2022-08-24T20:24:05Z",
      "version": 1,
      "changeset": 125331909,
      "user": "salm321",
      "uid": 16567092,
      "tags": {
        "amenity": "bar"
      }
    },
    {
      "type": "node",
      "id": 9975756119,
      "lat": 15.6535099,
      "lon": 45.3470674,
      "timestamp": "2022-08-24T20:28:09Z",
      "version": 1,
      "changeset": 125332053,
      "user": "salm321",
      "uid": 16567092,
      "tags": {
        "amenity": "bar"
      }
    },
    {
      "type": "node",
      "id": 9975756120,
      "lat": 15.5682633,
      "lon": 45.3380997,
      "timestamp": "2022-08-24T20:29:44Z",
      "version": 1,
      "changeset": 125332116,
      "user": "salm321",
      "uid": 16567092,
      "tags": {
        "amenity": "bar"
      }
    },
    {
      "type": "node",
      "id": 9975757617,
      "lat": 15.8897682,
      "lon": 45.7891476,
      "timestamp": "2022-08-24T20:24:01Z",
      "version": 1,
      "changeset": 125331909,
      "user": "salm321",
      "uid": 16567092,
      "tags": {
        "amenity": "bar"
      }
    },
    {
      "type": "node",
      "id": 9975757618,
      "lat": 15.890363,
      "lon": 45.9343411,
      "timestamp": "2022-08-24T20:24:30Z",
      "version": 1,
      "changeset": 125331923,
      "user": "salm321",
      "uid": 16567092,
      "tags": {
        "amenity": "bar"
      }
    },
    {
      "type": "node",
      "id": 9975764517,
      "lat": 15.6720358,
      "lon": 45.3538064,
      "timestamp": "2022-08-24T20:27:53Z",
      "version": 1,
      "changeset": 125332043,
      "user": "salm321",
      "uid": 16567092,
      "tags": {
        "amenity": "bar"
      }
    },
    {
      "type": "node",
      "id": 9975766917,
      "lat": 15.6373317,
      "lon": 45.3404078,
      "timestamp": "2022-08-24T20:28:37Z",
      "version": 1,
      "changeset": 125332066,
      "user": "salm321",
      "uid": 16567092,
      "tags": {
        "amenity": "bar"
      }
    },
    {
      "type": "node",
      "id": 9975767017,
      "lat": 15.6213679,
      "lon": 45.3355937,
      "timestamp": "2022-08-24T20:28:49Z",
      "version": 1,
      "changeset": 125332073,
      "user": "salm321",
      "uid": 16567092,
      "tags": {
        "amenity": "bar"
      }
    },
    {
      "type": "node",
      "id": 9975767018,
      "lat": 15.5116803,
      "lon": 45.3469067,
      "timestamp": "2022-08-24T20:31:34Z",
      "version": 1,
      "changeset": 125332180,
      "user": "salm321",
      "uid": 16567092,
      "tags": {
        "amenity": "bar"
      }
    },
    {
      "type": "node",
      "id": 9975767517,
      "lat": 15.5991126,
      "lon": 45.33689,
      "timestamp": "2022-08-24T20:29:18Z",
      "version": 1,
      "changeset": 125332094,
      "user": "salm321",
      "uid": 16567092,
      "tags": {
        "amenity": "bar"
      }
    },
    {
      "type": "node",
      "id": 10103984517,
      "lat": 15.8571415,
      "lon": 46.1693883,
      "timestamp": "2022-10-15T20:41:18Z",
      "version": 1,
      "changeset": 127588079,
      "user": "مكتبالمتميزلخدماتالنقلوتوزيعالبضائع",
      "uid": 17418829,
      "tags": {
        "amenity": "pub",
        "name": "تاا"
      }
    },
    {
      "type": "node",
      "id": 10103984518,
      "lat": 15.8570644,
      "lon": 46.1697192,
      "timestamp": "2022-10-15T20:41:21Z",
      "version": 1,
      "changeset": 127588079,
      "user": "مكتبالمتميزلخدماتالنقلوتوزيعالبضائع",
      "uid": 17418829,
      "tags": {
        "amenity": "pub"
      }
    },
    {
      "type": "node",
      "id": 10301357709,
      "lat": 15.4365615,
      "lon": 43.1199346,
      "timestamp": "2023-01-02T21:58:07Z",
      "version": 1,
      "changeset": 130804852,
      "user": "Raedalabsi",
      "uid": 18158253,
      "tags": {
        "amenity": "bar"
      }
    },
    {
      "type": "node",
      "id": 11081934907,
      "lat": 13.8232449,
      "lon": 44.7030983,
      "timestamp": "2023-08-01T21:18:25Z",
      "version": 1,
      "changeset": 139319176,
      "user": "alhdyfy",
      "uid": 19943724,
      "tags": {
        "amenity": "pub",
        "internet_access": "wlan",
        "opening_hours": "24/7"
      }
    },
    {
      "type": "node",
      "id": 11517714269,
      "lat": 12.8665062,
      "lon": 45.0201556,
      "timestamp": "2024-01-14T22:41:16Z",
      "version": 1,
      "changeset": 146261884,
      "user": "Jamilaboalaamathny",
      "uid": 20882412,
      "tags": {
        "amenity": "bar",
        "name": "مقوات الهناجر عدن"
      }
    },
    {
      "type": "node",
      "id": 11794041370,
      "lat": 15.8074568,
      "lon": 46.9192885,
      "timestamp": "2024-04-05T20:14:42Z",
      "version": 1,
      "changeset": 149631462,
      "user": "Diab811",
      "uid": 20527270,
      "tags": {
        "amenity": "pub",
        "name": "نوب بن عبد الاه الحواء"
      }
    },
    {
      "type": "node",
      "id": 11794041469,
      "lat": 15.8009653,
      "lon": 46.9447313,
      "timestamp": "2024-04-05T20:14:45Z",
      "version": 1,
      "changeset": 149631462,
      "user": "Diab811",
      "uid": 20527270,
      "tags": {
        "amenity": "pub",
        "name": "نوب ذياب"
      }
    },
    {
      "type": "node",
      "id": 11888689570,
      "lat": 15.8806658,
      "lon": 47.1033066,
      "timestamp": "2024-05-08T10:27:01Z",
      "version": 1,
      "changeset": 151047976,
      "user": "Diab811",
      "uid": 20527270,
      "tags": {
        "amenity": "pub",
        "name": "بار البحسنية"
      }
    },
    {
      "type": "node",
      "id": 11897293069,
      "lat": 15.8706762,
      "lon": 47.6150717,
      "timestamp": "2024-05-11T18:29:39Z",
      "version": 1,
      "changeset": 151198315,
      "user": "Diab811",
      "uid": 20527270,
      "tags": {
        "amenity": "pub",
        "name": "بار"
      }
    },
    {
      "type": "node",
      "id": 11901113669,
      "lat": 15.8462405,
      "lon": 47.6670135,
      "timestamp": "2024-05-13T13:01:04Z",
      "version": 1,
      "changeset": 151266079,
      "user": "Diab811",
      "uid": 20527270,
      "tags": {
        "amenity": "pub",
        "name": "بئر خشم العين"
      }
    },
    {
      "type": "node",
      "id": 13115583901,
      "lat": 15.3831215,
      "lon": 44.198808,
      "timestamp": "2025-09-03T01:35:41Z",
      "version": 1,
      "changeset": 171385345,
      "user": "NArgs9639",
      "uid": 13257947,
      "tags": {
        "amenity": "bar",
        "name": "العودي"
      }
    },
    {
      "type": "way",
      "id": 781734409,
      "timestamp": "2020-03-16T08:43:34Z",
      "version": 1,
      "changeset": 82247257,
      "user": "relet",
      "uid": 1556391,
      "center": {
        "lat": 14.5476463,
        "lon": 44.4027696
      },
      "nodes": [
        7298626464,
        7298626465,
        7298626466,
        7298626467,
        7298626464
      ],
      "tags": {
        "amenity": "bar",
        "building": "yes"
      }
    },
    {
      "type": "way",
      "id": 841606025,
      "timestamp": "2020-08-28T06:38:29Z",
      "version": 1,
      "changeset": 90061589,
      "user": "Hollyaok",
      "uid": 10835390,
      "center": {
        "lat": 15.0033515,
        "lon": 45.4991173
      },
      "nodes": [
        7852207369,
        7852207370,
        7852207371,
        7852207372,
        7852207369
      ],
      "tags": {
        "amenity": "bar",
        "building": "yes"
      }
    },
    {
      "type": "way",
      "id": 1263659541,
      "timestamp": "2024-03-18T08:00:14Z",
      "version": 1,
      "changeset": 148802876,
      "user": "cactolith",
      "uid": 4050400,
      "center": {
        "lat": 11.6196844,
        "lon": 43.1458413
      },
      "nodes": [
        11740539430,
        11740539429,
        11740539431,
        11740539428,
        11740539430
      ],
      "tags": {
        "amenity": "bar",
        "building": "yes",
        "name": "Lac Abbé"
      }
    }
  ]
}