{
  "version": 0.6,
  "generator": "Overpass API 0.7.62.8 e802775f",
  "osm3s": {
    "timestamp_osm_base": "2025-10-23T19:59:30Z",
    "copyright": "The data included in this document is from www.openstreetmap.org. The data is made available under ODbL."
  },
  "elements": [
    {
      "type": "node",
      "id": 301318914,
      "lat": 12.9374757,
      "lon": 100.8838118,
      "timestamp": "2023-12-04T07:25:24Z",
      "version": 7,
      "changeset": 144743007,
      "user": "OSM-Bastler",
      "uid": 670134,
      "tags": {
        "amenity": "bar",
        "name": "Sukanya Bar Beer"
      }
    },
    {
      "type": "node",
      "id": 301567636,
      "lat": 12.9420933,
      "lon": 100.8869386,
      "timestamp": "2023-10-30T12:42:59Z",
      "version": 12,
      "changeset": 143363888,
      "user": "b-jazz-bot",
      "uid": 9451067,
      "tags": {
        "amenity": "pub",
        "name": "Queen Victoria Inn",
        "phone": "+66 38 425418",
        "website": "https://www.queenvictoria-inn.com/"
      }
    },
    {
      "type": "node",
      "id": 304470253,
      "lat": 12.9447294,
      "lon": 100.8915549,
      "timestamp": "2019-09-18T17:25:01Z",
      "version": 3,
      "changeset": 74638701,
      "user": "nutchayahongvilai",
      "uid": 10028134,
      "tags": {
        "amenity": "pub",
        "name": "Easy Corner",
        "website": "http://www.easycornerpub.com"
      }
    },
    {
      "type": "node",
      "id": 311073584,
      "lat": 13.7274447,
      "lon": 100.5334988,
      "timestamp": "2017-05-03T09:34:47Z",
      "version": 3,
      "changeset": 48360032,
      "user": "Julian Chua",
      "uid": 4212449,
      "tags": {
        "amenity": "bar",
        "name": "Molly Malone's",
        "name:en": "Molly Malones"
      }
    },
    {
      "type": "node",
      "id": 415592085,
      "lat": 12.9389748,
      "lon": 100.8905018,
      "timestamp": "2012-01-02T16:37:43Z",
      "version": 2,
      "changeset": 10272449,
      "user": "RocketMan",
      "uid": 381887,
      "tags": {
        "amenity": "bar",
        "name": "-5° Supperclub"
      }
    },
    {
      "type": "node",
      "id": 442892542,
      "lat": 11.5690244,
      "lon": 104.9302392,
      "timestamp": "2024-08-30T08:27:02Z",
      "version": 10,
      "changeset": 155961596,
      "user": "andi9876",
      "uid": 1256497,
      "tags": {
        "amenity": "bar",
        "name": "Le Moon"
      }
    },
    {
      "type": "node",
      "id": 445264553,
      "lat": 11.5697377,
      "lon": 104.9300277,
      "timestamp": "2011-06-03T16:23:42Z",
      "version": 3,
      "changeset": 8330994,
      "user": "Rhoel",
      "uid": 5678,
      "tags": {
        "amenity": "bar",
        "name": "Riverside Bistro"
      }
    },
    {
      "type": "node",
      "id": 445341003,
      "lat": 11.5713558,
      "lon": 104.9294811,
      "timestamp": "2017-11-05T03:25:15Z",
      "version": 6,
      "changeset": 53517918,
      "user": "andi9876",
      "uid": 1256497,
      "tags": {
        "amenity": "bar",
        "name": "Garden Bar"
      }
    },
    {
      "type": "node",
      "id": 478536604,
      "lat": 13.720795,
      "lon": 100.5280414,
      "timestamp": "2009-08-31T08:15:10Z",
      "version": 1,
      "changeset": 2322961,
      "user": "billce",
      "uid": 163447,
      "tags": {
        "amenity": "bar",
        "name": "Hu'u Bar"
      }
    },
    {
      "type": "node",
      "id": 485616898,
      "lat": 14.995919,
      "lon": 102.0997601,
      "timestamp": "2009-12-22T13:51:18Z",
      "version": 3,
      "changeset": 3427315,
      "user": "Marcussacapuces91",
      "uid": 37548,
      "tags": {
        "amenity": "pub",
        "cuisine": "british;thai",
        "name": "The Ram"
      }
    },
    {
      "type": "node",
      "id": 486300912,
      "lat": 17.964243,
      "lon": 102.6083197,
      "timestamp": "2009-10-21T16:52:28Z",
      "version": 2,
      "changeset": 2913717,
      "user": "Jokke",
      "uid": 113639,
      "tags": {
        "amenity": "pub",
        "name": "Deja vu"
      }
    },
    {
      "type": "node",
      "id": 486300979,
      "lat": 17.9670277,
      "lon": 102.5898412,
      "timestamp": "2016-01-06T16:08:40Z",
      "version": 3,
      "changeset": 36405881,
      "user": "Russ McD",
      "uid": 346601,
      "tags": {
        "amenity": "pub",
        "name": "Mai Phai"
      }
    },
    {
      "type": "node",
      "id": 486300981,
      "lat": 17.9670733,
      "lon": 102.5895362,
      "timestamp": "2016-01-06T16:08:40Z",
      "version": 2,
      "changeset": 36405881,
      "user": "Russ McD",
      "uid": 346601,
      "tags": {
        "amenity": "biergarten",
        "name": "Say Nam Laos"
      }
    },
    {
      "type": "node",
      "id": 486301010,
      "lat": 17.9690719,
      "lon": 102.5895103,
      "timestamp": "2011-02-21T02:51:48Z",
      "version": 2,
      "changeset": 7349952,
      "user": "Beddhist",
      "uid": 140550,
      "tags": {
        "amenity": "pub",
        "name": "On the Rock"
      }
    },
    {
      "type": "node",
      "id": 491586873,
      "lat": 10.9370109,
      "lon": 108.1888049,
      "timestamp": "2022-05-28T23:37:39Z",
      "version": 5,
      "changeset": 121635703,
      "user": "b-jazz-bot",
      "uid": 9451067,
      "tags": {
        "addr:housenumber": "2a",
        "addr:street": "Nguyễn Đình Chiểu",
        "amenity": "pub",
        "cuisine": "seafood",
        "email": "hoavienbia@vnn.vn",
        "internet_access": "wlan",
        "name": "Hoa Vien Brauhaus",
        "name:en": "Hoa Vien Brauhuas",
        "name:vi": "Hoa Vien Brauhuas",
        "opening_hours": "Mo-Su 10:00-22:00",
        "phone": "+84623741383",
        "website": "https://hoavien.vn/"
      }
    },
    {
      "type": "node",
      "id": 497428800,
      "lat": 14.979978,
      "lon": 102.0513894,
      "timestamp": "2010-07-04T18:25:53Z",
      "version": 2,
      "changeset": 5135756,
      "user": "t-i",
      "uid": 52921,
      "tags": {
        "amenity": "pub",
        "cuisine": "thai",
        "name": "Kam Hom"
      }
    },
    {
      "type": "node",
      "id": 513415955,
      "lat": 14.6294948,
      "lon": 103.4082219,
      "timestamp": "2009-09-29T13:36:16Z",
      "version": 1,
      "changeset": 2676645,
      "user": "DuiNui",
      "uid": 144709,
      "tags": {
        "amenity": "bar",
        "name": "Harleys"
      }
    },
    {
      "type": "node",
      "id": 525511738,
      "lat": 17.9675946,
      "lon": 102.603546,
      "timestamp": "2015-10-09T14:05:20Z",
      "version": 2,
      "changeset": 34530527,
      "user": "Emcoe",
      "uid": 2175648,
      "tags": {
        "amenity": "pub",
        "name": "Liquid Bar",
        "name:en": "Liquid Bar"
      }
    },
    {
      "type": "node",
      "id": 537919784,
      "lat": 17.9763138,
      "lon": 102.6187035,
      "timestamp": "2017-02-17T13:50:55Z",
      "version": 7,
      "changeset": 46165292,
      "user": "mbethke",
      "uid": 248338,
      "tags": {
        "amenity": "bar",
        "cuisine": "lao",
        "name": "Relax",
        "name:en": "Relax",
        "restaurant": "yes"
      }
    },
    {
      "type": "node",
      "id": 541304939,
      "lat": 17.9544164,
      "lon": 102.6251254,
      "timestamp": "2013-01-07T20:26:49Z",
      "version": 5,
      "changeset": 14567315,
      "user": "webrian",
      "uid": 33155,
      "tags": {
        "amenity": "bar",
        "name": "Juke Box"
      }
    },
    {
      "type": "node",
      "id": 559927726,
      "lat": 12.9298902,
      "lon": 100.8835088,
      "timestamp": "2023-09-01T18:04:51Z",
      "version": 6,
      "changeset": 140691087,
      "user": "OSM-Bastler",
      "uid": 670134,
      "tags": {
        "amenity": "bar",
        "name": "Luck Bar 1"
      }
    },
    {
      "type": "node",
      "id": 559927843,
      "lat": 12.9273405,
      "lon": 100.8870286,
      "timestamp": "2023-08-21T17:42:40Z",
      "version": 3,
      "changeset": 140193961,
      "user": "OSM-Bastler",
      "uid": 670134,
      "tags": {
        "amenity": "bar",
        "name": "Boxing Roo"
      }
    },
    {
      "type": "node",
      "id": 580341210,
      "lat": 13.3550228,
      "lon": 103.8549688,
      "timestamp": "2022-08-27T10:25:02Z",
      "version": 9,
      "changeset": 125437153,
      "user": "Nith Nith",
      "uid": 16551121,
      "tags": {
        "addr:city": "Siem Reap",
        "addr:country": "KH",
        "addr:postcode": "17259",
        "addr:street": "Street 8 - Pub Street",
        "amenity": "bar",
        "name": "Banana Leaf",
        "name:en": "Banana Leaf",
        "name:km": "បាណាណាបារ",
        "note": "(October-November 2014: Undergoing renovations)",
        "opening_hours": "09:00+",
        "phone": "+855 63964813",
        "smoking": "yes",
        "source": "Employee",
        "website": "https://restaurant-siemreap.com/html/bananaleaf.php",
        "wheelchair": "yes"
      }
    },
    {
      "type": "node",
      "id": 580341211,
      "lat": 13.3544241,
      "lon": 103.8544849,
      "timestamp": "2023-10-14T03:36:05Z",
      "version": 7,
      "changeset": 142560619,
      "user": "b-jazz-bot",
      "uid": 9451067,
      "tags": {
        "addr:city": "Siem Reap",
        "addr:country": "KH",
        "addr:street": "The Passage",
        "amenity": "bar",
        "name": "Linga Bar",
        "name:km": "លីនហ្គាបារ",
        "opening_hours": "Mo-Su 15:00-01:00",
        "phone": "+855 12 246 912",
        "website": "https://lingabar.com/"
      }
    },
    {
      "type": "node",
      "id": 580341214,
      "lat": 13.3542513,
      "lon": 103.8583831,
      "timestamp": "2024-02-26T12:34:17Z",
      "version": 7,
      "changeset": 147930083,
      "user": "andi9876",
      "uid": 1256497,
      "tags": {
        "addr:city": "Siem Reap",
        "addr:country": "KH",
        "amenity": "bar",
        "contact:phone": "+855 92 428 332",
        "contact:website": "http://www.misswong.net/",
        "name": "Miss Wong",
        "name:km": "មីស វង",
        "opening_hours": "Mo-Su 18:00-01:00",
        "source": "local knowledge"
      }
    },
    {
      "type": "node",
      "id": 580341218,
      "lat": 13.3552905,
      "lon": 103.854399,
      "timestamp": "2022-10-29T07:40:47Z",
      "version": 4,
      "changeset": 128200180,
      "user": "Vathana11",
      "uid": 16594682,
      "tags": {
        "addr:city": "Siem Reap",
        "addr:country": "KH",
        "amenity": "pub",
        "name": "Silk Garden",
        "name:km": "សិលហ្គាឌិន"
      }
    },
    {
      "type": "node",
      "id": 580341235,
      "lat": 13.3547824,
      "lon": 103.8548319,
      "timestamp": "2022-08-20T07:04:52Z",
      "version": 11,
      "changeset": 125135461,
      "user": "Nith Nith",
      "uid": 16551121,
      "tags": {
        "addr:city": "Siem Reap",
        "addr:country": "KH",
        "addr:street": "Street 8 - Pub Street",
        "amenity": "pub",
        "internet_access": "wlan",
        "name": "Angkor What",
        "name:en": "Angkor What",
        "name:km": "អង្គរវត្ត"
      }
    },
    {
      "type": "node",
      "id": 664387935,
      "lat": 17.760335,
      "lon": 104.2909014,
      "timestamp": "2010-03-12T07:00:37Z",
      "version": 1,
      "changeset": 4103808,
      "user": "Johnny Carlsen",
      "uid": 38985,
      "tags": {
        "amenity": "bar"
      }
    },
    {
      "type": "node",
      "id": 668697223,
      "lat": 17.9856054,
      "lon": 104.0252882,
      "timestamp": "2024-11-03T11:53:51Z",
      "version": 3,
      "changeset": 158695512,
      "user": "Claudius Henrichs",
      "uid": 18069,
      "tags": {
        "amenity": "bar",
        "cuisine": "thai;western",
        "email": "mercernongkhai@yahoo.com",
        "name": "Rung Phet Garden",
        "note": "international bar",
        "phone": "+66 8 5761 0912"
      }
    },
    {
      "type": "node",
      "id": 670274486,
      "lat": 13.7392395,
      "lon": 100.5556686,
      "timestamp": "2013-07-31T17:17:48Z",
      "version": 5,
      "changeset": 17168958,
      "user": "ggcross",
      "uid": 1698632,
      "tags": {
        "amenity": "bar",
        "designation": "BJ Bar",
        "name": "Lolita's",
        "website": "http://www.lolitasbangkok.com/"
      }
    },
    {
      "type": "node",
      "id": 685073456,
      "lat": 16.4201522,
      "lon": 102.837811,
      "timestamp": "2010-06-02T09:52:49Z",
      "version": 2,
      "changeset": 4881585,
      "user": "Willi2006",
      "uid": 104414,
      "tags": {
        "amenity": "pub",
        "name": "ติ๊ก แจ่วฮ้อน",
        "name:en": "Tik Chaeo Hon",
        "name:th": "ติ๊ก แจ่วฮ้อน",
        "source": "GPS; sign"
      }
    },
    {
      "type": "node",
      "id": 688277837,
      "lat": 16.4195916,
      "lon": 102.837375,
      "timestamp": "2010-06-02T09:53:24Z",
      "version": 2,
      "changeset": 4881585,
      "user": "Willi2006",
      "uid": 104414,
      "tags": {
        "amenity": "pub",
        "name": "เบียร์การ์เด้น หม้อดิน",
        "name:en": "Beer Garden Mordin",
        "name:th": "เบียร์การ์เด้น หม้อดิน",
        "source": "GPS; sign"
      }
    },
    {
      "type": "node",
      "id": 689779355,
      "lat": 19.8881791,
      "lon": 102.1386934,
      "timestamp": "2017-02-28T04:10:39Z",
      "version": 3,
      "changeset": 46455326,
      "user": "Russ McD",
      "uid": 346601,
      "tags": {
        "amenity": "pub",
        "disused": "yes",
        "name": "Martin's Pub"
      }
    },
    {
      "type": "node",
      "id": 689779358,
      "lat": 19.8793097,
      "lon": 102.1409516,
      "timestamp": "2010-04-09T04:45:09Z",
      "version": 1,
      "changeset": 4369599,
      "user": "Travelfish",
      "uid": 200637,
      "tags": {
        "amenity": "pub",
        "name": "Bowling Alley"
      }
    },
    {
      "type": "node",
      "id": 689779366,
      "lat": 19.8894172,
      "lon": 102.1380387,
      "timestamp": "2016-05-16T09:03:18Z",
      "version": 3,
      "changeset": 39346997,
      "user": "Albee",
      "uid": 3967327,
      "tags": {
        "amenity": "pub",
        "internet_access": "wlan",
        "name": "New Delilahs "
      }
    },
    {
      "type": "node",
      "id": 705719726,
      "lat": 16.393141,
      "lon": 102.8283165,
      "timestamp": "2010-06-05T04:53:39Z",
      "version": 2,
      "changeset": 4905958,
      "user": "Willi2006",
      "uid": 104414,
      "tags": {
        "amenity": "pub",
        "name": "โรงเบียร์ขอนแก่น",
        "name:en": "Rong Bia Khong Kaen",
        "name:th": "โรงเบียร์ขอนแก่น",
        "source": "GPS; sign"
      }
    },
    {
      "type": "node",
      "id": 705800115,
      "lat": 16.42476,
      "lon": 102.822325,
      "timestamp": "2010-06-02T09:54:52Z",
      "version": 5,
      "changeset": 4881585,
      "user": "Willi2006",
      "uid": 104414,
      "tags": {
        "amenity": "bar",
        "name": "บ้านตะวันแดง",
        "name:en": "Ban Tawan Daeng",
        "name:th": "บ้านตะวันแดง",
        "source": "GPS; sign"
      }
    },
    {
      "type": "node",
      "id": 711681820,
      "lat": 16.4316687,
      "lon": 102.827369,
      "timestamp": "2014-06-14T08:13:00Z",
      "version": 3,
      "changeset": 22921745,
      "user": "takjung69",
      "uid": 2123528,
      "tags": {
        "amenity": "pub",
        "name": "On the rock",
        "name:en": "On the rock",
        "name:th": "ออนเดอะร็อค",
        "source": "GPS;sign"
      }
    },
    {
      "type": "node",
      "id": 711681866,
      "lat": 16.4298241,
      "lon": 102.8308218,
      "timestamp": "2018-04-08T10:32:52Z",
      "version": 4,
      "changeset": 57909709,
      "user": "Russ McD",
      "uid": 346601,
      "tags": {
        "amenity": "pub",
        "name": "Beauty Salon",
        "source": "GPS; sign"
      }
    },
    {
      "type": "node",
      "id": 711681892,
      "lat": 16.429212,
      "lon": 102.8290394,
      "timestamp": "2019-01-25T00:59:38Z",
      "version": 5,
      "changeset": 66617231,
      "user": "Johnny Carlsen",
      "uid": 38985,
      "tags": {
        "addr:district": "Mueang Khon Kaen",
        "addr:housenumber": "7/5",
        "addr:postcode": "40000",
        "addr:province": "Khon Kaen",
        "addr:subdistrict": "Nai Mueang",
        "alt_name": "Blues Bar & Grill",
        "amenity": "bar",
        "building:levels": "1",
        "building:units": "1",
        "name": "Blue's Bar",
        "source": "GPS; sign"
      }
    },
    {
      "type": "node",
      "id": 711681991,
      "lat": 16.4298809,
      "lon": 102.8310758,
      "timestamp": "2011-05-24T10:53:18Z",
      "version": 2,
      "changeset": 8234248,
      "user": "thep",
      "uid": 287183,
      "tags": {
        "amenity": "pub",
        "name": "Eric's Bar",
        "source": "GPS; sign"
      }
    },
    {
      "type": "node",
      "id": 711682014,
      "lat": 16.4299729,
      "lon": 102.8380612,
      "timestamp": "2010-11-04T13:02:00Z",
      "version": 3,
      "changeset": 6288342,
      "user": "Willi2006",
      "uid": 104414,
      "tags": {
        "amenity": "pub",
        "name": "แยงซีเกียง",
        "name:en": "Yaeng Si Kiang",
        "name:th": "แยงซีเกียง",
        "source": "GPS; sign"
      }
    },
    {
      "type": "node",
      "id": 711682057,
      "lat": 16.4297168,
      "lon": 102.831622,
      "timestamp": "2010-05-01T09:22:44Z",
      "version": 3,
      "changeset": 4572919,
      "user": "Willi2006",
      "uid": 104414,
      "tags": {
        "amenity": "biergarten",
        "name": "โฆษะ เบียร์ การ์เด้น",
        "name:en": "Kosa Beer Garden",
        "name:th": "โฆษะ เบียร์ การ์เด้น",
        "source": "GPS; sign"
      }
    },
    {
      "type": "node",
      "id": 711682083,
      "lat": 16.4298929,
      "lon": 102.8311359,
      "timestamp": "2024-01-22T11:10:41Z",
      "version": 6,
      "changeset": 146548411,
      "user": "Russ McD",
      "uid": 346601,
      "tags": {
        "amenity": "pub",
        "name": "Lucky Bar",
        "name:en": "Lucky Bar",
        "source": "GPS; sign"
      }
    },
    {
      "type": "node",
      "id": 729408101,
      "lat": 16.0543919,
      "lon": 108.2390964,
      "timestamp": "2010-05-11T22:09:10Z",
      "version": 2,
      "changeset": 4672838,
      "user": "xybot",
      "uid": 70696,
      "tags": {
        "amenity": "pub",
        "name": "Bia Tuoi Be Tien"
      }
    },
    {
      "type": "node",
      "id": 729408102,
      "lat": 16.0747436,
      "lon": 108.214522,
      "timestamp": "2010-05-11T22:09:11Z",
      "version": 2,
      "changeset": 4672838,
      "user": "xybot",
      "uid": 70696,
      "tags": {
        "amenity": "pub",
        "name": "Bia 265"
      }
    },
    {
      "type": "node",
      "id": 729408104,
      "lat": 16.079259,
      "lon": 108.2237327,
      "timestamp": "2010-05-11T22:09:11Z",
      "version": 2,
      "changeset": 4672838,
      "user": "xybot",
      "uid": 70696,
      "tags": {
        "amenity": "pub",
        "name": "Bia Viet Ha"
      }
    },
    {
      "type": "node",
      "id": 729408105,
      "lat": 16.0561034,
      "lon": 108.2092649,
      "timestamp": "2010-05-11T22:09:12Z",
      "version": 2,
      "changeset": 4672838,
      "user": "xybot",
      "uid": 70696,
      "tags": {
        "amenity": "pub",
        "name": "Huy Hoang"
      }
    },
    {
      "type": "node",
      "id": 729408106,
      "lat": 16.066833,
      "lon": 108.192114,
      "timestamp": "2015-09-25T15:35:01Z",
      "version": 3,
      "changeset": 34246889,
      "user": "totim",
      "uid": 562188,
      "tags": {
        "amenity": "pub",
        "name": "Bia Tuoi Ba Gai"
      }
    },
    {
      "type": "node",
      "id": 729408107,
      "lat": 16.0492366,
      "lon": 108.2250631,
      "timestamp": "2017-02-06T14:56:17Z",
      "version": 2,
      "changeset": 45858048,
      "user": "Oreg",
      "uid": 1926670,
      "tags": {
        "amenity": "pub",
        "name": "Nha Hang Vuon Bia Ha Plus",
        "name:de": "Nha Hang Vuon Bia Ha Plus"
      }
    },
    {
      "type": "node",
      "id": 729408108,
      "lat": 16.0489671,
      "lon": 108.2221232,
      "timestamp": "2017-05-05T09:57:43Z",
      "version": 4,
      "changeset": 48421353,
      "user": "Nguyễn Anh Tuân",
      "uid": 4681861,
      "tags": {
        "amenity": "pub",
        "name": "Nhà hàng Bia Tiệp Tulip",
        "name:de": "Nha Hang Bia Tiep Tulip"
      }
    },
    {
      "type": "node",
      "id": 729408109,
      "lat": 16.0534588,
      "lon": 108.2098657,
      "timestamp": "2010-05-11T22:09:12Z",
      "version": 2,
      "changeset": 4672838,
      "user": "xybot",
      "uid": 70696,
      "tags": {
        "amenity": "pub",
        "name": "Bia Tuoi 243"
      }
    },
    {
      "type": "node",
      "id": 767880873,
      "lat": 16.4343234,
      "lon": 102.8293935,
      "timestamp": "2010-06-09T12:15:40Z",
      "version": 1,
      "changeset": 4944733,
      "user": "thep",
      "uid": 287183,
      "tags": {
        "amenity": "biergarten",
        "name": "Be First",
        "name:en": "Be First",
        "name:th": "บีเฟิร์สต์",
        "source": "GPS; sign"
      }
    },
    {
      "type": "node",
      "id": 776037982,
      "lat": 13.7421037,
      "lon": 100.5524785,
      "timestamp": "2024-06-14T17:27:31Z",
      "version": 7,
      "changeset": 152690868,
      "user": "Kri_ttt",
      "uid": 13669494,
      "tags": {
        "amenity": "pub",
        "name": "Bully's Bankok",
        "website": "https://www.facebook.com/BullysBKK"
      }
    },
    {
      "type": "node",
      "id": 776217192,
      "lat": 11.5668968,
      "lon": 104.9314893,
      "timestamp": "2020-05-21T18:50:01Z",
      "version": 9,
      "changeset": 85569477,
      "user": "andi9876",
      "uid": 1256497,
      "tags": {
        "amenity": "pub",
        "description": "Foreign Correspondents Club",
        "name:en": "FCC (closed)"
      }
    },
    {
      "type": "node",
      "id": 776217198,
      "lat": 11.5555521,
      "lon": 104.9254922,
      "timestamp": "2019-03-05T10:12:00Z",
      "version": 5,
      "changeset": 67798025,
      "user": "andi9876",
      "uid": 1256497,
      "tags": {
        "amenity": "bar",
        "name": "Liquid"
      }
    },
    {
      "type": "node",
      "id": 776746053,
      "lat": 13.7415321,
      "lon": 100.5530394,
      "timestamp": "2017-01-29T07:37:07Z",
      "version": 3,
      "changeset": 45613032,
      "user": "Humus015",
      "uid": 3252237,
      "tags": {
        "amenity": "bar",
        "name": "Big Dog's"
      }
    },
    {
      "type": "node",
      "id": 776746156,
      "lat": 13.7408121,
      "lon": 100.5530437,
      "timestamp": "2019-12-13T10:33:48Z",
      "version": 4,
      "changeset": 78366863,
      "user": "andi9876",
      "uid": 1256497,
      "tags": {
        "amenity": "pub",
        "name": "Chequers"
      }
    },
    {
      "type": "node",
      "id": 783660969,
      "lat": 18.1109478,
      "lon": 102.6600409,
      "timestamp": "2011-03-30T15:52:05Z",
      "version": 4,
      "changeset": 7717452,
      "user": "webrian",
      "uid": 33155,
      "tags": {
        "amenity": "pub",
        "name": "ດາລາວອນ"
      }
    },
    {
      "type": "node",
      "id": 790702877,
      "lat": 13.3544708,
      "lon": 103.8557501,
      "timestamp": "2022-08-27T09:36:16Z",
      "version": 4,
      "changeset": 125435552,
      "user": "Nith Nith",
      "uid": 16551121,
      "tags": {
        "addr:city": "Siem Reap",
        "addr:country": "KH",
        "amenity": "bar",
        "name": "Laundry",
        "name:en": "Laundry",
        "name:km": "បោកអ៊ុត"
      }
    },
    {
      "type": "node",
      "id": 790702880,
      "lat": 13.3553893,
      "lon": 103.8546095,
      "timestamp": "2022-10-29T07:28:47Z",
      "version": 3,
      "changeset": 128199901,
      "user": "Vathana11",
      "uid": 16594682,
      "tags": {
        "addr:city": "Siem Reap",
        "addr:country": "KH",
        "amenity": "pub",
        "name": "MIA Bar",
        "name:km": "អេមអាយអេបារ"
      }
    },
    {
      "type": "node",
      "id": 790702881,
      "lat": 13.3549519,
      "lon": 103.8548124,
      "timestamp": "2025-03-24T09:33:36Z",
      "version": 9,
      "changeset": 164021893,
      "user": "_varman_",
      "uid": 3049756,
      "tags": {
        "addr:city": "Siem Reap",
        "addr:country": "KH",
        "amenity": "pub",
        "name": "The Temple Club",
        "name:en": "The Temple Club",
        "name:km": "ឌឹថេមផលក្លឹប",
        "name:zh": "寺庙俱乐部"
      }
    },
    {
      "type": "node",
      "id": 792506882,
      "lat": 13.3542102,
      "lon": 103.8534514,
      "timestamp": "2024-02-21T19:14:24Z",
      "version": 8,
      "changeset": 147745178,
      "user": "andi9876",
      "uid": 1256497,
      "tags": {
        "addr:city": "Siem Reap",
        "addr:country": "KH",
        "addr:street": "Sok San Street",
        "amenity": "bar",
        "internet_access": "yes",
        "name": "X-Bar",
        "name:en": "X-Bar",
        "name:km": "អិច បារ",
        "opening_hours": "Mo-Su 15:00-05:00",
        "phone": "+855 12 263 271",
        "website": "xbar.asia"
      }
    },
    {
      "type": "node",
      "id": 883919300,
      "lat": 10.7686257,
      "lon": 106.6933883,
      "timestamp": "2024-04-15T09:21:47Z",
      "version": 4,
      "changeset": 150026778,
      "user": "phoenixsaigon1698",
      "uid": 3323343,
      "tags": {
        "amenity": "pub",
        "name": "Quán Bar Allez Boo"
      }
    },
    {
      "type": "node",
      "id": 886005615,
      "lat": 10.9516276,
      "lon": 108.2109742,
      "timestamp": "2010-08-29T11:24:41Z",
      "version": 1,
      "changeset": 5624557,
      "user": "Plutocrat",
      "uid": 22031,
      "tags": {
        "amenity": "bar",
        "name": "Mellow Bar"
      }
    },
    {
      "type": "node",
      "id": 886005747,
      "lat": 10.9475084,
      "lon": 108.201579,
      "timestamp": "2010-08-29T11:24:48Z",
      "version": 1,
      "changeset": 5624557,
      "user": "Plutocrat",
      "uid": 22031,
      "tags": {
        "amenity": "bar",
        "name": "Your Bar (b)"
      }
    },
    {
      "type": "node",
      "id": 893940216,
      "lat": 13.844961,
      "lon": 100.5616315,
      "timestamp": "2010-09-03T08:14:45Z",
      "version": 1,
      "changeset": 5668539,
      "user": "Phumai Chaikeaw",
      "uid": 341981,
      "tags": {
        "amenity": "pub",
        "name": "เกษตรสโม"
      }
    },
    {
      "type": "node",
      "id": 897193058,
      "lat": 13.8395004,
      "lon": 100.5742195,
      "timestamp": "2010-09-05T11:56:09Z",
      "version": 1,
      "changeset": 5686773,
      "user": "PingPanzTer",
      "uid": 341105,
      "tags": {
        "amenity": "bar",
        "name": "The Play"
      }
    },
    {
      "type": "node",
      "id": 942311647,
      "lat": 13.8922149,
      "lon": 100.5605209,
      "timestamp": "2024-09-07T10:07:03Z",
      "version": 5,
      "changeset": 156306430,
      "user": "Kri_ttt",
      "uid": 13669494,
      "tags": {
        "addr:district": "หลักสี่",
        "addr:housenumber": "307",
        "addr:province": "กรุงเทพมหานคร",
        "addr:street": "ซอยคุณวิเวียน",
        "addr:subdistrict": "ทุ่งสองห้อง",
        "amenity": "bar",
        "name": "เอเบียร์โฮมบาร์แอนด์แกลเลอรี่",
        "name:en": "aBeer Home Bar & Gallery",
        "opening_hours": "Mo-Su 17:00-00:00",
        "phone": "0830380634"
      }
    },
    {
      "type": "node",
      "id": 980137399,
      "lat": 10.5405201,
      "lon": 106.4079012,
      "timestamp": "2017-05-15T06:34:23Z",
      "version": 2,
      "changeset": 48691427,
      "user": "Minh Nguyen",
      "uid": 33757,
      "tags": {
        "amenity": "bar",
        "name": "Zorok bia quán nhậu"
      }
    },
    {
      "type": "node",
      "id": 980138538,
      "lat": 10.5316201,
      "lon": 106.412727,
      "timestamp": "2017-05-15T06:34:21Z",
      "version": 2,
      "changeset": 48691427,
      "user": "Minh Nguyen",
      "uid": 33757,
      "tags": {
        "amenity": "bar",
        "name": "Quán Ăn Quán Nhậu Miệt Vườn"
      }
    },
    {
      "type": "node",
      "id": 980138540,
      "lat": 10.5310831,
      "lon": 106.4280836,
      "timestamp": "2017-05-15T06:34:22Z",
      "version": 2,
      "changeset": 48691427,
      "user": "Minh Nguyen",
      "uid": 33757,
      "tags": {
        "amenity": "bar",
        "name": "Quán Nhậu Lao Động"
      }
    },
    {
      "type": "node",
      "id": 984954290,
      "lat": 16.4214328,
      "lon": 102.814515,
      "timestamp": "2011-02-26T14:37:16Z",
      "version": 5,
      "changeset": 7400299,
      "user": "Willi2006",
      "uid": 104414,
      "tags": {
        "addr:district": "Mueang Khon Kaen",
        "addr:hamlet": "Mu 17",
        "addr:housenumber": "140/39",
        "addr:postcode": "40000",
        "addr:province": "Khon Kaen",
        "addr:subdistrict": "Nai Mueang",
        "amenity": "pub",
        "building:levels": "1",
        "building:units": "1",
        "source": "GPS; sign"
      }
    },
    {
      "type": "node",
      "id": 984954300,
      "lat": 16.4214316,
      "lon": 102.8141887,
      "timestamp": "2011-02-26T14:35:52Z",
      "version": 5,
      "changeset": 7400299,
      "user": "Willi2006",
      "uid": 104414,
      "tags": {
        "addr:district": "Mueang Khon Kaen",
        "addr:hamlet": "Mu 17",
        "addr:housenumber": "140/45",
        "addr:postcode": "40000",
        "addr:province": "Khon Kaen",
        "addr:subdistrict": "Nai Mueang",
        "amenity": "pub",
        "building:levels": "1",
        "building:units": "1",
        "source": "GPS; sign"
      }
    },
    {
      "type": "node",
      "id": 984954303,
      "lat": 16.4214324,
      "lon": 102.8143993,
      "timestamp": "2011-02-26T14:37:19Z",
      "version": 5,
      "changeset": 7400299,
      "user": "Willi2006",
      "uid": 104414,
      "tags": {
        "addr:district": "Mueang Khon Kaen",
        "addr:hamlet": "Mu 17",
        "addr:housenumber": "140/42",
        "addr:postcode": "40000",
        "addr:province": "Khon Kaen",
        "addr:subdistrict": "Nai Mueang",
        "amenity": "pub",
        "building:levels": "1",
        "building:units": "1",
        "source": "GPS; sign"
      }
    },
    {
      "type": "node",
      "id": 984954305,
      "lat": 16.4214311,
      "lon": 102.8140561,
      "timestamp": "2011-02-26T14:35:27Z",
      "version": 6,
      "changeset": 7400299,
      "user": "Willi2006",
      "uid": 104414,
      "tags": {
        "addr:district": "Mueang Khon Kaen",
        "addr:hamlet": "Mu 17",
        "addr:housenumber": "140/48",
        "addr:postcode": "40000",
        "addr:province": "Khon Kaen",
        "addr:subdistrict": "Nai Mueang",
        "amenity": "pub",
        "building:levels": "1",
        "building:units": "1",
        "source": "GPS; sign"
      }
    },
    {
      "type": "node",
      "id": 984954311,
      "lat": 16.4214313,
      "lon": 102.8141003,
      "timestamp": "2011-02-26T14:41:23Z",
      "version": 5,
      "changeset": 7400299,
      "user": "Willi2006",
      "uid": 104414,
      "tags": {
        "addr:district": "Mueang Khon Kaen",
        "addr:hamlet": "Mu 17",
        "addr:housenumber": "140/47",
        "addr:postcode": "40000",
        "addr:province": "Khon Kaen",
        "addr:subdistrict": "Nai Mueang",
        "amenity": "pub",
        "building:levels": "1",
        "building:units": "1",
        "source": "GPS; sign"
      }
    },
    {
      "type": "node",
      "id": 984954318,
      "lat": 16.421432,
      "lon": 102.8142771,
      "timestamp": "2011-02-26T14:40:52Z",
      "version": 5,
      "changeset": 7400299,
      "user": "Willi2006",
      "uid": 104414,
      "tags": {
        "addr:district": "Mueang Khon Kaen",
        "addr:hamlet": "Mu 17",
        "addr:housenumber": "140/43",
        "addr:postcode": "40000",
        "addr:province": "Khon Kaen",
        "addr:subdistrict": "Nai Mueang",
        "amenity": "pub",
        "building:levels": "1",
        "building:units": "1",
        "source": "GPS; sign"
      }
    },
    {
      "type": "node",
      "id": 984954319,
      "lat": 16.4214315,
      "lon": 102.8141445,
      "timestamp": "2011-02-26T14:39:25Z",
      "version": 5,
      "changeset": 7400299,
      "user": "Willi2006",
      "uid": 104414,
      "tags": {
        "addr:district": "Mueang Khon Kaen",
        "addr:hamlet": "Mu 17",
        "addr:housenumber": "140/46",
        "addr:postcode": "40000",
        "addr:province": "Khon Kaen",
        "addr:subdistrict": "Nai Mueang",
        "amenity": "pub",
        "building:levels": "1",
        "building:units": "1",
        "source": "GPS; sign"
      }
    },
    {
      "type": "node",
      "id": 984954325,
      "lat": 16.4214318,
      "lon": 102.8142329,
      "timestamp": "2011-02-26T14:34:04Z",
      "version": 5,
      "changeset": 7400299,
      "user": "Willi2006",
      "uid": 104414,
      "tags": {
        "addr:district": "Mueang Khon Kaen",
        "addr:hamlet": "Mu 17",
        "addr:housenumber": "140/44",
        "addr:postcode": "40000",
        "addr:province": "Khon Kaen",
        "addr:subdistrict": "Nai Mueang",
        "amenity": "pub",
        "building:levels": "1",
        "building:units": "1",
        "source": "GPS; sign"
      }
    },
    {
      "type": "node",
      "id": 984954342,
      "lat": 16.4214325,
      "lon": 102.8144379,
      "timestamp": "2011-02-26T14:35:02Z",
      "version": 5,
      "changeset": 7400299,
      "user": "Willi2006",
      "uid": 104414,
      "tags": {
        "addr:district": "Mueang Khon Kaen",
        "addr:hamlet": "Mu 17",
        "addr:housenumber": "140/41",
        "addr:postcode": "40000",
        "addr:province": "Khon Kaen",
        "addr:subdistrict": "Nai Mueang",
        "amenity": "pub",
        "building:levels": "1",
        "building:units": "1",
        "source": "GPS; sign"
      }
    },
    {
      "type": "node",
      "id": 984954354,
      "lat": 16.4214327,
      "lon": 102.8144765,
      "timestamp": "2011-02-26T14:35:31Z",
      "version": 5,
      "changeset": 7400299,
      "user": "Willi2006",
      "uid": 104414,
      "tags": {
        "addr:district": "Mueang Khon Kaen",
        "addr:hamlet": "Mu 17",
        "addr:housenumber": "140/40",
        "addr:postcode": "40000",
        "addr:province": "Khon Kaen",
        "addr:subdistrict": "Nai Mueang",
        "amenity": "pub",
        "building:levels": "1",
        "building:units": "1",
        "source": "GPS; sign"
      }
    },
    {
      "type": "node",
      "id": 985091452,
      "lat": 13.771351,
      "lon": 100.6791121,
      "timestamp": "2010-11-11T10:16:37Z",
      "version": 1,
      "changeset": 6342387,
      "user": "the_blueplanet",
      "uid": 369497,
      "tags": {
        "amenity": "pub"
      }
    },
    {
      "type": "node",
      "id": 1060226204,
      "lat": 12.9342841,
      "lon": 100.8874192,
      "timestamp": "2023-09-17T17:12:15Z",
      "version": 11,
      "changeset": 141391226,
      "user": "OSM-Bastler",
      "uid": 670134,
      "tags": {
        "amenity": "bar",
        "name": "Roli Polli Bar"
      }
    },
    {
      "type": "node",
      "id": 1060226247,
      "lat": 12.9297574,
      "lon": 100.8853004,
      "timestamp": "2024-11-14T12:38:35Z",
      "version": 18,
      "changeset": 159128633,
      "user": "OSM-Bastler",
      "uid": 670134,
      "tags": {
        "amenity": "bar",
        "name": "Kingkong Sports Bar",
        "phone": "+66 98 3938145"
      }
    },
    {
      "type": "node",
      "id": 1060236584,
      "lat": 12.9346059,
      "lon": 100.8863997,
      "timestamp": "2023-09-22T10:41:44Z",
      "version": 13,
      "changeset": 141598631,
      "user": "OSM-Bastler",
      "uid": 670134,
      "tags": {
        "addr:street": "Soi New Plaza",
        "amenity": "bar",
        "internet_access": "wlan",
        "internet_access:fee": "no",
        "name": "Puy Bar"
      }
    },
    {
      "type": "node",
      "id": 1060236591,
      "lat": 12.9345734,
      "lon": 100.8862212,
      "timestamp": "2023-08-27T08:54:59Z",
      "version": 12,
      "changeset": 140441713,
      "user": "OSM-Bastler",
      "uid": 670134,
      "tags": {
        "amenity": "bar",
        "name": "Natalies Bar"
      }
    },
    {
      "type": "node",
      "id": 1061491552,
      "lat": 10.6029938,
      "lon": 103.5272932,
      "timestamp": "2016-12-22T09:34:41Z",
      "version": 2,
      "changeset": 44586426,
      "user": "Nearo",
      "uid": 672542,
      "tags": {
        "amenity": "bar",
        "internet_access": "wlan",
        "name": "Khin's Shack Bar"
      }
    },
    {
      "type": "node",
      "id": 1061491579,
      "lat": 10.6087119,
      "lon": 103.5260169,
      "timestamp": "2015-07-18T18:12:12Z",
      "version": 2,
      "changeset": 32720886,
      "user": "andi9876",
      "uid": 1256497,
      "tags": {
        "alt_name": "Pub Street",
        "amenity": "bar",
        "name": "Golden Lion Plaza"
      }
    },
    {
      "type": "node",
      "id": 1078508241,
      "lat": 12.9314786,
      "lon": 100.9322466,
      "timestamp": "2016-01-06T20:16:12Z",
      "version": 5,
      "changeset": 36412547,
      "user": "QWE1234",
      "uid": 3045274,
      "tags": {
        "amenity": "pub",
        "cuisine": "pizza",
        "name": "Fabrice",
        "phone": "+66 89 0941732;+66 84 5657356;",
        "website": "http://www.hotel-fabrice-resort-pattaya.com/"
      }
    },
    {
      "type": "node",
      "id": 1097723846,
      "lat": 13.7620197,
      "lon": 100.4935959,
      "timestamp": "2015-12-17T18:12:38Z",
      "version": 21,
      "changeset": 36014715,
      "user": "gezginrocker",
      "uid": 1686268,
      "tags": {
        "amenity": "bar",
        "name": "Jazz Happens"
      }
    },
    {
      "type": "node",
      "id": 1111344716,
      "lat": 12.9012543,
      "lon": 100.8687407,
      "timestamp": "2015-05-04T16:44:34Z",
      "version": 7,
      "changeset": 30784189,
      "user": "nhdr",
      "uid": 1966781,
      "tags": {
        "amenity": "bar",
        "name": "Fantasy Bar"
      }
    },
    {
      "type": "node",
      "id": 1138694980,
      "lat": 10.7672775,
      "lon": 106.69391,
      "timestamp": "2019-09-12T17:32:17Z",
      "version": 5,
      "changeset": 74402036,
      "user": "ReedtheRiver",
      "uid": 9965337,
      "tags": {
        "addr:housename": "Go 2 Bar",
        "addr:housenumber": "187",
        "addr:street": "Đường Ðề Thám",
        "amenity": "bar",
        "name": "Go 2 Bar",
        "name:de": "Go 2 Bar"
      }
    },
    {
      "type": "node",
      "id": 1196874572,
      "lat": 11.5707458,
      "lon": 104.925784,
      "timestamp": "2022-10-09T08:08:15Z",
      "version": 4,
      "changeset": 127235047,
      "user": "derpif",
      "uid": 15364345,
      "tags": {
        "amenity": "bar",
        "level": "1",
        "name": "Sharky's",
        "opening_hours": "Mo-Su 19:00-02:00",
        "sport": "billiards"
      }
    },
    {
      "type": "node",
      "id": 1196886448,
      "lat": 11.5712187,
      "lon": 104.929604,
      "timestamp": "2011-03-11T15:30:53Z",
      "version": 1,
      "changeset": 7524318,
      "user": "RocketMan",
      "uid": 381887,
      "tags": {
        "amenity": "pub",
        "name": "Cadillac"
      }
    },
    {
      "type": "node",
      "id": 1196922511,
      "lat": 12.9287055,
      "lon": 102.4983974,
      "timestamp": "2016-09-06T11:54:56Z",
      "version": 5,
      "changeset": 41953576,
      "user": "andi9876",
      "uid": 1256497,
      "tags": {
        "amenity": "bar",
        "name": "Diamond Crown Beer Garden"
      }
    },
    {
      "type": "node",
      "id": 1204190457,
      "lat": 18.9456688,
      "lon": 102.436241,
      "timestamp": "2023-06-10T11:46:20Z",
      "version": 2,
      "changeset": 137169115,
      "user": "S3b1",
      "uid": 17864050,
      "tags": {
        "amenity": "bar",
        "internet_access": "no",
        "name": "Climbers Bar",
        "name:en": "InterZone",
        "opening_hours": "10:00-18:00",
        "wheelchair": "no"
      }
    },
    {
      "type": "node",
      "id": 1212966989,
      "lat": 13.8109618,
      "lon": 100.0464659,
      "timestamp": "2015-02-09T04:51:23Z",
      "version": 2,
      "changeset": 28719843,
      "user": "stephankn",
      "uid": 61891,
      "tags": {
        "amenity": "bar",
        "name": "บาร์วันทูทรี",
        "name:en": "123 Bar"
      }
    },
    {
      "type": "node",
      "id": 1232252856,
      "lat": 11.554926,
      "lon": 104.9254662,
      "timestamp": "2019-09-25T13:26:06Z",
      "version": 9,
      "changeset": 74910608,
      "user": "bhousel",
      "uid": 584325,
      "tags": {
        "addr:city": "Phnom Penh",
        "addr:housename": "Score Sports Bar",
        "addr:housenumber": "No. 5",
        "addr:postcode": "12302",
        "addr:street": "Street 282",
        "amenity": "pub",
        "cuisine": "burger;grill;coffee_shop;asian;steak_house;pasta;diner;chicken;italian_pizza;curry;mexican;fish;hot_dog;tea;friture;american;barbecue;tapas;sandwich;regional;international;ice_cream;pizza;fish_and_chips;breakfast;seafood;sausage;local",
        "email": "livesports@scorekh.com",
        "internet_access": "wlan",
        "name": "Score Sports Bar and Grill",
        "name:en": "Score! Sports Bar & Grill - Phnom Penh",
        "opening_hours": "Mo-Su 08:00-02:00",
        "phone": "+85523121357",
        "website": "https://www.scorekh.com/",
        "wheelchair": "limited"
      }
    },
    {
      "type": "node",
      "id": 1241530295,
      "lat": 10.0332783,
      "lon": 105.7734213,
      "timestamp": "2023-12-20T11:32:36Z",
      "version": 3,
      "changeset": 145327392,
      "user": "Nicolas Charbonnier",
      "uid": 15348960,
      "tags": {
        "addr:street": "Mậu Thân",
        "amenity": "bar",
        "name": "3D Café"
      }
    },
    {
      "type": "node",
      "id": 1286878492,
      "lat": 13.723404,
      "lon": 100.5847181,
      "timestamp": "2017-04-11T13:06:22Z",
      "version": 3,
      "changeset": 47656840,
      "user": "merylstreet",
      "uid": 1159672,
      "tags": {
        "amenity": "pub",
        "name": "Ekkamai Beer House"
      }
    },
    {
      "type": "node",
      "id": 1298310997,
      "lat": 16.4283771,
      "lon": 102.8308177,
      "timestamp": "2023-01-15T07:47:54Z",
      "version": 2,
      "changeset": 131288548,
      "user": "KhonKaenGuy",
      "uid": 13521382,
      "tags": {
        "amenity": "bar",
        "name": "U-Bar",
        "name:en": "U-Bar",
        "name:th": "ยูบาร์",
        "operational_status": "closed"
      }
    },
    {
      "type": "node",
      "id": 1310664427,
      "lat": 11.5698794,
      "lon": 104.9297287,
      "timestamp": "2015-09-20T08:59:31Z",
      "version": 2,
      "changeset": 34135777,
      "user": "andi9876",
      "uid": 1256497,
      "tags": {
        "amenity": "bar",
        "name": "DV8 Bar",
        "source": "Survey"
      }
    },
    {
      "type": "node",
      "id": 1313558728,
      "lat": 17.4220874,
      "lon": 102.781943,
      "timestamp": "2011-06-06T22:57:52Z",
      "version": 2,
      "changeset": 8365761,
      "user": "stephankn",
      "uid": 61891,
      "tags": {
        "amenity": "bar",
        "name": "เพลินจิต ชิดลม",
        "name:en": "Ploenchit Chidlom",
        "name:th": "เพลินจิต ชิดลม"
      }
    },
    {
      "type": "node",
      "id": 1316172295,
      "lat": 17.9496926,
      "lon": 102.6191763,
      "timestamp": "2013-01-07T20:13:38Z",
      "version": 3,
      "changeset": 14567156,
      "user": "webrian",
      "uid": 33155,
      "tags": {
        "amenity": "bar",
        "name": "Paris Cocktail"
      }
    },
    {
      "type": "node",
      "id": 1346710573,
      "lat": 13.7591942,
      "lon": 100.4968826,
      "timestamp": "2013-08-23T05:21:56Z",
      "version": 16,
      "changeset": 17464816,
      "user": "gezginrocker",
      "uid": 1686268,
      "tags": {
        "amenity": "bar",
        "name": "Silk Bar"
      }
    },
    {
      "type": "node",
      "id": 1346720681,
      "lat": 13.7589807,
      "lon": 100.4968873,
      "timestamp": "2021-11-21T06:57:17Z",
      "version": 9,
      "changeset": 114045359,
      "user": "wheelmap_visitor",
      "uid": 290680,
      "tags": {
        "amenity": "pub",
        "name": "Center Khao Sarn",
        "wheelchair": "no"
      }
    },
    {
      "type": "node",
      "id": 1359758188,
      "lat": 13.7592261,
      "lon": 100.4953383,
      "timestamp": "2013-08-21T01:26:42Z",
      "version": 12,
      "changeset": 17434640,
      "user": "gezginrocker",
      "uid": 1686268,
      "tags": {
        "amenity": "bar",
        "name": "Gazebo"
      }
    },
    {
      "type": "node",
      "id": 1359843426,
      "lat": 13.7585971,
      "lon": 100.4984729,
      "timestamp": "2021-11-21T07:13:25Z",
      "version": 9,
      "changeset": 114045359,
      "user": "wheelmap_visitor",
      "uid": 290680,
      "tags": {
        "amenity": "bar",
        "name": "Brick Bar",
        "wheelchair": "yes"
      }
    },
    {
      "type": "node",
      "id": 1359843432,
      "lat": 13.7556631,
      "lon": 100.5033034,
      "timestamp": "2011-07-12T20:29:57Z",
      "version": 1,
      "changeset": 8707015,
      "user": "Globe-trotter",
      "uid": 391953,
      "tags": {
        "amenity": "bar",
        "name": "Club Culture"
      }
    },
    {
      "type": "node",
      "id": 1366383279,
      "lat": 14.4804831,
      "lon": 100.1232845,
      "timestamp": "2013-01-09T08:49:17Z",
      "version": 2,
      "changeset": 14583423,
      "user": "Russ McD",
      "uid": 346601,
      "tags": {
        "amenity": "pub"
      }
    },
    {
      "type": "node",
      "id": 1366383280,
      "lat": 14.4804402,
      "lon": 100.1235525,
      "timestamp": "2013-01-09T08:49:17Z",
      "version": 2,
      "changeset": 14583423,
      "user": "Russ McD",
      "uid": 346601,
      "tags": {
        "amenity": "bar"
      }
    },
    {
      "type": "node",
      "id": 1366383281,
      "lat": 14.4808428,
      "lon": 100.1230644,
      "timestamp": "2013-01-09T08:49:17Z",
      "version": 2,
      "changeset": 14583423,
      "user": "Russ McD",
      "uid": 346601,
      "tags": {
        "amenity": "bar"
      }
    },
    {
      "type": "node",
      "id": 1366383282,
      "lat": 14.4806338,
      "lon": 100.1236439,
      "timestamp": "2013-01-09T08:49:17Z",
      "version": 2,
      "changeset": 14583423,
      "user": "Russ McD",
      "uid": 346601,
      "tags": {
        "amenity": "pub"
      }
    },
    {
      "type": "node",
      "id": 1373480798,
      "lat": 15.702913,
      "lon": 100.1248594,
      "timestamp": "2011-07-25T06:26:47Z",
      "version": 1,
      "changeset": 8823160,
      "user": "Russ McD",
      "uid": 346601,
      "tags": {
        "amenity": "bar",
        "name": "Bon Bon Club",
        "source": "GPS"
      }
    },
    {
      "type": "node",
      "id": 1374621686,
      "lat": 13.8479972,
      "lon": 100.5671496,
      "timestamp": "2019-04-21T15:50:39Z",
      "version": 2,
      "changeset": 69422797,
      "user": "wheelmap_visitor",
      "uid": 290680,
      "tags": {
        "amenity": "pub",
        "name": "ชมรมมหาวิทยาลัย-ชาวบ้าน",
        "wheelchair": "no"
      }
    },
    {
      "type": "node",
      "id": 1374638038,
      "lat": 13.8461336,
      "lon": 100.575738,
      "timestamp": "2011-07-26T11:42:50Z",
      "version": 1,
      "changeset": 8834928,
      "user": "worstman1000",
      "uid": 495908,
      "tags": {
        "amenity": "bar",
        "name": "ร้านโค้งสัตวแพทย์"
      }
    },
    {
      "type": "node",
      "id": 1374644117,
      "lat": 13.8431897,
      "lon": 100.5624002,
      "timestamp": "2015-11-30T23:39:39Z",
      "version": 2,
      "changeset": 35676834,
      "user": "warneke7",
      "uid": 2953895,
      "tags": {
        "amenity": "pub",
        "name": "เกษตรสโม"
      }
    },
    {
      "type": "node",
      "id": 1374644650,
      "lat": 13.8442192,
      "lon": 100.5622152,
      "timestamp": "2011-07-26T11:55:31Z",
      "version": 1,
      "changeset": 8834918,
      "user": "chinmijotie",
      "uid": 495904,
      "tags": {
        "amenity": "pub",
        "name": "เกษตรสโม"
      }
    },
    {
      "type": "node",
      "id": 1390208342,
      "lat": 10.9500937,
      "lon": 108.2543775,
      "timestamp": "2011-08-07T21:20:54Z",
      "version": 1,
      "changeset": 8952124,
      "user": "Jorieke V",
      "uid": 378610,
      "tags": {
        "amenity": "bar"
      }
    },
    {
      "type": "node",
      "id": 1414158877,
      "lat": 13.7542485,
      "lon": 100.6270479,
      "timestamp": "2011-08-27T05:40:18Z",
      "version": 1,
      "changeset": 9134788,
      "user": "rubybox",
      "uid": 338659,
      "tags": {
        "amenity": "bar",
        "name": "Dream Pub"
      }
    },
    {
      "type": "node",
      "id": 1414158878,
      "lat": 13.7543215,
      "lon": 100.6268283,
      "timestamp": "2012-12-11T06:04:31Z",
      "version": 2,
      "changeset": 14234523,
      "user": "Johnny Carlsen",
      "uid": 38985,
      "tags": {
        "amenity": "bar",
        "name": "3rd Pub"
      }
    },
    {
      "type": "node",
      "id": 1440417154,
      "lat": 15.2330835,
      "lon": 104.8642105,
      "timestamp": "2011-09-22T15:19:08Z",
      "version": 2,
      "changeset": 9369389,
      "user": "Tungmar",
      "uid": 427807,
      "tags": {
        "amenity": "bar",
        "name": "U-Bar"
      }
    },
    {
      "type": "node",
      "id": 1440419959,
      "lat": 15.2241093,
      "lon": 104.8613264,
      "timestamp": "2011-09-22T15:22:41Z",
      "version": 1,
      "changeset": 9369389,
      "user": "Tungmar",
      "uid": 427807,
      "tags": {
        "amenity": "pub"
      }
    },
    {
      "type": "node",
      "id": 1446297445,
      "lat": 17.9651396,
      "lon": 102.603035,
      "timestamp": "2017-03-15T02:46:06Z",
      "version": 7,
      "changeset": 46857626,
      "user": "mbethke",
      "uid": 248338,
      "tags": {
        "amenity": "bar",
        "name": "Billabong Sports Bar & Grill"
      }
    },
    {
      "type": "node",
      "id": 1446297581,
      "lat": 17.9659263,
      "lon": 102.6045319,
      "timestamp": "2011-09-26T15:28:16Z",
      "version": 1,
      "changeset": 9402916,
      "user": "webrian",
      "uid": 33155,
      "tags": {
        "amenity": "pub",
        "name": "Samlo Pub"
      }
    },
    {
      "type": "node",
      "id": 1496053172,
      "lat": 16.4089454,
      "lon": 101.1615149,
      "timestamp": "2011-11-09T03:59:28Z",
      "version": 1,
      "changeset": 9778636,
      "user": "shamblesfinder",
      "uid": 551522,
      "tags": {
        "amenity": "bar",
        "name": "Present Bar"
      }
    },
    {
      "type": "node",
      "id": 1498963620,
      "lat": 12.9276589,
      "lon": 100.9512869,
      "timestamp": "2024-06-16T11:53:49Z",
      "version": 3,
      "changeset": 152757249,
      "user": "EndlessRoundabout",
      "uid": 192780,
      "tags": {
        "amenity": "pub",
        "name": "Route CC"
      }
    },
    {
      "type": "node",
      "id": 1506156841,
      "lat": 11.9420762,
      "lon": 108.436625,
      "timestamp": "2011-11-17T11:09:32Z",
      "version": 1,
      "changeset": 9853034,
      "user": "FredB",
      "uid": 1626,
      "tags": {
        "amenity": "bar",
        "name": "Envy"
      }
    },
    {
      "type": "node",
      "id": 1524383601,
      "lat": 13.6572511,
      "lon": 100.4292148,
      "timestamp": "2014-03-18T06:10:01Z",
      "version": 2,
      "changeset": 21168000,
      "user": "RocketMan",
      "uid": 381887,
      "tags": {
        "addr:street": "ถนนพระรามที่ 2",
        "amenity": "pub",
        "name": "โรงเหล้าแสงจันทร์ พระราม 2",
        "website": "www.rama2.sangjan.net"
      }
    },
    {
      "type": "node",
      "id": 1540345921,
      "lat": 14.3507201,
      "lon": 100.6062602,
      "timestamp": "2011-12-11T03:31:51Z",
      "version": 1,
      "changeset": 10086523,
      "user": "RocketMan",
      "uid": 381887,
      "tags": {
        "amenity": "bar",
        "name": "Cowboy Bar"
      }
    },
    {
      "type": "node",
      "id": 1548852177,
      "lat": 12.9301707,
      "lon": 100.8857952,
      "timestamp": "2023-08-26T10:17:34Z",
      "version": 7,
      "changeset": 140404999,
      "user": "OSM-Bastler",
      "uid": 670134,
      "tags": {
        "amenity": "pub",
        "name": "Rock Factory",
        "phone": "+6698-267-6234"
      }
    },
    {
      "type": "node",
      "id": 1551753422,
      "lat": 12.9303839,
      "lon": 100.9406179,
      "timestamp": "2014-04-04T17:32:08Z",
      "version": 3,
      "changeset": 21499969,
      "user": "RocketMan",
      "uid": 381887,
      "tags": {
        "amenity": "bar",
        "name": "Butterfly Bar"
      }
    },
    {
      "type": "node",
      "id": 1551753473,
      "lat": 12.9363478,
      "lon": 100.9306789,
      "timestamp": "2023-09-11T10:12:36Z",
      "version": 5,
      "changeset": 141103848,
      "user": "OSM-Bastler",
      "uid": 670134,
      "tags": {
        "amenity": "bar",
        "name": "Joy Joy Bar"
      }
    },
    {
      "type": "node",
      "id": 1551753476,
      "lat": 12.9436349,
      "lon": 100.9406823,
      "timestamp": "2012-12-12T09:48:04Z",
      "version": 2,
      "changeset": 14247032,
      "user": "RocketMan",
      "uid": 381887,
      "tags": {
        "amenity": "pub",
        "name": "Black Oyster Bar"
      }
    },
    {
      "type": "node",
      "id": 1551753484,
      "lat": 12.9342033,
      "lon": 100.9535784,
      "timestamp": "2011-12-18T11:10:09Z",
      "version": 1,
      "changeset": 10145009,
      "user": "helbob",
      "uid": 286478,
      "tags": {
        "amenity": "pub",
        "name": "La Guinguette"
      }
    },
    {
      "type": "node",
      "id": 1553398552,
      "lat": 12.9302233,
      "lon": 100.8809139,
      "timestamp": "2023-09-29T12:33:14Z",
      "version": 4,
      "changeset": 141910401,
      "user": "OSM-Bastler",
      "uid": 670134,
      "tags": {
        "amenity": "bar",
        "name": "Meeting Point"
      }
    },
    {
      "type": "node",
      "id": 1553398554,
      "lat": 12.9297751,
      "lon": 100.8803872,
      "timestamp": "2019-09-19T15:25:33Z",
      "version": 4,
      "changeset": 74680129,
      "user": "nutchayahongvilai",
      "uid": 10028134,
      "tags": {
        "addr:street": "พัทยาสายสอง",
        "amenity": "bar",
        "name": "Wonderful Bar"
      }
    },
    {
      "type": "node",
      "id": 1553952833,
      "lat": 10.831285,
      "lon": 106.665898,
      "timestamp": "2011-12-19T13:29:23Z",
      "version": 1,
      "changeset": 10155552,
      "user": "Le Ba Dinh",
      "uid": 570754,
      "tags": {
        "amenity": "pub",
        "source": "survey"
      }
    },
    {
      "type": "node",
      "id": 1555088360,
      "lat": 12.9471079,
      "lon": 100.8849026,
      "timestamp": "2019-09-11T15:20:45Z",
      "version": 5,
      "changeset": 74361047,
      "user": "nutchayahongvilai",
      "uid": 10028134,
      "tags": {
        "amenity": "pub",
        "cuisine": "western",
        "name": "Green Tree",
        "website": "http://www.pattayagreentree.net"
      }
    },
    {
      "type": "node",
      "id": 1555088373,
      "lat": 12.9447462,
      "lon": 100.88495,
      "timestamp": "2019-09-11T15:50:48Z",
      "version": 3,
      "changeset": 74362263,
      "user": "nutchayahongvilai",
      "uid": 10028134,
      "tags": {
        "addr:street": "พัทยาสายหนึ่ง",
        "amenity": "pub",
        "cuisine": "german",
        "name": "Deutsches Haus"
      }
    },
    {
      "type": "node",
      "id": 1555107938,
      "lat": 12.9348278,
      "lon": 100.8859942,
      "timestamp": "2023-09-22T10:41:44Z",
      "version": 7,
      "changeset": 141598631,
      "user": "OSM-Bastler",
      "uid": 670134,
      "tags": {
        "amenity": "bar",
        "name": "Micky's Beer Bar"
      }
    },
    {
      "type": "node",
      "id": 1557009912,
      "lat": 12.9352054,
      "lon": 100.882328,
      "timestamp": "2019-09-11T21:00:57Z",
      "version": 4,
      "changeset": 74371789,
      "user": "nutchayahongvilai",
      "uid": 10028134,
      "tags": {
        "amenity": "pub",
        "name": "Mulligans Irish Pub",
        "phone": "+66 38 043388",
        "website": "http://mulliganspubs.com/"
      }
    },
    {
      "type": "node",
      "id": 1557009919,
      "lat": 12.9364668,
      "lon": 100.8828206,
      "timestamp": "2023-09-06T02:57:23Z",
      "version": 7,
      "changeset": 140874103,
      "user": "OSM-Bastler",
      "uid": 670134,
      "tags": {
        "amenity": "bar",
        "name": "Naka 95 Bar"
      }
    },
    {
      "type": "node",
      "id": 1557009936,
      "lat": 12.9364992,
      "lon": 100.8829308,
      "timestamp": "2023-09-06T02:57:23Z",
      "version": 8,
      "changeset": 140874103,
      "user": "OSM-Bastler",
      "uid": 670134,
      "tags": {
        "amenity": "bar",
        "name": "Tiger Beach Bar",
        "wheelchair": "limited"
      }
    },
    {
      "type": "node",
      "id": 1557009937,
      "lat": 12.9365534,
      "lon": 100.8828429,
      "timestamp": "2023-09-30T08:16:21Z",
      "version": 10,
      "changeset": 141940713,
      "user": "OSM-Bastler",
      "uid": 670134,
      "tags": {
        "addr:street": "ถนนพัทยาสายหนึ่ง",
        "amenity": "bar",
        "name": "Poppy 2",
        "wheelchair": "limited"
      }
    },
    {
      "type": "node",
      "id": 1557021552,
      "lat": 12.9289382,
      "lon": 100.8777577,
      "timestamp": "2016-05-22T04:39:37Z",
      "version": 2,
      "changeset": 39480266,
      "user": "QWE1234",
      "uid": 3045274,
      "tags": {
        "amenity": "pub",
        "name": "Beer House"
      }
    },
    {
      "type": "node",
      "id": 1557021571,
      "lat": 12.9286856,
      "lon": 100.8779345,
      "timestamp": "2016-07-28T19:03:53Z",
      "version": 2,
      "changeset": 41092860,
      "user": "navi2000",
      "uid": 122041,
      "tags": {
        "amenity": "bar",
        "cuisine": "international;asian",
        "name": "Africano's Cave"
      }
    },
    {
      "type": "node",
      "id": 1557038847,
      "lat": 12.9291659,
      "lon": 100.8795904,
      "timestamp": "2019-09-12T17:00:09Z",
      "version": 7,
      "changeset": 74401601,
      "user": "nutchayahongvilai",
      "uid": 10028134,
      "tags": {
        "amenity": "pub",
        "name": "Dicey Reily Irish Pub",
        "opening_hours": "08:00-24:00",
        "phone": "+66 38 411755",
        "website": "https://www.diceyspub.com/"
      }
    },
    {
      "type": "node",
      "id": 1557049245,
      "lat": 12.9303166,
      "lon": 100.881338,
      "timestamp": "2023-09-13T17:46:28Z",
      "version": 8,
      "changeset": 141222903,
      "user": "OSM-Bastler",
      "uid": 670134,
      "tags": {
        "amenity": "bar",
        "name": "Tims Bar",
        "website": "http://www.timbarpattaya.com/"
      }
    },
    {
      "type": "node",
      "id": 1557057968,
      "lat": 12.9305017,
      "lon": 100.8824748,
      "timestamp": "2023-09-04T06:02:54Z",
      "version": 7,
      "changeset": 140786385,
      "user": "OSM-Bastler",
      "uid": 670134,
      "tags": {
        "amenity": "bar",
        "name": "Papagayo"
      }
    },
    {
      "type": "node",
      "id": 1557057973,
      "lat": 12.9299128,
      "lon": 100.8841322,
      "timestamp": "2023-09-01T18:04:51Z",
      "version": 7,
      "changeset": 140691087,
      "user": "OSM-Bastler",
      "uid": 670134,
      "tags": {
        "amenity": "pub",
        "cuisine": "steak;burger;sausage",
        "name": "The Rock House",
        "phone": "+66 38 720446",
        "website": "http://www.rockhousepattaya.com/"
      }
    },
    {
      "type": "node",
      "id": 1557057982,
      "lat": 12.9300775,
      "lon": 100.884514,
      "timestamp": "2023-09-01T17:48:59Z",
      "version": 7,
      "changeset": 140690529,
      "user": "OSM-Bastler",
      "uid": 670134,
      "tags": {
        "amenity": "bar",
        "name": "Billabong",
        "website": "http://www.billabonghotel.com/"
      }
    },
    {
      "type": "node",
      "id": 1557057984,
      "lat": 12.9303752,
      "lon": 100.8844591,
      "timestamp": "2023-10-01T06:37:45Z",
      "version": 15,
      "changeset": 141975175,
      "user": "OSM-Bastler",
      "uid": 670134,
      "tags": {
        "alt_name": "The I-Rovers Sports Bar",
        "amenity": "pub",
        "cuisine": "western;thai",
        "name": "i-rovers",
        "website": "https://www.i-rovers.com/"
      }
    },
    {
      "type": "node",
      "id": 1560362829,
      "lat": 12.9345499,
      "lon": 100.8901157,
      "timestamp": "2016-01-29T15:24:25Z",
      "version": 10,
      "changeset": 36881553,
      "user": "QWE1234",
      "uid": 3045274,
      "tags": {
        "amenity": "pub",
        "cuisine": "swedish;pizza;kebab;thai;steak",
        "email": "info@twolionsrestaurant.com",
        "name": "Two Lions Pub",
        "opening_hours": "Tu-Su 12:00-23:00",
        "phone": "+66 38 720986",
        "website": "http://twolionsrestaurant.com/"
      }
    },
    {
      "type": "node",
      "id": 1560368051,
      "lat": 12.9325188,
      "lon": 100.8904248,
      "timestamp": "2023-08-23T12:57:56Z",
      "version": 3,
      "changeset": 140275323,
      "user": "OSM-Bastler",
      "uid": 670134,
      "tags": {
        "amenity": "bar",
        "name": "Harry's Pit Stop"
      }
    },
    {
      "type": "node",
      "id": 1560395941,
      "lat": 12.9267789,
      "lon": 100.8864655,
      "timestamp": "2023-10-01T06:53:05Z",
      "version": 4,
      "changeset": 141975454,
      "user": "OSM-Bastler",
      "uid": 670134,
      "tags": {
        "amenity": "bar",
        "name": "New Buffalo Bar"
      }
    },
    {
      "type": "node",
      "id": 1562515727,
      "lat": 12.9248931,
      "lon": 100.9050293,
      "timestamp": "2014-12-04T13:52:28Z",
      "version": 4,
      "changeset": 27235506,
      "user": "RocketMan",
      "uid": 381887,
      "tags": {
        "amenity": "bar",
        "name": "Beer and Coffee"
      }
    },
    {
      "type": "node",
      "id": 1562520576,
      "lat": 12.9271478,
      "lon": 100.9082285,
      "timestamp": "2012-03-10T23:35:02Z",
      "version": 2,
      "changeset": 10937943,
      "user": "Stasik",
      "uid": 218873,
      "tags": {
        "amenity": "bar",
        "name": "Dao Bar"
      }
    },
    {
      "type": "node",
      "id": 1562521197,
      "lat": 12.9236654,
      "lon": 100.9097103,
      "timestamp": "2016-05-27T06:18:45Z",
      "version": 6,
      "changeset": 39596181,
      "user": "QWE1234",
      "uid": 3045274,
      "tags": {
        "amenity": "bar",
        "name": "Paradise Bar"
      }
    },
    {
      "type": "node",
      "id": 1562521201,
      "lat": 12.9072091,
      "lon": 100.919828,
      "timestamp": "2023-10-25T09:06:27Z",
      "version": 4,
      "changeset": 143103695,
      "user": "OSM-Bastler",
      "uid": 670134,
      "tags": {
        "amenity": "bar",
        "name": "The Bird Cage"
      }
    },
    {
      "type": "node",
      "id": 1562521202,
      "lat": 12.9096698,
      "lon": 100.9172933,
      "timestamp": "2024-05-19T02:50:50Z",
      "version": 4,
      "changeset": 151517428,
      "user": "tiototo",
      "uid": 234873,
      "tags": {
        "amenity": "bar",
        "contact:facebook": "https://www.facebook.com/profile.php?id=100083130971953",
        "name": "Darkside",
        "old_name": "KIK"
      }
    },
    {
      "type": "node",
      "id": 1562529960,
      "lat": 12.9297633,
      "lon": 100.9381555,
      "timestamp": "2011-12-26T15:59:03Z",
      "version": 1,
      "changeset": 10208073,
      "user": "RocketMan",
      "uid": 381887,
      "tags": {
        "amenity": "bar",
        "name": "Top 10"
      }
    },
    {
      "type": "node",
      "id": 1562537447,
      "lat": 12.9291568,
      "lon": 100.9245567,
      "timestamp": "2012-08-21T12:19:21Z",
      "version": 3,
      "changeset": 12806674,
      "user": "RocketMan",
      "uid": 381887,
      "tags": {
        "amenity": "bar",
        "name": "The Pussy Cat Club"
      }
    },
    {
      "type": "node",
      "id": 1562541204,
      "lat": 12.9294496,
      "lon": 100.9286046,
      "timestamp": "2014-10-01T10:10:44Z",
      "version": 4,
      "changeset": 25786477,
      "user": "RocketMan",
      "uid": 381887,
      "tags": {
        "amenity": "bar",
        "name": "The Brass Monkey",
        "website": "http://brassmonkeypattaya.com/"
      }
    },
    {
      "type": "node",
      "id": 1562541210,
      "lat": 12.9303803,
      "lon": 100.9198038,
      "timestamp": "2011-12-26T16:07:17Z",
      "version": 1,
      "changeset": 10208073,
      "user": "RocketMan",
      "uid": 381887,
      "tags": {
        "amenity": "bar",
        "name": "Top Cool Retreat"
      }
    },
    {
      "type": "node",
      "id": 1563910604,
      "lat": 12.9262329,
      "lon": 100.901708,
      "timestamp": "2016-05-26T13:41:48Z",
      "version": 4,
      "changeset": 39581903,
      "user": "QWE1234",
      "uid": 3045274,
      "tags": {
        "amenity": "bar",
        "name": "Old Hounds"
      }
    },
    {
      "type": "node",
      "id": 1574159960,
      "lat": 12.9400513,
      "lon": 100.8908787,
      "timestamp": "2014-03-15T14:09:16Z",
      "version": 3,
      "changeset": 21117680,
      "user": "RocketMan",
      "uid": 381887,
      "tags": {
        "amenity": "bar",
        "name": "Duck Bar and Resturant"
      }
    },
    {
      "type": "node",
      "id": 1574162968,
      "lat": 12.9403554,
      "lon": 100.8908149,
      "timestamp": "2023-10-30T12:44:57Z",
      "version": 8,
      "changeset": 143364004,
      "user": "b-jazz-bot",
      "uid": 9451067,
      "tags": {
        "addr:street": "พัทยากลาง 12",
        "amenity": "pub",
        "cuisine": "steak;irish;italian;burger",
        "mapillary": "175409854465975",
        "name": "Jameson's",
        "opening_hours": "Mo-Su 07:00-01:00",
        "phone": "+66 38 361874",
        "survey:date": "2019-06-20",
        "theme": "irish",
        "website": "https://www.jamesons-pattaya.com/"
      }
    },
    {
      "type": "node",
      "id": 1574162973,
      "lat": 12.9407198,
      "lon": 100.8905149,
      "timestamp": "2015-05-23T13:55:47Z",
      "version": 2,
      "changeset": 31398231,
      "user": "RocketMan",
      "uid": 381887,
      "tags": {
        "amenity": "bar",
        "name": "Sun Shine Beer Bar"
      }
    },
    {
      "type": "node",
      "id": 1574167110,
      "lat": 12.9424332,
      "lon": 100.8881808,
      "timestamp": "2012-12-13T08:33:16Z",
      "version": 3,
      "changeset": 14257377,
      "user": "RocketMan",
      "uid": 381887,
      "tags": {
        "amenity": "bar",
        "name": "Bar Bliss"
      }
    },
    {
      "type": "node",
      "id": 1574167112,
      "lat": 12.9422563,
      "lon": 100.888097,
      "timestamp": "2015-12-14T14:28:57Z",
      "version": 5,
      "changeset": 35946670,
      "user": "QWE1234",
      "uid": 3045274,
      "tags": {
        "amenity": "bar",
        "name": "Malee Bar Beer"
      }
    },
    {
      "type": "node",
      "id": 1574167146,
      "lat": 12.9425551,
      "lon": 100.8883741,
      "timestamp": "2012-01-02T15:10:06Z",
      "version": 1,
      "changeset": 10271511,
      "user": "RocketMan",
      "uid": 381887,
      "tags": {
        "amenity": "bar",
        "name": "Capital Bar"
      }
    },
    {
      "type": "node",
      "id": 1574173726,
      "lat": 12.943504,
      "lon": 100.8889186,
      "timestamp": "2016-11-19T19:49:07Z",
      "version": 2,
      "changeset": 43808394,
      "user": "stephankn",
      "uid": 61891,
      "tags": {
        "amenity": "bar",
        "name": "Fin"
      }
    },
    {
      "type": "node",
      "id": 1574173732,
      "lat": 12.9443274,
      "lon": 100.888578,
      "timestamp": "2012-01-02T15:17:00Z",
      "version": 1,
      "changeset": 10271511,
      "user": "RocketMan",
      "uid": 381887,
      "tags": {
        "amenity": "bar",
        "name": "One Bar Noi 3"
      }
    },
    {
      "type": "node",
      "id": 1574173747,
      "lat": 12.9428957,
      "lon": 100.8883957,
      "timestamp": "2019-03-30T22:39:07Z",
      "version": 7,
      "changeset": 68711363,
      "user": "b-jazz-bot",
      "uid": 9451067,
      "tags": {
        "amenity": "pub",
        "cuisine": "steak;sausages;pizza",
        "name": "Beerfest",
        "opening_hours": "Mo-Su 14:00-01:00",
        "phone": "+66 87 7497005;+66 38 362297",
        "website": "https://www.beerfest-thai.com/"
      }
    },
    {
      "type": "node",
      "id": 1574186099,
      "lat": 12.9453097,
      "lon": 100.8884183,
      "timestamp": "2015-05-09T20:04:55Z",
      "version": 5,
      "changeset": 30947005,
      "user": "RocketMan",
      "uid": 381887,
      "tags": {
        "amenity": "bar",
        "name": "Melodies Bar"
      }
    },
    {
      "type": "node",
      "id": 1574215736,
      "lat": 12.9363043,
      "lon": 100.8847799,
      "timestamp": "2023-09-20T05:15:51Z",
      "version": 8,
      "changeset": 141494030,
      "user": "OSM-Bastler",
      "uid": 670134,
      "tags": {
        "amenity": "bar",
        "name": "Lupa"
      }
    },
    {
      "type": "node",
      "id": 1574215746,
      "lat": 12.9361969,
      "lon": 100.8853454,
      "timestamp": "2023-09-22T05:53:32Z",
      "version": 8,
      "changeset": 141587335,
      "user": "OSM-Bastler",
      "uid": 670134,
      "tags": {
        "amenity": "bar",
        "name": "Airport 2"
      }
    },
    {
      "type": "node",
      "id": 1574220645,
      "lat": 12.9348475,
      "lon": 100.8857576,
      "timestamp": "2023-08-27T08:54:59Z",
      "version": 7,
      "changeset": 140441713,
      "user": "OSM-Bastler",
      "uid": 670134,
      "tags": {
        "amenity": "bar",
        "name": "One Step Beyond"
      }
    },
    {
      "type": "node",
      "id": 1574220665,
      "lat": 12.9346026,
      "lon": 100.886168,
      "timestamp": "2023-08-27T08:54:59Z",
      "version": 8,
      "changeset": 140441713,
      "user": "OSM-Bastler",
      "uid": 670134,
      "tags": {
        "amenity": "bar",
        "name": "Memory Bar"
      }
    },
    {
      "type": "node",
      "id": 1574220673,
      "lat": 12.9346311,
      "lon": 100.8861213,
      "timestamp": "2023-08-27T08:54:59Z",
      "version": 7,
      "changeset": 140441713,
      "user": "OSM-Bastler",
      "uid": 670134,
      "tags": {
        "amenity": "bar",
        "name": "Glue Bar"
      }
    },
    {
      "type": "node",
      "id": 1575266837,
      "lat": 12.9168423,
      "lon": 100.8791517,
      "timestamp": "2015-12-26T14:36:44Z",
      "version": 6,
      "changeset": 36177462,
      "user": "QWE1234",
      "uid": 3045274,
      "tags": {
        "amenity": "pub",
        "cuisine": "international;burger;mexican",
        "name": "Tiggle Bitties Tavern",
        "phone": "+66 38 427101"
      }
    },
    {
      "type": "node",
      "id": 1576673048,
      "lat": 12.8904937,
      "lon": 100.8751059,
      "timestamp": "2015-05-19T10:37:49Z",
      "version": 3,
      "changeset": 31279321,
      "user": "RocketMan",
      "uid": 381887,
      "tags": {
        "amenity": "bar",
        "name": "Walkabout"
      }
    },
    {
      "type": "node",
      "id": 1576723243,
      "lat": 12.8980898,
      "lon": 100.873217,
      "timestamp": "2015-05-16T12:43:42Z",
      "version": 4,
      "changeset": 31200668,
      "user": "RocketMan",
      "uid": 381887,
      "tags": {
        "amenity": "bar",
        "name": "Apple Bar"
      }
    },
    {
      "type": "node",
      "id": 1576752423,
      "lat": 12.9020999,
      "lon": 100.8692913,
      "timestamp": "2016-07-05T12:13:52Z",
      "version": 11,
      "changeset": 40498348,
      "user": "QWE1234",
      "uid": 3045274,
      "tags": {
        "amenity": "bar",
        "name": "Man Bar"
      }
    },
    {
      "type": "node",
      "id": 1577988810,
      "lat": 12.0288235,
      "lon": 102.2926252,
      "timestamp": "2017-12-25T06:48:31Z",
      "version": 7,
      "changeset": 54900638,
      "user": "John Grau",
      "uid": 7349987,
      "tags": {
        "addr:housenumber": "Moo 4",
        "addr:postcode": "23170",
        "addr:street": "DPT Roa",
        "amenity": "bar",
        "cuisine": "steak",
        "name": "Filou Cocktaillounge",
        "website": "http://www.filou-kohchang.com"
      }
    },
    {
      "type": "node",
      "id": 1582177447,
      "lat": 12.936857,
      "lon": 100.8880266,
      "timestamp": "2016-07-03T13:48:35Z",
      "version": 2,
      "changeset": 40458887,
      "user": "QWE1234",
      "uid": 3045274,
      "tags": {
        "amenity": "bar",
        "name": "Love Bar"
      }
    },
    {
      "type": "node",
      "id": 1582177467,
      "lat": 12.9367801,
      "lon": 100.8879793,
      "timestamp": "2016-07-03T13:48:35Z",
      "version": 2,
      "changeset": 40458887,
      "user": "QWE1234",
      "uid": 3045274,
      "tags": {
        "amenity": "bar",
        "name": "Planet Bar"
      }
    },
    {
      "type": "node",
      "id": 1582180035,
      "lat": 12.9373248,
      "lon": 100.8886538,
      "timestamp": "2016-06-28T11:40:58Z",
      "version": 3,
      "changeset": 40341587,
      "user": "QWE1234",
      "uid": 3045274,
      "tags": {
        "amenity": "pub",
        "name": "Kham Inn"
      }
    },
    {
      "type": "node",
      "id": 1584429602,
      "lat": 12.9266883,
      "lon": 100.8863572,
      "timestamp": "2023-10-30T12:48:53Z",
      "version": 6,
      "changeset": 143364225,
      "user": "b-jazz-bot",
      "uid": 9451067,
      "tags": {
        "amenity": "bar",
        "name": "The Castle Fetish and BDSM Club",
        "website": "https://www.the-castle-pattaya.com/"
      }
    },
    {
      "type": "node",
      "id": 1584437783,
      "lat": 12.9189115,
      "lon": 100.8714865,
      "timestamp": "2015-05-30T16:52:00Z",
      "version": 4,
      "changeset": 31588401,
      "user": "RocketMan",
      "uid": 381887,
      "tags": {
        "amenity": "pub",
        "name": "Nitra Pub and Travel"
      }
    },
    {
      "type": "node",
      "id": 1584438498,
      "lat": 12.9184602,
      "lon": 100.8717483,
      "timestamp": "2015-05-30T15:49:02Z",
      "version": 3,
      "changeset": 31586942,
      "user": "RocketMan",
      "uid": 381887,
      "tags": {
        "amenity": "bar",
        "name": "Soho Bar"
      }
    },
    {
      "type": "node",
      "id": 1584452397,
      "lat": 12.9143145,
      "lon": 100.8721046,
      "timestamp": "2016-04-04T06:20:28Z",
      "version": 2,
      "changeset": 38281627,
      "user": "QWE1234",
      "uid": 3045274,
      "tags": {
        "amenity": "bar",
        "name": "Jade House"
      }
    },
    {
      "type": "node",
      "id": 1584452478,
      "lat": 12.9165419,
      "lon": 100.8712008,
      "timestamp": "2012-01-10T11:00:18Z",
      "version": 1,
      "changeset": 10350010,
      "user": "RocketMan",
      "uid": 381887,
      "tags": {
        "amenity": "bar",
        "name": "BBC"
      }
    },
    {
      "type": "node",
      "id": 1584460313,
      "lat": 12.9134648,
      "lon": 100.8711176,
      "timestamp": "2012-01-10T11:07:04Z",
      "version": 1,
      "changeset": 10350010,
      "user": "RocketMan",
      "uid": 381887,
      "tags": {
        "amenity": "bar",
        "name": "Tappaya Blues Bar"
      }
    },
    {
      "type": "node",
      "id": 1584469426,
      "lat": 12.9120382,
      "lon": 100.8695616,
      "timestamp": "2015-05-30T16:27:43Z",
      "version": 3,
      "changeset": 31587835,
      "user": "RocketMan",
      "uid": 381887,
      "tags": {
        "amenity": "bar",
        "name": "Bobby's Pattaya"
      }
    },
    {
      "type": "node",
      "id": 1585836214,
      "lat": 12.9289843,
      "lon": 100.8850254,
      "timestamp": "2023-08-28T12:03:24Z",
      "version": 12,
      "changeset": 140491611,
      "user": "OSM-Bastler",
      "uid": 670134,
      "tags": {
        "amenity": "bar",
        "name": "JuJu Nightclub"
      }
    },
    {
      "type": "node",
      "id": 1589184479,
      "lat": 12.9380806,
      "lon": 100.8940024,
      "timestamp": "2019-09-17T22:45:18Z",
      "version": 4,
      "changeset": 74600843,
      "user": "nutchayahongvilai",
      "uid": 10028134,
      "tags": {
        "amenity": "bar",
        "name": "Outdoor Club"
      }
    },
    {
      "type": "node",
      "id": 1592534372,
      "lat": 12.9013537,
      "lon": 100.8686576,
      "timestamp": "2015-05-04T16:44:50Z",
      "version": 3,
      "changeset": 30784189,
      "user": "nhdr",
      "uid": 1966781,
      "tags": {
        "amenity": "bar",
        "name": "2 Donna Bar"
      }
    },
    {
      "type": "node",
      "id": 1592534377,
      "lat": 12.9008497,
      "lon": 100.8687397,
      "timestamp": "2015-05-04T16:44:37Z",
      "version": 3,
      "changeset": 30784189,
      "user": "nhdr",
      "uid": 1966781,
      "tags": {
        "amenity": "bar",
        "name": "The Winner Bar"
      }
    },
    {
      "type": "node",
      "id": 1592534395,
      "lat": 12.9013792,
      "lon": 100.8691118,
      "timestamp": "2015-05-04T16:44:35Z",
      "version": 2,
      "changeset": 30784189,
      "user": "nhdr",
      "uid": 1966781,
      "tags": {
        "amenity": "bar",
        "name": "Pour House"
      }
    },
    {
      "type": "node",
      "id": 1592534404,
      "lat": 12.9014666,
      "lon": 100.8695833,
      "timestamp": "2015-05-11T12:49:49Z",
      "version": 4,
      "changeset": 31006486,
      "user": "RocketMan",
      "uid": 381887,
      "tags": {
        "amenity": "bar",
        "name": "Three Roses"
      }
    },
    {
      "type": "node",
      "id": 1592540702,
      "lat": 12.9005523,
      "lon": 100.8683316,
      "timestamp": "2015-05-04T16:44:34Z",
      "version": 4,
      "changeset": 30784189,
      "user": "nhdr",
      "uid": 1966781,
      "tags": {
        "amenity": "bar",
        "name": "Hot Legs"
      }
    },
    {
      "type": "node",
      "id": 1592540712,
      "lat": 12.9003877,
      "lon": 100.8681764,
      "timestamp": "2015-05-04T16:44:33Z",
      "version": 3,
      "changeset": 30784189,
      "user": "nhdr",
      "uid": 1966781,
      "tags": {
        "amenity": "bar",
        "name": "Drink Cafe Inn"
      }
    },
    {
      "type": "node",
      "id": 1592540715,
      "lat": 12.9003208,
      "lon": 100.8685076,
      "timestamp": "2015-05-04T16:44:36Z",
      "version": 4,
      "changeset": 30784189,
      "user": "nhdr",
      "uid": 1966781,
      "tags": {
        "amenity": "pub",
        "name": "The Muck Duck Pub"
      }
    },
    {
      "type": "node",
      "id": 1592540723,
      "lat": 12.9003967,
      "lon": 100.868446,
      "timestamp": "2015-05-04T16:44:33Z",
      "version": 5,
      "changeset": 30784189,
      "user": "nhdr",
      "uid": 1966781,
      "tags": {
        "amenity": "pub",
        "cuisine": "international",
        "name": "Dick's Cafe"
      }
    },
    {
      "type": "node",
      "id": 1592540725,
      "lat": 12.9018613,
      "lon": 100.8689407,
      "timestamp": "2016-10-18T06:04:38Z",
      "version": 7,
      "changeset": 42975463,
      "user": "wuttinun satidpume",
      "uid": 4537706,
      "tags": {
        "amenity": "bar",
        "name": "QM Bar",
        "name:th": "เควสชั่นมาร์ค"
      }
    },
    {
      "type": "node",
      "id": 1597520234,
      "lat": 13.8395442,
      "lon": 100.5733728,
      "timestamp": "2012-12-09T01:55:54Z",
      "version": 4,
      "changeset": 14208062,
      "user": "Johnny Carlsen",
      "uid": 38985,
      "tags": {
        "amenity": "bar",
        "name:en": "Bann Phoen"
      }
    },
    {
      "type": "node",
      "id": 1598679846,
      "lat": 12.9539032,
      "lon": 100.889743,
      "timestamp": "2016-07-03T13:22:49Z",
      "version": 2,
      "changeset": 40458408,
      "user": "QWE1234",
      "uid": 3045274,
      "tags": {
        "amenity": "bar",
        "name": "Strip Bar"
      }
    },
    {
      "type": "node",
      "id": 1598679847,
      "lat": 12.9538658,
      "lon": 100.8897148,
      "timestamp": "2016-07-03T13:22:48Z",
      "version": 3,
      "changeset": 40458408,
      "user": "QWE1234",
      "uid": 3045274,
      "tags": {
        "amenity": "bar",
        "name": "Nice Bar",
        "wheelchair": "limited"
      }
    },
    {
      "type": "node",
      "id": 1598679851,
      "lat": 12.9535908,
      "lon": 100.8891771,
      "timestamp": "2023-10-30T12:43:04Z",
      "version": 6,
      "changeset": 143363894,
      "user": "b-jazz-bot",
      "uid": 9451067,
      "tags": {
        "amenity": "bar",
        "name": "Barracuda Bar",
        "website": "https://www.barracudabar-pattaya.com/",
        "wheelchair": "limited"
      }
    },
    {
      "type": "node",
      "id": 1598679852,
      "lat": 12.953482,
      "lon": 100.8894762,
      "timestamp": "2016-07-04T13:43:17Z",
      "version": 2,
      "changeset": 40479085,
      "user": "QWE1234",
      "uid": 3045274,
      "tags": {
        "amenity": "bar",
        "name": "Honey Bar 2"
      }
    },
    {
      "type": "node",
      "id": 1598679854,
      "lat": 12.9538284,
      "lon": 100.8896866,
      "timestamp": "2016-07-03T13:22:48Z",
      "version": 3,
      "changeset": 40458408,
      "user": "QWE1234",
      "uid": 3045274,
      "tags": {
        "amenity": "bar",
        "name": "New Lucky Beer Bar",
        "wheelchair": "limited"
      }
    },
    {
      "type": "node",
      "id": 1598679856,
      "lat": 12.9537535,
      "lon": 100.8896303,
      "timestamp": "2016-07-03T13:22:48Z",
      "version": 3,
      "changeset": 40458408,
      "user": "QWE1234",
      "uid": 3045274,
      "tags": {
        "amenity": "bar",
        "name": "Bamboo Beer Bar 1",
        "wheelchair": "limited"
      }
    },
    {
      "type": "node",
      "id": 1598679858,
      "lat": 12.953791,
      "lon": 100.8896585,
      "timestamp": "2016-07-03T13:22:49Z",
      "version": 2,
      "changeset": 40458408,
      "user": "QWE1234",
      "uid": 3045274,
      "tags": {
        "amenity": "bar",
        "name": "Ta & Bu Beer Bar"
      }
    },
    {
      "type": "node",
      "id": 1598709813,
      "lat": 12.9550166,
      "lon": 100.8901867,
      "timestamp": "2016-07-04T13:53:01Z",
      "version": 5,
      "changeset": 40479288,
      "user": "QWE1234",
      "uid": 3045274,
      "tags": {
        "amenity": "bar",
        "name": "Dream Bar",
        "wheelchair": "limited"
      }
    },
    {
      "type": "node",
      "id": 1598709817,
      "lat": 12.9550651,
      "lon": 100.8902224,
      "timestamp": "2018-09-14T14:59:56Z",
      "version": 5,
      "changeset": 62585745,
      "user": "Cheeup",
      "uid": 8822608,
      "tags": {
        "addr:postcode": "20150",
        "addr:street": "ถนนพัทยาเหนือนาเกลือ",
        "amenity": "bar",
        "internet_access": "wlan",
        "name": "ไทเกอร์บาร์แอนด์เกสท์เฮาส์",
        "name:en": "Tiger bar and Guesthouse",
        "name:fr": "Tiger bar and guesthouse",
        "opening_hours": "Mo-Su 14:00-03:00"
      }
    },
    {
      "type": "node",
      "id": 1598711801,
      "lat": 12.9549597,
      "lon": 100.8901444,
      "timestamp": "2016-07-04T13:53:01Z",
      "version": 4,
      "changeset": 40479288,
      "user": "QWE1234",
      "uid": 3045274,
      "tags": {
        "amenity": "bar",
        "name": "Ryan's Bar",
        "wheelchair": "limited"
      }
    },
    {
      "type": "node",
      "id": 1598721144,
      "lat": 12.9562438,
      "lon": 100.8895323,
      "timestamp": "2015-12-10T10:50:48Z",
      "version": 3,
      "changeset": 35863001,
      "user": "QWE1234",
      "uid": 3045274,
      "tags": {
        "amenity": "bar",
        "name": "TJ Music Bar"
      }
    },
    {
      "type": "node",
      "id": 1598721152,
      "lat": 12.9558136,
      "lon": 100.8904381,
      "timestamp": "2015-12-10T10:43:30Z",
      "version": 2,
      "changeset": 35862889,
      "user": "QWE1234",
      "uid": 3045274,
      "tags": {
        "amenity": "pub",
        "name": "Kakadu Bar"
      }
    },
    {
      "type": "node",
      "id": 1598721173,
      "lat": 12.967005,
      "lon": 100.8846681,
      "timestamp": "2015-12-08T17:03:02Z",
      "version": 2,
      "changeset": 35830088,
      "user": "QWE1234",
      "uid": 3045274,
      "tags": {
        "amenity": "bar",
        "name": "Leo Blues Bar"
      }
    },
    {
      "type": "node",
      "id": 1598721176,
      "lat": 12.9559155,
      "lon": 100.890076,
      "timestamp": "2012-01-20T10:00:58Z",
      "version": 1,
      "changeset": 10444454,
      "user": "RocketMan",
      "uid": 381887,
      "tags": {
        "amenity": "bar",
        "name": "Linda Beer House"
      }
    },
    {
      "type": "node",
      "id": 1600800815,
      "lat": 12.9316421,
      "lon": 100.8794573,
      "timestamp": "2012-01-22T08:58:22Z",
      "version": 1,
      "changeset": 10462480,
      "user": "RocketMan",
      "uid": 381887,
      "tags": {
        "amenity": "bar",
        "name": "Tahitian Queen Rock and Roll"
      }
    },
    {
      "type": "node",
      "id": 1600804791,
      "lat": 12.9278214,
      "lon": 100.8773256,
      "timestamp": "2019-09-19T15:11:14Z",
      "version": 3,
      "changeset": 74679320,
      "user": "nutchayahongvilai",
      "uid": 10028134,
      "tags": {
        "amenity": "bar",
        "name": "Madam-T"
      }
    },
    {
      "type": "node",
      "id": 1600807665,
      "lat": 12.9264552,
      "lon": 100.8733177,
      "timestamp": "2014-05-07T13:33:36Z",
      "version": 2,
      "changeset": 22187769,
      "user": "RocketMan",
      "uid": 381887,
      "tags": {
        "amenity": "bar",
        "name": "The Moon Club"
      }
    },
    {
      "type": "node",
      "id": 1600807676,
      "lat": 12.926669,
      "lon": 100.8736263,
      "timestamp": "2014-05-18T17:47:36Z",
      "version": 2,
      "changeset": 22411036,
      "user": "RocketMan",
      "uid": 381887,
      "tags": {
        "amenity": "bar",
        "name": "V2O Ice Bar"
      }
    },
    {
      "type": "node",
      "id": 1600811946,
      "lat": 12.9261928,
      "lon": 100.8736003,
      "timestamp": "2023-10-27T04:16:32Z",
      "version": 5,
      "changeset": 143191148,
      "user": "OSM-Bastler",
      "uid": 670134,
      "tags": {
        "amenity": "bar",
        "name": "Lucky Carousel"
      }
    },
    {
      "type": "node",
      "id": 1600817344,
      "lat": 12.9262098,
      "lon": 100.8726424,
      "timestamp": "2014-05-07T13:33:36Z",
      "version": 2,
      "changeset": 22187769,
      "user": "RocketMan",
      "uid": 381887,
      "tags": {
        "amenity": "bar",
        "name": "Margarita Station"
      }
    },
    {
      "type": "node",
      "id": 1600817355,
      "lat": 12.9260056,
      "lon": 100.8725295,
      "timestamp": "2023-09-26T13:09:18Z",
      "version": 4,
      "changeset": 141774257,
      "user": "OSM-Bastler",
      "uid": 670134,
      "tags": {
        "amenity": "bar",
        "name": "Blue Sky III"
      }
    },
    {
      "type": "node",
      "id": 1600817377,
      "lat": 12.9261065,
      "lon": 100.8724044,
      "timestamp": "2012-01-22T09:18:16Z",
      "version": 1,
      "changeset": 10462480,
      "user": "RocketMan",
      "uid": 381887,
      "tags": {
        "amenity": "bar",
        "name": "Galaxy Cabaret"
      }
    },
    {
      "type": "node",
      "id": 1600826218,
      "lat": 12.9253354,
      "lon": 100.8710725,
      "timestamp": "2014-05-07T13:11:25Z",
      "version": 2,
      "changeset": 22187339,
      "user": "RocketMan",
      "uid": 381887,
      "tags": {
        "amenity": "bar",
        "name": "Club Abyzz"
      }
    },
    {
      "type": "node",
      "id": 1600826233,
      "lat": 12.9252071,
      "lon": 100.8706684,
      "timestamp": "2023-10-27T10:42:42Z",
      "version": 4,
      "changeset": 143205255,
      "user": "OSM-Bastler",
      "uid": 670134,
      "tags": {
        "amenity": "bar",
        "name": "Rolling Live Bar 2"
      }
    },
    {
      "type": "node",
      "id": 1600826235,
      "lat": 12.9250476,
      "lon": 100.8703169,
      "timestamp": "2023-09-26T13:43:14Z",
      "version": 4,
      "changeset": 141775567,
      "user": "OSM-Bastler",
      "uid": 670134,
      "tags": {
        "amenity": "bar",
        "name": "Utopia Rock House"
      }
    },
    {
      "type": "node",
      "id": 1602049704,
      "lat": 12.9001112,
      "lon": 100.8688649,
      "timestamp": "2015-07-07T19:27:29Z",
      "version": 4,
      "changeset": 32480886,
      "user": "RocketMan",
      "uid": 381887,
      "tags": {
        "amenity": "bar",
        "name": "Country Club"
      }
    },
    {
      "type": "node",
      "id": 1602049705,
      "lat": 12.9003486,
      "lon": 100.8691734,
      "timestamp": "2015-07-07T19:27:29Z",
      "version": 5,
      "changeset": 32480886,
      "user": "RocketMan",
      "uid": 381887,
      "tags": {
        "amenity": "bar",
        "name": "Flying Dolphines"
      }
    },
    {
      "type": "node",
      "id": 1602049706,
      "lat": 12.8993799,
      "lon": 100.8676437,
      "timestamp": "2016-06-03T10:43:50Z",
      "version": 5,
      "changeset": 39775900,
      "user": "QWE1234",
      "uid": 3045274,
      "tags": {
        "amenity": "bar",
        "name": "Country Road III"
      }
    },
    {
      "type": "node",
      "id": 1602054735,
      "lat": 12.897566,
      "lon": 100.8687152,
      "timestamp": "2015-05-20T11:57:50Z",
      "version": 2,
      "changeset": 31312788,
      "user": "RocketMan",
      "uid": 381887,
      "tags": {
        "amenity": "bar",
        "name": "Kobthong"
      }
    },
    {
      "type": "node",
      "id": 1602054741,
      "lat": 12.8970104,
      "lon": 100.8691577,
      "timestamp": "2015-05-16T09:20:15Z",
      "version": 2,
      "changeset": 31196365,
      "user": "RocketMan",
      "uid": 381887,
      "tags": {
        "amenity": "bar",
        "name": "Aew Beer Bar"
      }
    },
    {
      "type": "node",
      "id": 1602054744,
      "lat": 12.8972638,
      "lon": 100.8689035,
      "timestamp": "2016-04-06T19:26:17Z",
      "version": 4,
      "changeset": 38361094,
      "user": "fritzun",
      "uid": 3788910,
      "tags": {
        "amenity": "bar",
        "internet_access": "wlan",
        "name": "New Friends",
        "opening_hours": "Mo-Su 10:00-02:00"
      }
    },
    {
      "type": "node",
      "id": 1602054746,
      "lat": 12.8974343,
      "lon": 100.8687314,
      "timestamp": "2015-05-20T11:57:49Z",
      "version": 2,
      "changeset": 31312788,
      "user": "RocketMan",
      "uid": 381887,
      "tags": {
        "amenity": "bar",
        "name": "Blue Flower"
      }
    },
    {
      "type": "node",
      "id": 1602059395,
      "lat": 12.8979456,
      "lon": 100.8696894,
      "timestamp": "2015-05-20T11:57:50Z",
      "version": 2,
      "changeset": 31312788,
      "user": "RocketMan",
      "uid": 381887,
      "tags": {
        "amenity": "bar",
        "name": "Jaan-Jah"
      }
    },
    {
      "type": "node",
      "id": 1602059401,
      "lat": 12.8976489,
      "lon": 100.8694948,
      "timestamp": "2015-05-16T09:21:50Z",
      "version": 2,
      "changeset": 31196388,
      "user": "RocketMan",
      "uid": 381887,
      "tags": {
        "amenity": "bar",
        "name": "AC/DC"
      }
    },
    {
      "type": "node",
      "id": 1602064561,
      "lat": 12.8969593,
      "lon": 100.8698207,
      "timestamp": "2015-05-21T14:10:17Z",
      "version": 3,
      "changeset": 31343930,
      "user": "RocketMan",
      "uid": 381887,
      "tags": {
        "amenity": "pub",
        "cuisine": "western",
        "name": "Siam Cats"
      }
    },
    {
      "type": "node",
      "id": 1602064564,
      "lat": 12.8966888,
      "lon": 100.8694085,
      "timestamp": "2015-05-21T14:00:14Z",
      "version": 3,
      "changeset": 31343686,
      "user": "RocketMan",
      "uid": 381887,
      "tags": {
        "amenity": "bar",
        "name": "The Windmill"
      }
    },
    {
      "type": "node",
      "id": 1602064566,
      "lat": 12.8970573,
      "lon": 100.8699514,
      "timestamp": "2015-05-21T14:10:17Z",
      "version": 2,
      "changeset": 31343930,
      "user": "RocketMan",
      "uid": 381887,
      "tags": {
        "amenity": "bar",
        "name": "Eagle Bar"
      }
    },
    {
      "type": "node",
      "id": 1603311697,
      "lat": 12.8959488,
      "lon": 100.8710721,
      "timestamp": "2012-03-10T12:28:11Z",
      "version": 2,
      "changeset": 10931053,
      "user": "RocketMan",
      "uid": 381887,
      "tags": {
        "amenity": "bar",
        "name": "Toto and Lulu Beer Bar"
      }
    },
    {
      "type": "node",
      "id": 1603311702,
      "lat": 12.8955891,
      "lon": 100.8705819,
      "timestamp": "2015-05-17T12:03:29Z",
      "version": 2,
      "changeset": 31224795,
      "user": "RocketMan",
      "uid": 381887,
      "tags": {
        "amenity": "pub",
        "name": "Fifty-Four"
      }
    },
    {
      "type": "node",
      "id": 1603311708,
      "lat": 12.8956878,
      "lon": 100.870945,
      "timestamp": "2015-05-17T12:03:29Z",
      "version": 3,
      "changeset": 31224795,
      "user": "RocketMan",
      "uid": 381887,
      "tags": {
        "amenity": "bar",
        "name": "Roskilde"
      }
    },
    {
      "type": "node",
      "id": 1603311728,
      "lat": 12.895839,
      "lon": 100.8709326,
      "timestamp": "2012-03-10T12:28:11Z",
      "version": 2,
      "changeset": 10931053,
      "user": "RocketMan",
      "uid": 381887,
      "tags": {
        "amenity": "bar",
        "name": "Eagle Bar 2"
      }
    },
    {
      "type": "node",
      "id": 1603311733,
      "lat": 12.8956394,
      "lon": 100.8706673,
      "timestamp": "2015-05-17T12:03:29Z",
      "version": 2,
      "changeset": 31224795,
      "user": "RocketMan",
      "uid": 381887,
      "tags": {
        "amenity": "bar",
        "name": "Mama's Bar"
      }
    },
    {
      "type": "node",
      "id": 1603311737,
      "lat": 12.8958376,
      "lon": 100.8702094,
      "timestamp": "2015-05-17T11:30:40Z",
      "version": 2,
      "changeset": 31224025,
      "user": "RocketMan",
      "uid": 381887,
      "tags": {
        "amenity": "bar",
        "name": "Pupay Beer Bar"
      }
    },
    {
      "type": "node",
      "id": 1603311742,
      "lat": 12.8955764,
      "lon": 100.8707986,
      "timestamp": "2015-05-17T12:03:29Z",
      "version": 3,
      "changeset": 31224795,
      "user": "RocketMan",
      "uid": 381887,
      "tags": {
        "amenity": "bar",
        "name": "Tordenskjold"
      }
    },
    {
      "type": "node",
      "id": 1603311749,
      "lat": 12.895655,
      "lon": 100.8709014,
      "timestamp": "2015-05-17T12:03:29Z",
      "version": 3,
      "changeset": 31224795,
      "user": "RocketMan",
      "uid": 381887,
      "tags": {
        "amenity": "bar",
        "name": "Fungo Bar"
      }
    },
    {
      "type": "node",
      "id": 1603311753,
      "lat": 12.8956232,
      "lon": 100.8708603,
      "timestamp": "2015-05-17T12:03:28Z",
      "version": 3,
      "changeset": 31224795,
      "user": "RocketMan",
      "uid": 381887,
      "tags": {
        "amenity": "bar",
        "name": "Cowboy Bar"
      }
    },
    {
      "type": "node",
      "id": 1603311756,
      "lat": 12.895756,
      "lon": 100.8710335,
      "timestamp": "2015-05-17T12:03:29Z",
      "version": 3,
      "changeset": 31224795,
      "user": "RocketMan",
      "uid": 381887,
      "tags": {
        "amenity": "bar",
        "name": "Shooter"
      }
    },
    {
      "type": "node",
      "id": 1603311760,
      "lat": 12.8955967,
      "lon": 100.870822,
      "timestamp": "2015-05-17T12:03:29Z",
      "version": 3,
      "changeset": 31224795,
      "user": "RocketMan",
      "uid": 381887,
      "tags": {
        "amenity": "bar",
        "name": "Honsehuset Beer Bar"
      }
    },
    {
      "type": "node",
      "id": 1603318787,
      "lat": 12.8960443,
      "lon": 100.8702615,
      "timestamp": "2015-05-17T11:24:25Z",
      "version": 2,
      "changeset": 31223864,
      "user": "RocketMan",
      "uid": 381887,
      "tags": {
        "amenity": "bar",
        "name": "Angle Beer Bar"
      }
    },
    {
      "type": "node",
      "id": 1603318791,
      "lat": 12.8964693,
      "lon": 100.8708216,
      "timestamp": "2015-05-17T11:13:03Z",
      "version": 2,
      "changeset": 31223629,
      "user": "RocketMan",
      "uid": 381887,
      "tags": {
        "amenity": "bar",
        "name": "Easy Bar"
      }
    },
    {
      "type": "node",
      "id": 1603318792,
      "lat": 12.8965266,
      "lon": 100.870887,
      "timestamp": "2012-01-24T10:07:09Z",
      "version": 1,
      "changeset": 10482824,
      "user": "RocketMan",
      "uid": 381887,
      "tags": {
        "amenity": "bar",
        "name": "Tuk Bar"
      }
    },
    {
      "type": "node",
      "id": 1603318795,
      "lat": 12.8960184,
      "lon": 100.8702181,
      "timestamp": "2015-05-17T11:24:26Z",
      "version": 2,
      "changeset": 31223864,
      "user": "RocketMan",
      "uid": 381887,
      "tags": {
        "amenity": "bar",
        "name": "Tikky Beer Bar"
      }
    },
    {
      "type": "node",
      "id": 1603318796,
      "lat": 12.8960887,
      "lon": 100.8703476,
      "timestamp": "2015-05-17T11:36:36Z",
      "version": 3,
      "changeset": 31224142,
      "user": "RocketMan",
      "uid": 381887,
      "tags": {
        "amenity": "bar",
        "name": "On the Rocks Beer Bar"
      }
    },
    {
      "type": "node",
      "id": 1603325118,
      "lat": 12.8967742,
      "lon": 100.8712676,
      "timestamp": "2020-01-01T14:13:54Z",
      "version": 3,
      "changeset": 79082474,
      "user": "Matsa16",
      "uid": 10610318,
      "tags": {
        "amenity": "bar",
        "internet_access": "wlan",
        "name": "Ping Pong Beer Bar 2"
      }
    },