{
  "version": 0.6,
  "generator": "Overpass API 0.7.62.8 e802775f",
  "osm3s": {
    "timestamp_osm_base": "2025-10-23T19:56:30Z",
    "copyright": "The data included in this document is from www.openstreetmap.org. The data is made available under ODbL."
  },
  "elements": [
    {
      "type": "node",
      "id": 281437273,
      "lat": 15.2762703,
      "lon": -61.3742053,
      "timestamp": "2008-07-27T13:11:30Z",
      "version": 1,
      "changeset": 607822,
      "user": "chippy",
      "uid": 3114,
      "tags": {
        "amenity": "pub",
        "created_by": "Potlatch 0.10",
        "name": "Spider's"
      }
    },
    {
      "type": "node",
      "id": 301829249,
      "lat": 18.3141337,
      "lon": -64.6186469,
      "timestamp": "2012-04-06T06:05:11Z",
      "version": 2,
      "changeset": 11197020,
      "user": "dbusse",
      "uid": 149876,
      "tags": {
        "amenity": "pub",
        "name": "Willi-T"
      }
    },
    {
      "type": "node",
      "id": 361072127,
      "lat": 12.0076272,
      "lon": -61.7759201,
      "timestamp": "2025-03-15T22:24:28Z",
      "version": 4,
      "changeset": 163669649,
      "user": "free-ed",
      "uid": 13811319,
      "tags": {
        "amenity": "pub",
        "check_date": "2025-03-15",
        "name": "Quasi bar"
      }
    },
    {
      "type": "node",
      "id": 392964405,
      "lat": 12.0048318,
      "lon": -61.767747,
      "timestamp": "2016-02-06T04:17:41Z",
      "version": 9,
      "changeset": 37034644,
      "user": "Canyonsrcool",
      "uid": 126508,
      "tags": {
        "amenity": "bar",
        "name": "Bananas",
        "source": "KG Ground Survey 2015"
      }
    },
    {
      "type": "node",
      "id": 412322871,
      "lat": 17.1547396,
      "lon": -61.8489501,
      "timestamp": "2009-05-29T00:12:59Z",
      "version": 1,
      "changeset": 1347291,
      "user": "Nescum",
      "uid": 28756,
      "tags": {
        "amenity": "pub",
        "name": "Putters"
      }
    },
    {
      "type": "node",
      "id": 419828077,
      "lat": 17.1597906,
      "lon": -61.847055,
      "timestamp": "2009-06-13T18:20:22Z",
      "version": 1,
      "changeset": 1506672,
      "user": "Steve Chilton",
      "uid": 736,
      "tags": {
        "amenity": "bar",
        "name": "Tony's"
      }
    },
    {
      "type": "node",
      "id": 419828431,
      "lat": 17.1599546,
      "lon": -61.8469864,
      "timestamp": "2009-06-13T18:22:00Z",
      "version": 2,
      "changeset": 1506672,
      "user": "Steve Chilton",
      "uid": 736,
      "tags": {
        "amenity": "bar",
        "name": "Sneaky Pete's"
      }
    },
    {
      "type": "node",
      "id": 420028943,
      "lat": 17.0517561,
      "lon": -61.8969459,
      "timestamp": "2015-07-07T13:00:18Z",
      "version": 2,
      "changeset": 32471244,
      "user": "Zachy_P",
      "uid": 2149951,
      "tags": {
        "amenity": "bar",
        "name": "Dennis Cocktail Bar & Restaurant"
      }
    },
    {
      "type": "node",
      "id": 431390009,
      "lat": 10.8982009,
      "lon": -63.9642658,
      "timestamp": "2009-07-01T05:37:54Z",
      "version": 1,
      "changeset": 1697362,
      "user": "sparcuser",
      "uid": 138143,
      "tags": {
        "amenity": "pub"
      }
    },
    {
      "type": "node",
      "id": 539528566,
      "lat": 10.228217,
      "lon": -67.3232345,
      "timestamp": "2012-09-04T11:43:46Z",
      "version": 2,
      "changeset": 12980723,
      "user": "JRojas",
      "uid": 192354,
      "tags": {
        "amenity": "pub",
        "name": "Ven y Ven"
      }
    },
    {
      "type": "node",
      "id": 596649646,
      "lat": 18.4738763,
      "lon": -69.8835025,
      "timestamp": "2020-02-25T16:38:23Z",
      "version": 7,
      "changeset": 81464292,
      "user": "DanielFig",
      "uid": 8246041,
      "tags": {
        "amenity": "bar",
        "internet_access": "wlan",
        "name": "Fenix bar",
        "wheelchair": "yes"
      }
    },
    {
      "type": "node",
      "id": 705918748,
      "lat": 12.0194449,
      "lon": -61.7097198,
      "timestamp": "2012-08-31T18:58:28Z",
      "version": 3,
      "changeset": 12934693,
      "user": "aighes",
      "uid": 110639,
      "tags": {
        "amenity": "bar",
        "name": "Aubrey's"
      }
    },
    {
      "type": "node",
      "id": 828113799,
      "lat": 18.4590917,
      "lon": -69.9118952,
      "timestamp": "2012-07-17T19:22:21Z",
      "version": 5,
      "changeset": 12270747,
      "user": "ALCE Samuel Paul",
      "uid": 441065,
      "tags": {
        "amenity": "pub"
      }
    },
    {
      "type": "node",
      "id": 864242516,
      "lat": 18.4005674,
      "lon": -66.0517465,
      "timestamp": "2021-03-12T23:57:59Z",
      "version": 3,
      "changeset": 100937749,
      "user": "clay_c",
      "uid": 119881,
      "tags": {
        "amenity": "bar",
        "name": "El Boricua",
        "website": "https://instagram.com/elboricuariopiedras/"
      }
    },
    {
      "type": "node",
      "id": 864865571,
      "lat": 18.4030283,
      "lon": -66.0546291,
      "timestamp": "2016-04-30T18:58:15Z",
      "version": 2,
      "changeset": 39004551,
      "user": "Raulopr",
      "uid": 3899861,
      "tags": {
        "amenity": "bar",
        "name": "El Ocho de Blanco"
      }
    },
    {
      "type": "node",
      "id": 864865629,
      "lat": 18.4030298,
      "lon": -66.0547835,
      "timestamp": "2016-05-01T11:51:21Z",
      "version": 3,
      "changeset": 39015201,
      "user": "vramirez122000",
      "uid": 15027,
      "tags": {
        "amenity": "bar",
        "name": "El Vidy's Cafe"
      }
    },
    {
      "type": "node",
      "id": 887583792,
      "lat": 18.4032471,
      "lon": -66.0555334,
      "timestamp": "2016-04-30T18:52:06Z",
      "version": 2,
      "changeset": 39004516,
      "user": "edithmarie12",
      "uid": 3897614,
      "tags": {
        "addr:housenumber": "111",
        "addr:street": "Avenida Universidad",
        "amenity": "bar",
        "name": "Orale Guey"
      }
    },
    {
      "type": "node",
      "id": 911198717,
      "lat": 18.3575842,
      "lon": -67.2687331,
      "timestamp": "2022-02-06T19:16:00Z",
      "version": 3,
      "changeset": 117091680,
      "user": "navision",
      "uid": 3084865,
      "tags": {
        "addr:street": "PR-4413",
        "amenity": "pub",
        "contact:facebook": "https://www.facebook.com/caddyscalypsocafe/",
        "contact:phone": "+1-787-823-1626",
        "contact:website": "https://www.calypsocaferincon.com/",
        "name": "Caddy's Calypso Café",
        "opening_hours": "Mo-We 12:00-22:00; Th 12:00-20:00; Fr 12:00-23:00; Sa 12:00-23:00; Su 12:00-20:00"
      }
    },
    {
      "type": "node",
      "id": 976831687,
      "lat": 17.1651777,
      "lon": -61.8036891,
      "timestamp": "2010-11-04T20:34:37Z",
      "version": 1,
      "changeset": 6291513,
      "user": "markinldn",
      "uid": 360370,
      "tags": {
        "amenity": "pub",
        "name": "Beehive"
      }
    },
    {
      "type": "node",
      "id": 993915191,
      "lat": 15.5936387,
      "lon": -61.3449941,
      "timestamp": "2010-11-18T20:21:55Z",
      "version": 2,
      "changeset": 6402728,
      "user": "JImmy Mac",
      "uid": 305716,
      "tags": {
        "amenity": "pub",
        "tourism": "picnic_site"
      }
    },
    {
      "type": "node",
      "id": 998753477,
      "lat": 18.3304848,
      "lon": -64.7958759,
      "timestamp": "2017-04-10T18:22:04Z",
      "version": 3,
      "changeset": 47633324,
      "user": "Chris Pye",
      "uid": 5647808,
      "tags": {
        "amenity": "bar",
        "name": "The Beach Bar"
      }
    },
    {
      "type": "node",
      "id": 1000297456,
      "lat": 18.3306806,
      "lon": -64.7957025,
      "timestamp": "2017-04-10T18:22:05Z",
      "version": 2,
      "changeset": 47633324,
      "user": "Chris Pye",
      "uid": 5647808,
      "tags": {
        "amenity": "bar",
        "name": "Joe's Rum Hut"
      }
    },
    {
      "type": "node",
      "id": 1000300932,
      "lat": 18.330399,
      "lon": -64.7952607,
      "timestamp": "2017-04-10T18:22:04Z",
      "version": 3,
      "changeset": 47633324,
      "user": "Chris Pye",
      "uid": 5647808,
      "tags": {
        "amenity": "pub",
        "name": "420 to Center",
        "smoking": "outside"
      }
    },
    {
      "type": "node",
      "id": 1000307448,
      "lat": 18.3328028,
      "lon": -64.7918982,
      "timestamp": "2017-04-10T18:22:04Z",
      "version": 2,
      "changeset": 47633324,
      "user": "Chris Pye",
      "uid": 5647808,
      "tags": {
        "amenity": "pub",
        "name": "The Tap Room - St John Brewers"
      }
    },
    {
      "type": "node",
      "id": 1000309070,
      "lat": 18.3325303,
      "lon": -64.7922602,
      "timestamp": "2017-04-10T18:22:04Z",
      "version": 2,
      "changeset": 47633324,
      "user": "Chris Pye",
      "uid": 5647808,
      "tags": {
        "amenity": "bar",
        "name": "Gecko Gazebo Bar"
      }
    },
    {
      "type": "node",
      "id": 1134911676,
      "lat": 10.1628448,
      "lon": -68.90463,
      "timestamp": "2012-09-08T17:52:13Z",
      "version": 3,
      "changeset": 13036158,
      "user": "JRojas",
      "uid": 192354,
      "tags": {
        "amenity": "pub",
        "name": "Club Campestre"
      }
    },
    {
      "type": "node",
      "id": 1177890320,
      "lat": 18.4734265,
      "lon": -69.8891367,
      "timestamp": "2012-07-16T04:31:31Z",
      "version": 3,
      "changeset": 12239334,
      "user": "jaakkoh",
      "uid": 24440,
      "tags": {
        "amenity": "bar",
        "name": "le studio"
      }
    },
    {
      "type": "node",
      "id": 1203099573,
      "lat": 18.506376,
      "lon": -69.99685,
      "timestamp": "2011-03-15T14:48:03Z",
      "version": 1,
      "changeset": 7566883,
      "user": "Hector Garcia",
      "uid": 422475,
      "tags": {
        "amenity": "pub",
        "name": "Almacen ROMSA",
        "source": "survey"
      }
    },
    {
      "type": "node",
      "id": 1203123612,
      "lat": 18.528735,
      "lon": -69.998198,
      "timestamp": "2011-03-15T15:04:31Z",
      "version": 1,
      "changeset": 7566883,
      "user": "Hector Garcia",
      "uid": 422475,
      "tags": {
        "amenity": "pub",
        "name": "Laboratorios ROWE",
        "source": "survey"
      }
    },
    {
      "type": "node",
      "id": 1239264687,
      "lat": 18.4709432,
      "lon": -69.8842434,
      "timestamp": "2012-07-16T04:30:52Z",
      "version": 3,
      "changeset": 12239334,
      "user": "jaakkoh",
      "uid": 24440,
      "tags": {
        "amenity": "bar",
        "name": "Fuse Bar"
      }
    },
    {
      "type": "node",
      "id": 1239450971,
      "lat": 18.4731518,
      "lon": -69.8911231,
      "timestamp": "2012-07-16T04:30:25Z",
      "version": 3,
      "changeset": 12239334,
      "user": "jaakkoh",
      "uid": 24440,
      "tags": {
        "amenity": "bar",
        "name": "Altagracia Delivery",
        "source": "CNIGS/IPGH"
      }
    },
    {
      "type": "node",
      "id": 1264199606,
      "lat": 17.0969512,
      "lon": -61.6840053,
      "timestamp": "2015-05-07T20:06:13Z",
      "version": 2,
      "changeset": 30884087,
      "user": "Scroggsie",
      "uid": 555600,
      "tags": {
        "amenity": "bar",
        "name": "Pool Bar"
      }
    },
    {
      "type": "node",
      "id": 1271420534,
      "lat": 17.1206065,
      "lon": -61.8677502,
      "timestamp": "2011-05-03T19:38:01Z",
      "version": 1,
      "changeset": 8042442,
      "user": "DouglasANU",
      "uid": 151524,
      "tags": {
        "amenity": "bar",
        "name": "Pensioners Corner"
      }
    },
    {
      "type": "node",
      "id": 1317612879,
      "lat": 10.253018,
      "lon": -61.461123,
      "timestamp": "2018-08-05T23:28:19Z",
      "version": 3,
      "changeset": 61386015,
      "user": "Cardenas Miguel",
      "uid": 8648221,
      "tags": {
        "addr:city": "SAN FERNANDO",
        "addr:country": "TT",
        "addr:housenumber": "10",
        "addr:street": "SIPARIA ERIN RD",
        "amenity": "bar",
        "name": "DIPS Restaurant and Bar"
      }
    },
    {
      "type": "node",
      "id": 1318070936,
      "lat": 10.274721,
      "lon": -61.46074,
      "timestamp": "2016-11-15T11:39:15Z",
      "version": 4,
      "changeset": 43668209,
      "user": "Kenrick Alexander",
      "uid": 4836407,
      "tags": {
        "addr:city": "San Fernando",
        "addr:country": "TT",
        "addr:housenumber": "34",
        "addr:street": "Cipero Street",
        "amenity": "bar"
      }
    },
    {
      "type": "node",
      "id": 1318106069,
      "lat": 10.6453957,
      "lon": -61.4094526,
      "timestamp": "2019-03-10T06:01:26Z",
      "version": 6,
      "changeset": 67979160,
      "user": "audiob",
      "uid": 394852,
      "tags": {
        "addr:city": "Curepe",
        "addr:country": "TT",
        "addr:housenumber": "59",
        "addr:street": "Southern Main Road",
        "amenity": "bar",
        "brewery": "yes",
        "name": "Session Bar And Lounge",
        "opening_hours": "24/7",
        "outdoor_seating": "yes",
        "payment:cash": "yes",
        "payment:debit_cards": "yes"
      }
    },
    {
      "type": "node",
      "id": 1318143310,
      "lat": 10.641453,
      "lon": -61.279495,
      "timestamp": "2024-02-01T23:53:11Z",
      "version": 4,
      "changeset": 146965606,
      "user": "Kenrick Driggs Jr",
      "uid": 12511550,
      "tags": {
        "addr:city": "ARIMA",
        "addr:country": "TT",
        "addr:housenumber": "4",
        "addr:street": "Eastern Main Road",
        "amenity": "bar",
        "name": "Status Bar"
      }
    },
    {
      "type": "node",
      "id": 1318194681,
      "lat": 10.6315289,
      "lon": -61.4440347,
      "timestamp": "2021-10-10T02:05:40Z",
      "version": 4,
      "changeset": 112319033,
      "user": "HubMiner",
      "uid": 238419,
      "tags": {
        "addr:city": "SAN JUAN",
        "addr:country": "TT",
        "addr:housenumber": "57",
        "addr:street": "El socorro Aranguez  Access Road",
        "amenity": "bar",
        "name": "Kash Highway Bar",
        "opening_hours": "08:00-12:00",
        "outdoor_seating": "yes",
        "smoking": "outside"
      }
    },
    {
      "type": "node",
      "id": 1327406179,
      "lat": 10.495936,
      "lon": -61.408268,
      "timestamp": "2016-09-01T16:04:52Z",
      "version": 4,
      "changeset": 41852376,
      "user": "Mark Santana",
      "uid": 4497117,
      "tags": {
        "addr:city": "CHAGUANAS",
        "addr:country": "TT",
        "addr:housenumber": "166",
        "addr:street": "Southern Main Road",
        "amenity": "bar",
        "name": "Toco's Rest. & Bar w Lotto"
      }
    },
    {
      "type": "node",
      "id": 1327468088,
      "lat": 10.278503,
      "lon": -61.268371,
      "timestamp": "2014-10-26T19:26:08Z",
      "version": 3,
      "changeset": 26348269,
      "user": "wkc",
      "uid": 476555,
      "tags": {
        "addr:city": "TABLELAND",
        "addr:country": "TT",
        "addr:street": "NAPARIMA MAYARO RD",
        "amenity": "bar",
        "name": "Sonny's Bar"
      }
    },
    {
      "type": "node",
      "id": 1327475163,
      "lat": 10.2781719,
      "lon": -61.2683271,
      "timestamp": "2016-06-23T22:55:33Z",
      "version": 4,
      "changeset": 40246784,
      "user": "Daryl Harrilal",
      "uid": 4158150,
      "tags": {
        "addr:city": "TABLELAND",
        "addr:country": "TT",
        "addr:housenumber": "1176",
        "addr:street": "SEVENTH AVE",
        "amenity": "bar",
        "name": "Puntai's Bar"
      }
    },
    {
      "type": "node",
      "id": 1327507983,
      "lat": 10.6485205,
      "lon": -61.3541528,
      "timestamp": "2021-02-22T02:12:45Z",
      "version": 8,
      "changeset": 99705879,
      "user": "Mxdanger",
      "uid": 7152372,
      "tags": {
        "addr:city": "TACARIGUA",
        "addr:country": "TT",
        "addr:housenumber": "Lp 2",
        "addr:street": "Balgobin Street",
        "amenity": "bar",
        "contact:facebook": "https://www.facebook.com/HuttShuttsBar/",
        "food": "yes",
        "name": "Hutt Shutts Sports Bar",
        "website": "http://www.huttshutts.net/"
      }
    },
    {
      "type": "node",
      "id": 1327515263,
      "lat": 10.836345,
      "lon": -60.941978,
      "timestamp": "2017-02-18T17:06:08Z",
      "version": 3,
      "changeset": 46197226,
      "user": "Kinz",
      "uid": 5341294,
      "tags": {
        "addr:city": "TOCO",
        "addr:country": "TT",
        "addr:housenumber": "177",
        "addr:street": "PARIA MAIN RD",
        "amenity": "bar"
      }
    },
    {
      "type": "node",
      "id": 1327715101,
      "lat": 10.3034137,
      "lon": -61.4499718,
      "timestamp": "2012-01-25T18:34:12Z",
      "version": 5,
      "changeset": 10496254,
      "user": "9Y-TRI",
      "uid": 565082,
      "tags": {
        "addr:city": "MARABELLA",
        "addr:country": "TT",
        "addr:street": "Southern Main Road",
        "amenity": "bar",
        "name": "Foxys"
      }
    },
    {
      "type": "node",
      "id": 1327721428,
      "lat": 10.653568,
      "lon": -61.4517,
      "timestamp": "2016-07-29T09:35:31Z",
      "version": 4,
      "changeset": 41103864,
      "user": "David Wears",
      "uid": 4336749,
      "tags": {
        "addr:city": "San Juan",
        "addr:country": "TT",
        "addr:housenumber": "59",
        "addr:street": "Mission Rd",
        "amenity": "bar",
        "cuisine": "indian",
        "name": "Patrick's Bar & Channa Bar",
        "opening_hours": "Mo-Sa 10:00-21:00"
      }
    },
    {
      "type": "node",
      "id": 1339969596,
      "lat": 18.7151883,
      "lon": -68.4492405,
      "timestamp": "2019-11-13T20:52:22Z",
      "version": 2,
      "changeset": 77038118,
      "user": "Avocadough!",
      "uid": 6967122,
      "tags": {
        "amenity": "bar"
      }
    },
    {
      "type": "node",
      "id": 1345714815,
      "lat": 10.6505362,
      "lon": -61.4094285,
      "timestamp": "2012-08-08T00:40:43Z",
      "version": 4,
      "changeset": 12652317,
      "user": "wkc",
      "uid": 476555,
      "tags": {
        "addr:country": "TT",
        "addr:street": "Sellier Street",
        "amenity": "bar",
        "fixme": "check name and address",
        "name": "Kinshasha's"
      }
    },
    {
      "type": "node",
      "id": 1373723010,
      "lat": 10.225935,
      "lon": -67.3436091,
      "timestamp": "2011-07-25T12:17:17Z",
      "version": 1,
      "changeset": 8825663,
      "user": "JRojas",
      "uid": 192354,
      "tags": {
        "amenity": "bar"
      }
    },
    {
      "type": "node",
      "id": 1420471111,
      "lat": 18.3704082,
      "lon": -67.2577419,
      "timestamp": "2016-07-05T14:28:56Z",
      "version": 2,
      "changeset": 40501404,
      "user": "igeopr",
      "uid": 732590,
      "tags": {
        "amenity": "bar",
        "name": "Tamboo Tavern"
      }
    },
    {
      "type": "node",
      "id": 1454564785,
      "lat": 10.6501818,
      "lon": -61.4370928,
      "timestamp": "2011-10-04T02:16:47Z",
      "version": 2,
      "changeset": 9465960,
      "user": "lovejahman",
      "uid": 466025,
      "tags": {
        "amenity": "pub"
      }
    },
    {
      "type": "node",
      "id": 1454569494,
      "lat": 10.649225,
      "lon": -61.4370366,
      "timestamp": "2017-02-22T23:22:45Z",
      "version": 2,
      "changeset": 46322355,
      "user": "henderson andrews",
      "uid": 5333134,
      "tags": {
        "addr:housenumber": "#1",
        "addr:street": "Mt Lambert Circular Rd",
        "amenity": "bar",
        "internet_access": "wlan",
        "name": "Willo's Sports Bar",
        "name:en": "Willo's Sports Bar"
      }
    },
    {
      "type": "node",
      "id": 1454569495,
      "lat": 10.6487399,
      "lon": -61.4372351,
      "timestamp": "2011-10-04T02:16:46Z",
      "version": 1,
      "changeset": 9465960,
      "user": "lovejahman",
      "uid": 466025,
      "tags": {
        "amenity": "pub"
      }
    },
    {
      "type": "node",
      "id": 1454569496,
      "lat": 10.6487188,
      "lon": -61.4370634,
      "timestamp": "2011-10-04T02:16:46Z",
      "version": 1,
      "changeset": 9465960,
      "user": "lovejahman",
      "uid": 466025,
      "tags": {
        "amenity": "pub",
        "name": "baker bar"
      }
    },
    {
      "type": "node",
      "id": 1454575154,
      "lat": 10.6510016,
      "lon": -61.4428409,
      "timestamp": "2011-10-04T02:23:31Z",
      "version": 1,
      "changeset": 9465960,
      "user": "lovejahman",
      "uid": 466025,
      "tags": {
        "amenity": "bar"
      }
    },
    {
      "type": "node",
      "id": 1454575156,
      "lat": 10.6507411,
      "lon": -61.4449001,
      "timestamp": "2015-09-19T00:50:14Z",
      "version": 5,
      "changeset": 34113657,
      "user": "Salim Mohamed",
      "uid": 3229538,
      "tags": {
        "amenity": "bar",
        "name": "Soo Ping Chow Liquormart"
      }
    },
    {
      "type": "node",
      "id": 1486309157,
      "lat": 10.6614274,
      "lon": -61.5180048,
      "timestamp": "2015-12-26T15:02:39Z",
      "version": 2,
      "changeset": 36178043,
      "user": "recinutah",
      "uid": 3231510,
      "tags": {
        "addr:city": "Port of Spain",
        "addr:street": "Tragarete Road",
        "amenity": "bar",
        "name": "Monix Lounge and Bar",
        "source": "KG Ground Survey 2015"
      }
    },
    {
      "type": "node",
      "id": 1494846415,
      "lat": 10.6513512,
      "lon": -61.2042071,
      "timestamp": "2011-11-08T01:01:47Z",
      "version": 1,
      "changeset": 9770190,
      "user": "wkc",
      "uid": 476555,
      "tags": {
        "amenity": "bar",
        "name": "New Ponderosa Bar and Gril"
      }
    },
    {
      "type": "node",
      "id": 1494846416,
      "lat": 10.6521653,
      "lon": -61.203223,
      "timestamp": "2011-11-08T01:01:47Z",
      "version": 1,
      "changeset": 9770190,
      "user": "wkc",
      "uid": 476555,
      "tags": {
        "amenity": "pub",
        "fixme": "check name",
        "name": "Ramesh Falls Pub"
      }
    },
    {
      "type": "node",
      "id": 1511752907,
      "lat": 15.4321564,
      "lon": -61.4360848,
      "timestamp": "2011-11-21T17:46:53Z",
      "version": 1,
      "changeset": 9899592,
      "user": "Trans-Ocean Dominica",
      "uid": 279041,
      "tags": {
        "amenity": "bar"
      }
    },
    {
      "type": "node",
      "id": 1514592346,
      "lat": 18.3423678,
      "lon": -67.2569093,
      "timestamp": "2022-01-17T13:08:23Z",
      "version": 2,
      "changeset": 116254074,
      "user": "navision",
      "uid": 3084865,
      "tags": {
        "amenity": "bar",
        "name": "Harbor Restaurant Bar"
      }
    },
    {
      "type": "node",
      "id": 1526206579,
      "lat": 10.6447673,
      "lon": -61.4623065,
      "timestamp": "2017-03-03T05:08:30Z",
      "version": 2,
      "changeset": 46539605,
      "user": "henderson andrews",
      "uid": 5333134,
      "tags": {
        "amenity": "bar",
        "fixme": "Check name",
        "internet_access": "wlan",
        "name": "Nari's Bar"
      }
    },
    {
      "type": "node",
      "id": 1529660617,
      "lat": 10.6452252,
      "lon": -61.3917421,
      "timestamp": "2011-12-20T14:12:32Z",
      "version": 2,
      "changeset": 10163872,
      "user": "wkc",
      "uid": 476555,
      "tags": {
        "addr:city": "Tunapuna",
        "addr:country": "TT",
        "addr:street": "Eastern Main Road",
        "amenity": "bar",
        "name": "Bar 1"
      }
    },
    {
      "type": "node",
      "id": 1529660664,
      "lat": 10.6461111,
      "lon": -61.3822819,
      "timestamp": "2011-12-03T16:10:05Z",
      "version": 1,
      "changeset": 10025899,
      "user": "wkc",
      "uid": 476555,
      "tags": {
        "addr:city": "Tunapuna",
        "addr:country": "TT",
        "addr:street": "Eastern Main Road",
        "amenity": "bar",
        "name": "Darling's Bar"
      }
    },
    {
      "type": "node",
      "id": 1529660829,
      "lat": 10.6455389,
      "lon": -61.3959572,
      "timestamp": "2016-06-07T20:10:56Z",
      "version": 3,
      "changeset": 39870636,
      "user": "Allan Joefield",
      "uid": 4076543,
      "tags": {
        "addr:street": "Saint John's Road",
        "amenity": "bar",
        "name": "Trevor's Edge"
      }
    },
    {
      "type": "node",
      "id": 1535084068,
      "lat": 10.6343006,
      "lon": -61.3308407,
      "timestamp": "2011-12-07T09:53:53Z",
      "version": 1,
      "changeset": 10056283,
      "user": "wkc",
      "uid": 476555,
      "tags": {
        "amenity": "bar",
        "name": "Birdnest Bar"
      }
    },
    {
      "type": "node",
      "id": 1537657850,
      "lat": 10.2330472,
      "lon": -67.545524,
      "timestamp": "2011-12-09T02:10:46Z",
      "version": 1,
      "changeset": 10070177,
      "user": "JRojas",
      "uid": 192354,
      "tags": {
        "amenity": "pub"
      }
    },
    {
      "type": "node",
      "id": 1542851490,
      "lat": 10.266591,
      "lon": -61.4656411,
      "timestamp": "2012-07-03T12:49:10Z",
      "version": 5,
      "changeset": 12099476,
      "user": "DM-Trini-David",
      "uid": 421931,
      "tags": {
        "addr:street": "Riverside Road",
        "amenity": "bar",
        "name": "Skyy View Lounge",
        "wifi": "no"
      }
    },
    {
      "type": "node",
      "id": 1543152234,
      "lat": 10.2571446,
      "lon": -61.4705797,
      "timestamp": "2012-05-23T13:03:09Z",
      "version": 3,
      "changeset": 11680770,
      "user": "DM-Trini-David",
      "uid": 421931,
      "tags": {
        "addr:city": "La Romain",
        "addr:street": "Rahaman Development",
        "amenity": "bar",
        "name": "Space NightClub"
      }
    },
    {
      "type": "node",
      "id": 1545481473,
      "lat": 10.6404522,
      "lon": -61.284537,
      "timestamp": "2015-12-11T05:52:54Z",
      "version": 3,
      "changeset": 35878235,
      "user": "POSTMETA",
      "uid": 3045037,
      "tags": {
        "addr:city": "Arima",
        "addr:street": "King St",
        "amenity": "bar",
        "level": "1",
        "name": "Refuel Restaurant and Bar",
        "source": "KG Ground Survey 2015"
      }
    },
    {
      "type": "node",
      "id": 1550283696,
      "lat": 10.27541,
      "lon": -61.464364,
      "timestamp": "2021-10-10T02:05:40Z",
      "version": 5,
      "changeset": 112319033,
      "user": "HubMiner",
      "uid": 238419,
      "tags": {
        "addr:city": "San Fernando",
        "addr:country": "TT",
        "addr:street": "Sutton Street",
        "amenity": "pub",
        "atm": "no",
        "cuisine": "international",
        "food": "yes",
        "internet_access": "no",
        "name": "Atherly's",
        "opening_hours": "11:00-24:00",
        "outdoor_seating": "yes",
        "smoking": "yes",
        "takeaway": "yes"
      }
    },
    {
      "type": "node",
      "id": 1550283697,
      "lat": 10.2754945,
      "lon": -61.466421,
      "timestamp": "2016-06-25T04:05:09Z",
      "version": 2,
      "changeset": 40275261,
      "user": "Leslie Nathaniel",
      "uid": 4166436,
      "tags": {
        "addr:street": "Sutton Street",
        "amenity": "bar",
        "internet_access": "wlan",
        "name": "Canboulay Restaurant & Bar"
      }
    },
    {
      "type": "node",
      "id": 1550283703,
      "lat": 10.27526,
      "lon": -61.4630288,
      "timestamp": "2012-07-29T00:40:29Z",
      "version": 5,
      "changeset": 12529722,
      "user": "wkc",
      "uid": 476555,
      "tags": {
        "addr:city": "San Fernando",
        "addr:country": "TT",
        "addr:street": "Sutton Street",
        "amenity": "bar",
        "name": "Nocker's Sports Bar & Lounge"
      }
    },
    {
      "type": "node",
      "id": 1554716539,
      "lat": 18.7182877,
      "lon": -68.4539035,
      "timestamp": "2011-12-19T20:52:34Z",
      "version": 1,
      "changeset": 10159035,
      "user": "Roman Fischer",
      "uid": 78090,
      "tags": {
        "amenity": "bar",
        "internet_access": "wlan",
        "internet_access:fee": "yes",
        "name": "La Fiesta"
      }
    },
    {
      "type": "node",
      "id": 1554716541,
      "lat": 18.7184026,
      "lon": -68.4540023,
      "timestamp": "2024-08-22T14:52:00Z",
      "version": 2,
      "changeset": 155610437,
      "user": "Grannymeg",
      "uid": 13361440,
      "tags": {
        "amenity": "bar",
        "internet_access": "wlan",
        "internet_access:fee": "yes",
        "name": "La Plaza"
      }
    },
    {
      "type": "node",
      "id": 1554716542,
      "lat": 18.7177578,
      "lon": -68.4539367,
      "timestamp": "2011-12-19T20:52:34Z",
      "version": 1,
      "changeset": 10159035,
      "user": "Roman Fischer",
      "uid": 78090,
      "tags": {
        "amenity": "bar",
        "internet_access": "wlan",
        "internet_access:fee": "yes",
        "name": "Lobby Bar Daiquiri"
      }
    },
    {
      "type": "node",
      "id": 1554716587,
      "lat": 18.7179217,
      "lon": -68.4540876,
      "timestamp": "2011-12-19T20:52:37Z",
      "version": 1,
      "changeset": 10159035,
      "user": "Roman Fischer",
      "uid": 78090,
      "tags": {
        "amenity": "bar",
        "internet_access": "wlan",
        "internet_access:fee": "yes",
        "name": "Sports Bar"
      }
    },
    {
      "type": "node",
      "id": 1554836215,
      "lat": 10.7981448,
      "lon": -61.3076001,
      "timestamp": "2011-12-19T22:46:54Z",
      "version": 1,
      "changeset": 10159949,
      "user": "wkc",
      "uid": 476555,
      "tags": {
        "amenity": "bar",
        "shop": "convenience"
      }
    },
    {
      "type": "node",
      "id": 1555784336,
      "lat": 10.6456652,
      "lon": -61.3879793,
      "timestamp": "2011-12-20T14:12:15Z",
      "version": 1,
      "changeset": 10163872,
      "user": "wkc",
      "uid": 476555,
      "tags": {
        "amenity": "bar",
        "fixme": "Get details"
      }
    },
    {
      "type": "node",
      "id": 1583702889,
      "lat": 10.6188491,
      "lon": -61.2752879,
      "timestamp": "2012-01-09T13:08:49Z",
      "version": 1,
      "changeset": 10341583,
      "user": "wkc",
      "uid": 476555,
      "tags": {
        "amenity": "bar",
        "name": "Time Out Lounge and Bar"
      }
    },
    {
      "type": "node",
      "id": 1610472967,
      "lat": 18.4283698,
      "lon": -66.1118201,
      "timestamp": "2012-01-29T14:27:45Z",
      "version": 3,
      "changeset": 10530386,
      "user": "Asdrymarie",
      "uid": 595933,
      "tags": {
        "amenity": "bar",
        "name": "Bar El Kar-Ajo"
      }
    },
    {
      "type": "node",
      "id": 1624645984,
      "lat": 11.1522447,
      "lon": -60.8449564,
      "timestamp": "2012-02-08T23:55:34Z",
      "version": 1,
      "changeset": 10629966,
      "user": "9Y-TRI",
      "uid": 565082,
      "tags": {
        "amenity": "bar",
        "name": "STEAK & LOBSTER BAR"
      }
    },
    {
      "type": "node",
      "id": 1640060461,
      "lat": 18.0523446,
      "lon": -63.1370776,
      "timestamp": "2025-04-09T18:09:15Z",
      "version": 7,
      "changeset": 164737198,
      "user": "Krukrus",
      "uid": 4365188,
      "tags": {
        "amenity": "bar",
        "name": "Dany's Beach Bar",
        "opening_hours": "Mo-Su 09:00-09:00, 18:00-18:00",
        "source": "KG Ground Survey 2015"
      }
    },
    {
      "type": "node",
      "id": 1645804778,
      "lat": 19.3214496,
      "lon": -69.5380075,
      "timestamp": "2012-12-26T15:58:26Z",
      "version": 3,
      "changeset": 14414126,
      "user": "jaakkoh",
      "uid": 24440,
      "tags": {
        "amenity": "bar",
        "landmark": "yes",
        "name": "La Bodega",
        "source": "survey"
      }
    },
    {
      "type": "node",
      "id": 1645804792,
      "lat": 19.3216095,
      "lon": -69.5402561,
      "timestamp": "2016-03-02T22:27:19Z",
      "version": 2,
      "changeset": 37576192,
      "user": "Guvani",
      "uid": 2379712,
      "tags": {
        "amenity": "bar",
        "name": "El Cayuco"
      }
    },
    {
      "type": "node",
      "id": 1650284823,
      "lat": 19.3247981,
      "lon": -69.5302762,
      "timestamp": "2024-05-27T14:08:52Z",
      "version": 4,
      "changeset": 151901870,
      "user": "mavl",
      "uid": 564990,
      "tags": {
        "amenity": "bar",
        "name": "Mojitos",
        "source": "survey"
      }
    },
    {
      "type": "node",
      "id": 1650284824,
      "lat": 19.3226018,
      "lon": -69.5414834,
      "timestamp": "2020-01-02T02:54:32Z",
      "version": 4,
      "changeset": 79096559,
      "user": "vespax",
      "uid": 2957617,
      "tags": {
        "amenity": "bar",
        "name": "One Love",
        "name:en": "One Love surf shack",
        "outdoor_seating": "yes",
        "restaurant": "yes",
        "source": "survey"
      }
    },
    {
      "type": "node",
      "id": 1650284825,
      "lat": 19.3249777,
      "lon": -69.5300023,
      "timestamp": "2024-07-16T09:25:59Z",
      "version": 5,
      "changeset": 154005746,
      "user": "b-jazz-bot",
      "uid": 9451067,
      "tags": {
        "amenity": "bar",
        "name": "Calmos Café",
        "source": "survey",
        "website": "https://www.palapabeachclub.com/"
      }
    },
    {
      "type": "node",
      "id": 1661142921,
      "lat": 18.4707496,
      "lon": -69.9418155,
      "timestamp": "2012-07-16T04:30:51Z",
      "version": 3,
      "changeset": 12239334,
      "user": "jaakkoh",
      "uid": 24440,
      "tags": {
        "amenity": "bar",
        "name": "Ferro Cafe"
      }
    },
    {
      "type": "node",
      "id": 1671374879,
      "lat": 11.9980977,
      "lon": -61.7588138,
      "timestamp": "2012-08-31T18:58:46Z",
      "version": 3,
      "changeset": 12934693,
      "user": "aighes",
      "uid": 110639,
      "tags": {
        "addr:housename": "Bar at Prickley Bay Marina",
        "amenity": "bar",
        "name": "Prickley Bay Marina Bar"
      }
    },
    {
      "type": "node",
      "id": 1680210570,
      "lat": 18.4428874,
      "lon": -69.933596,
      "timestamp": "2012-07-17T19:06:51Z",
      "version": 2,
      "changeset": 12270747,
      "user": "ALCE Samuel Paul",
      "uid": 441065,
      "tags": {
        "amenity": "bar",
        "name": "Club Coanca"
      }
    },
    {
      "type": "node",
      "id": 1685731582,
      "lat": 18.4409434,
      "lon": -69.9319545,
      "timestamp": "2012-07-17T19:08:43Z",
      "version": 2,
      "changeset": 12270747,
      "user": "ALCE Samuel Paul",
      "uid": 441065,
      "tags": {
        "amenity": "bar"
      }
    },
    {
      "type": "node",
      "id": 1712034261,
      "lat": 18.6362655,
      "lon": -68.4054702,
      "timestamp": "2025-02-03T17:20:27Z",
      "version": 7,
      "changeset": 162095428,
      "user": "wille",
      "uid": 360183,
      "tags": {
        "addr:city": "Bávaro",
        "amenity": "pub",
        "designation": "Discoteque",
        "email": "social@imaginepuntacana.com",
        "internet_access": "wlan",
        "internet_access:fee": "no",
        "name": "Imagine Punta Cana",
        "opening_hours": "23:00-05:00",
        "phone": "+1 809-466-1049",
        "website": "https://imaginepuntacana.com/"
      }
    },
    {
      "type": "node",
      "id": 1736773434,
      "lat": 18.4853478,
      "lon": -69.9292664,
      "timestamp": "2012-07-16T04:30:40Z",
      "version": 3,
      "changeset": 12239334,
      "user": "jaakkoh",
      "uid": 24440,
      "tags": {
        "amenity": "pub",
        "name": "Colmado Dume",
        "source": "survey"
      }
    },
    {
      "type": "node",
      "id": 1757558386,
      "lat": 11.1828279,
      "lon": -60.7378173,
      "timestamp": "2013-07-23T18:39:18Z",
      "version": 2,
      "changeset": 17065721,
      "user": "jpxt34",
      "uid": 1635765,
      "tags": {
        "amenity": "bar"
      }
    },
    {
      "type": "node",
      "id": 1757558387,
      "lat": 11.1823183,
      "lon": -60.7397595,
      "timestamp": "2012-06-26T12:10:08Z",
      "version": 3,
      "changeset": 12021585,
      "user": "DM-Trini-David",
      "uid": 421931,
      "tags": {
        "addr:street": "Milford Road",
        "amenity": "bar",
        "name": "Docksite Bar"
      }
    },
    {
      "type": "node",
      "id": 1759740804,
      "lat": 11.1590574,
      "lon": -60.8282275,
      "timestamp": "2012-05-22T19:55:30Z",
      "version": 2,
      "changeset": 11675020,
      "user": "DM-Trini-David",
      "uid": 421931,
      "tags": {
        "amenity": "pub",
        "name": "The Shade Nightclub"
      }
    },
    {
      "type": "node",
      "id": 1765490018,
      "lat": 10.1436755,
      "lon": -61.5098094,
      "timestamp": "2021-06-19T21:09:50Z",
      "version": 3,
      "changeset": 106646561,
      "user": "marco443",
      "uid": 1886646,
      "tags": {
        "addr:city": "Siparia",
        "addr:street": "High Street, Siparia",
        "amenity": "bar",
        "name": "China Clipper Restaurant & Bar"
      }
    },
    {
      "type": "node",
      "id": 1766661612,
      "lat": 10.1585016,
      "lon": -68.0253379,
      "timestamp": "2016-07-05T15:21:24Z",
      "version": 2,
      "changeset": 40502074,
      "user": "algarinr",
      "uid": 1674230,
      "tags": {
        "amenity": "pub",
        "name": "Paradero El Prado"
      }
    },
    {
      "type": "node",
      "id": 1771996269,
      "lat": 10.0928752,
      "lon": -61.5949698,
      "timestamp": "2012-05-31T23:14:00Z",
      "version": 1,
      "changeset": 11762984,
      "user": "DM-Trini-David",
      "uid": 421931,
      "tags": {
        "amenity": "bar",
        "name": "Station 22 Bar",
        "wifi": "no"
      }
    },
    {
      "type": "node",
      "id": 1773148010,
      "lat": 10.504947,
      "lon": -66.9053219,
      "timestamp": "2021-09-29T20:26:04Z",
      "version": 6,
      "changeset": 111885582,
      "user": "Wilmer Osario",
      "uid": 5443883,
      "tags": {
        "addr:city": "Caracas",
        "addr:postcode": "1010",
        "addr:street": "Av. Este 0",
        "amenity": "pub",
        "name": "El Quijote de La Candelaria"
      }
    },
    {
      "type": "node",
      "id": 1773148064,
      "lat": 10.5047125,
      "lon": -66.9037797,
      "timestamp": "2020-09-21T07:24:44Z",
      "version": 8,
      "changeset": 91208107,
      "user": "Wilmer Osario",
      "uid": 5443883,
      "tags": {
        "addr:city": "Caracas",
        "addr:postcode": "1010",
        "addr:street": "Av. Este 0",
        "amenity": "pub",
        "name": "Bar La Cita",
        "smoking": "no"
      }
    },
    {
      "type": "node",
      "id": 1781536028,
      "lat": 18.42568,
      "lon": -69.4239913,
      "timestamp": "2012-06-09T13:20:55Z",
      "version": 3,
      "changeset": 11844851,
      "user": "Fanarchiv",
      "uid": 699806,
      "tags": {
        "addr:housename": "Bar El Bambu",
        "addr:housenumber": "48",
        "addr:postcode": "21000",
        "addr:street": "Calle Principal",
        "alt_name": "Bar El Bambú",
        "amenity": "bar",
        "int_name": "Bar El Bambu",
        "name": "Bar El Bambu",
        "website": "http://www.juandolio.info",
        "wifi": "yes"
      }
    },
    {
      "type": "node",
      "id": 1800032964,
      "lat": 10.5898565,
      "lon": -61.3404089,
      "timestamp": "2012-06-23T22:54:06Z",
      "version": 1,
      "changeset": 11994347,
      "user": "wkc",
      "uid": 476555,
      "tags": {
        "amenity": "bar",
        "name": "Country Girl's Bar"
      }
    },
    {
      "type": "node",
      "id": 1810717082,
      "lat": 10.17481,
      "lon": -61.4525656,
      "timestamp": "2012-07-03T00:45:58Z",
      "version": 1,
      "changeset": 12095521,
      "user": "DM-Trini-David",
      "uid": 421931,
      "tags": {
        "addr:street": "Ali Mohammed Avenue",
        "amenity": "bar"
      }
    },
    {
      "type": "node",
      "id": 1810730978,
      "lat": 10.2461747,
      "lon": -61.4984678,
      "timestamp": "2016-02-06T04:23:34Z",
      "version": 4,
      "changeset": 37034644,
      "user": "Canyonsrcool",
      "uid": 126508,
      "tags": {
        "amenity": "pub",
        "name": "The Edge Nightclub",
        "source": "KG Ground Survey 2015",
        "wifi": "no"
      }
    },
    {
      "type": "node",
      "id": 1834062716,
      "lat": 10.225777,
      "lon": -67.3405703,
      "timestamp": "2012-07-22T11:32:00Z",
      "version": 1,
      "changeset": 12430996,
      "user": "hernanr",
      "uid": 120518,
      "tags": {
        "amenity": "bar",
        "name": "Bar La entrada"
      }
    },
    {
      "type": "node",
      "id": 1834063001,
      "lat": 10.1615464,
      "lon": -67.3949333,
      "timestamp": "2024-10-27T23:38:32Z",
      "version": 2,
      "changeset": 158435056,
      "user": "pantufla",
      "uid": 9104166,
      "tags": {
        "amenity": "pub",
        "name": "Club El Samán"
      }
    },
    {
      "type": "node",
      "id": 1834063667,
      "lat": 10.2291473,
      "lon": -67.3203858,
      "timestamp": "2014-04-26T06:29:43Z",
      "version": 2,
      "changeset": 21946832,
      "user": "JRojas",
      "uid": 192354,
      "tags": {
        "amenity": "pub",
        "name": "La Fortaleza"
      }
    },
    {
      "type": "node",
      "id": 1834063937,
      "lat": 10.2247936,
      "lon": -67.3400017,
      "timestamp": "2012-07-22T11:32:43Z",
      "version": 1,
      "changeset": 12430996,
      "user": "hernanr",
      "uid": 120518,
      "tags": {
        "amenity": "bar",
        "name": "la cristalina"
      }
    },
    {
      "type": "node",
      "id": 1862257301,
      "lat": 10.6659571,
      "lon": -61.5240014,
      "timestamp": "2020-01-13T12:47:44Z",
      "version": 2,
      "changeset": 79516582,
      "user": "pablo1609",
      "uid": 591749,
      "tags": {
        "addr:street": "Tragarete Road",
        "amenity": "pub",
        "name": "Studio Club",
        "smoking": "outside"
      }
    },
    {
      "type": "node",
      "id": 1862257946,
      "lat": 10.6609604,
      "lon": -61.5217142,
      "timestamp": "2012-08-11T22:42:07Z",
      "version": 1,
      "changeset": 12696610,
      "user": "Firedemon101",
      "uid": 784105,
      "tags": {
        "addr:street": "Fitt Street",
        "amenity": "pub",
        "name": "Roscos"
      }
    },
    {
      "type": "node",
      "id": 1862535369,
      "lat": 18.4662503,
      "lon": -69.930896,
      "timestamp": "2018-03-30T14:31:05Z",
      "version": 4,
      "changeset": 57662099,
      "user": "AccurateSurveyor",
      "uid": 1303553,
      "tags": {
        "addr:city": "Santo Domingo",
        "addr:postcode": "10149",
        "addr:street": "Avenida Abraham Lincoln",
        "amenity": "bar",
        "name": "Kanta Bar",
        "source": "KG Ground Survey 2016"
      }
    },
    {
      "type": "node",
      "id": 1887184783,
      "lat": 18.477623,
      "lon": -69.944011,
      "timestamp": "2012-08-28T18:41:42Z",
      "version": 1,
      "changeset": 12895975,
      "user": "fqueliz",
      "uid": 234222,
      "tags": {
        "amenity": "bar",
        "name": "Chico Bar & Drink"
      }
    },
    {
      "type": "node",
      "id": 1888841470,
      "lat": 10.6567378,
      "lon": -61.5159091,
      "timestamp": "2012-08-29T20:19:50Z",
      "version": 1,
      "changeset": 12910197,
      "user": "kent12",
      "uid": 397910,
      "tags": {
        "amenity": "bar",
        "name": "The Outside Woman Ultra Restaurant & Lounge"
      }
    },
    {
      "type": "node",
      "id": 1890194588,
      "lat": 10.642263,
      "lon": -61.2819438,
      "timestamp": "2012-08-30T16:49:15Z",
      "version": 1,
      "changeset": 12920342,
      "user": "RichardRagoo",
      "uid": 845580,
      "tags": {
        "amenity": "bar",
        "name": "Castro's"
      }
    },
    {
      "type": "node",
      "id": 1890230429,
      "lat": 10.6424423,
      "lon": -61.2817829,
      "timestamp": "2012-08-30T17:12:06Z",
      "version": 1,
      "changeset": 12920342,
      "user": "RichardRagoo",
      "uid": 845580,
      "tags": {
        "amenity": "bar",
        "name": "Black Dolphin Bar"
      }
    },
    {
      "type": "node",
      "id": 1891834976,
      "lat": 10.6407424,
      "lon": -61.2822091,
      "timestamp": "2012-08-31T16:55:01Z",
      "version": 1,
      "changeset": 12933280,
      "user": "RichardRagoo",
      "uid": 845580,
      "tags": {
        "amenity": "bar",
        "name": "Green Street Bar"
      }
    },
    {
      "type": "node",
      "id": 1891944905,
      "lat": 10.6407424,
      "lon": -61.2805891,
      "timestamp": "2012-08-31T17:57:02Z",
      "version": 1,
      "changeset": 12933280,
      "user": "RichardRagoo",
      "uid": 845580,
      "tags": {
        "amenity": "bar",
        "name": "Grand Royal Bar and Pool Hall"
      }
    },
    {
      "type": "node",
      "id": 1898122791,
      "lat": 10.2283639,
      "lon": -67.3276845,
      "timestamp": "2012-09-05T17:33:57Z",
      "version": 2,
      "changeset": 12999184,
      "user": "JRojas",
      "uid": 192354,
      "tags": {
        "amenity": "pub",
        "name": "El Pinar"
      }
    },
    {
      "type": "node",
      "id": 1900677663,
      "lat": 10.6438317,
      "lon": -61.2808282,
      "timestamp": "2012-09-05T16:11:57Z",
      "version": 1,
      "changeset": 12998185,
      "user": "RichardRagoo",
      "uid": 845580,
      "tags": {
        "amenity": "bar",
        "name": "Kool Korner Bar"
      }
    },
    {
      "type": "node",
      "id": 1900680028,
      "lat": 10.6438792,
      "lon": -61.2807397,
      "timestamp": "2012-09-05T16:14:12Z",
      "version": 1,
      "changeset": 12998185,
      "user": "RichardRagoo",
      "uid": 845580,
      "tags": {
        "amenity": "bar",
        "name": "Imperial Bar and Sports Lounge"
      }
    },
    {
      "type": "node",
      "id": 1900699716,
      "lat": 10.6425743,
      "lon": -61.2818072,
      "timestamp": "2012-09-05T16:23:51Z",
      "version": 1,
      "changeset": 12998185,
      "user": "RichardRagoo",
      "uid": 845580,
      "tags": {
        "amenity": "bar",
        "name": "Club Epic night Club"
      }
    },
    {
      "type": "node",
      "id": 1900805174,
      "lat": 10.2270312,
      "lon": -67.3240822,
      "timestamp": "2012-09-05T17:33:57Z",
      "version": 1,
      "changeset": 12999184,
      "user": "JRojas",
      "uid": 192354,
      "tags": {
        "amenity": "pub",
        "name": "Tasca alemana"
      }
    },
    {
      "type": "node",
      "id": 1900805177,
      "lat": 10.2284569,
      "lon": -67.3270594,
      "timestamp": "2012-09-05T17:33:57Z",
      "version": 1,
      "changeset": 12999184,
      "user": "JRojas",
      "uid": 192354,
      "tags": {
        "amenity": "pub",
        "name": "La Bodega de Viñas"
      }
    },
    {
      "type": "node",
      "id": 1918029403,
      "lat": 17.7293262,
      "lon": -64.8876771,
      "timestamp": "2012-09-17T00:07:36Z",
      "version": 1,
      "changeset": 13137733,
      "user": "Bruce Dawson",
      "uid": 13260,
      "tags": {
        "amenity": "pub",
        "name": "Rainbow Bar & Grille",
        "source": "Visit"
      }
    },
    {
      "type": "node",
      "id": 1921059767,
      "lat": 10.6506588,
      "lon": -61.2045663,
      "timestamp": "2012-09-19T02:03:33Z",
      "version": 1,
      "changeset": 13164568,
      "user": "triniali",
      "uid": 884321,
      "tags": {
        "addr:housename": "D Rumshop",
        "amenity": "bar",
        "designation": "Bar",
        "name": "D Rumshop"
      }
    },
    {
      "type": "node",
      "id": 1936270156,
      "lat": 10.7945471,
      "lon": -68.3015366,
      "timestamp": "2012-09-28T05:43:49Z",
      "version": 1,
      "changeset": 13280475,
      "user": "JRojas",
      "uid": 192354,
      "tags": {
        "amenity": "pub",
        "name": "Cocada"
      }
    },
    {
      "type": "node",
      "id": 1965867534,
      "lat": 16.3297246,
      "lon": -61.3425933,
      "timestamp": "2012-10-14T22:46:34Z",
      "version": 1,
      "changeset": 13499320,
      "user": "SBX745",
      "uid": 246221,
      "tags": {
        "amenity": "bar"
      }
    },
    {
      "type": "node",
      "id": 1966219956,
      "lat": 16.2023399,
      "lon": -61.4567636,
      "timestamp": "2012-10-15T04:06:20Z",
      "version": 1,
      "changeset": 13500956,
      "user": "SBX745",
      "uid": 246221,
      "tags": {
        "amenity": "bar"
      }
    },
    {
      "type": "node",
      "id": 1969333302,
      "lat": 16.2519058,
      "lon": -61.2681827,
      "timestamp": "2024-04-06T01:03:00Z",
      "version": 4,
      "changeset": 149637129,
      "user": "Sai_333",
      "uid": 11527485,
      "tags": {
        "amenity": "bar",
        "check_date": "2024-04-05",
        "name": "Arob@se Café"
      }
    },
    {
      "type": "node",
      "id": 1977590107,
      "lat": 10.251672,
      "lon": -61.4282697,
      "timestamp": "2012-10-22T07:39:25Z",
      "version": 1,
      "changeset": 13589215,
      "user": "tariqhosein",
      "uid": 993170,
      "tags": {
        "amenity": "bar",
        "name": "Rikki Jai Bar"
      }
    },
    {
      "type": "node",
      "id": 2023827305,
      "lat": 16.2198164,
      "lon": -61.5278454,
      "timestamp": "2015-04-08T20:31:58Z",
      "version": 2,
      "changeset": 30074088,
      "user": "Laïdi",
      "uid": 65872,
      "tags": {
        "amenity": "bar",
        "name": "Blueberry 5"
      }
    },
    {
      "type": "node",
      "id": 2046092839,
      "lat": 18.8214138,
      "lon": -68.5904536,
      "timestamp": "2021-09-28T15:24:32Z",
      "version": 2,
      "changeset": 111824535,
      "user": "osmer120311",
      "uid": 624271,
      "tags": {
        "amenity": "bar",
        "name": "Coralino"
      }
    },
    {
      "type": "node",
      "id": 2046092842,
      "lat": 18.8204285,
      "lon": -68.5895559,
      "timestamp": "2021-09-28T15:24:32Z",
      "version": 3,
      "changeset": 111824535,
      "user": "osmer120311",
      "uid": 624271,
      "tags": {
        "amenity": "bar",
        "name": "El Bohío"
      }
    },
    {
      "type": "node",
      "id": 2046092847,
      "lat": 18.8175576,
      "lon": -68.5893534,
      "timestamp": "2021-09-28T15:24:32Z",
      "version": 3,
      "changeset": 111824535,
      "user": "osmer120311",
      "uid": 624271,
      "tags": {
        "amenity": "bar",
        "name": "El Trago"
      }
    },
    {
      "type": "node",
      "id": 2046092848,
      "lat": 18.8179469,
      "lon": -68.5908215,
      "timestamp": "2021-09-28T08:15:15Z",
      "version": 3,
      "changeset": 111802251,
      "user": "osmer120311",
      "uid": 624271,
      "tags": {
        "amenity": "bar",
        "name": "La Pirámide"
      }
    },
    {
      "type": "node",
      "id": 2046092849,
      "lat": 18.8180373,
      "lon": -68.5907921,
      "timestamp": "2021-09-28T08:15:15Z",
      "version": 2,
      "changeset": 111802251,
      "user": "osmer120311",
      "uid": 624271,
      "tags": {
        "amenity": "bar",
        "name": "La Pérgola"
      }
    },
    {
      "type": "node",
      "id": 2046092850,
      "lat": 18.8206011,
      "lon": -68.5897381,
      "timestamp": "2021-09-28T09:00:50Z",
      "version": 2,
      "changeset": 111806090,
      "user": "osmer120311",
      "uid": 624271,
      "tags": {
        "amenity": "bar",
        "name": "La Yola"
      }
    },
    {
      "type": "node",
      "id": 2079190902,
      "lat": 12.1185351,
      "lon": -68.9021185,
      "timestamp": "2023-02-12T05:38:50Z",
      "version": 6,
      "changeset": 132431209,
      "user": "EvertS61",
      "uid": 3616405,
      "tags": {
        "addr:country": "CW",
        "amenity": "bar",
        "name": "De Dames"
      }
    },
    {
      "type": "node",
      "id": 2083494373,
      "lat": 19.3213193,
      "lon": -69.5390207,
      "timestamp": "2020-01-19T16:51:35Z",
      "version": 3,
      "changeset": 79759643,
      "user": "GLRJ",
      "uid": 5685375,
      "tags": {
        "amenity": "bar",
        "description": "Relatively (in Las Terrenas terms) good Internet access for customers, good wines and a relaxed atmosphere.",
        "internet_access": "wlan",
        "internet_access:fee": "no",
        "name": "La Cave a Vin",
        "restaurant": "yes",
        "shop": "wine"
      }
    },
    {
      "type": "node",
      "id": 2085262917,
      "lat": 18.4509458,
      "lon": -66.1428202,
      "timestamp": "2017-10-08T06:55:40Z",
      "version": 2,
      "changeset": 52723071,
      "user": "Esther F",
      "uid": 6757747,
      "tags": {
        "amenity": "bar"
      }
    },
    {
      "type": "node",
      "id": 2085274824,
      "lat": 18.4212407,
      "lon": -66.0563244,
      "timestamp": "2012-12-28T00:57:07Z",
      "version": 1,
      "changeset": 14432877,
      "user": "dude2288",
      "uid": 245210,
      "tags": {
        "amenity": "bar",
        "name": "Summers"
      }
    },
    {
      "type": "node",
      "id": 2088033542,
      "lat": 10.6636879,
      "lon": -61.5275944,
      "timestamp": "2015-12-22T17:42:18Z",
      "version": 4,
      "changeset": 36110443,
      "user": "recinutah",
      "uid": 3231510,
      "tags": {
        "addr:city": "PORT OF SPAIN",
        "addr:street": "Ariapita Avenue & Petra street",
        "amenity": "pub",
        "name": "Chaplains",
        "opening_hours": "9am 12.00am"
      }
    },
    {
      "type": "node",
      "id": 2092676814,
      "lat": 19.3165951,
      "lon": -69.5301937,
      "timestamp": "2016-09-17T14:49:01Z",
      "version": 2,
      "changeset": 42228501,
      "user": "juan jose graciano t",
      "uid": 4591540,
      "tags": {
        "addr:housenumber": "8099782752",
        "amenity": "bar",
        "internet_access": "wlan",
        "name": "El Manantial Cafeteria Restaurant",
        "phone": "8099782752",
        "restaurant": "yes",
        "source": "survey",
        "toilet": "yes"
      }
    },
    {
      "type": "node",
      "id": 2099118572,
      "lat": 19.167787,
      "lon": -69.2793806,
      "timestamp": "2013-01-07T01:29:49Z",
      "version": 1,
      "changeset": 14557923,
      "user": "jaakkoh",
      "uid": 24440,
      "tags": {
        "amenity": "bar",
        "source": "survey; Bing"
      }
    },
    {
      "type": "node",
      "id": 2118696579,
      "lat": 18.0338693,
      "lon": -66.1045057,
      "timestamp": "2013-01-19T01:02:29Z",
      "version": 1,
      "changeset": 14703041,
      "user": "gbarrett",
      "uid": 951567,
      "tags": {
        "amenity": "bar",
        "name": "Rico's"
      }
    },
    {
      "type": "node",
      "id": 2134255202,
      "lat": 10.6487275,
      "lon": -61.4491459,
      "timestamp": "2013-01-29T22:06:35Z",
      "version": 1,
      "changeset": 14839952,
      "user": "audiob",
      "uid": 394852,
      "tags": {
        "amenity": "pub"
      }
    },
    {
      "type": "node",
      "id": 2134276328,
      "lat": 16.2199904,
      "lon": -61.5271041,
      "timestamp": "2013-01-29T22:28:57Z",
      "version": 1,
      "changeset": 14841254,
      "user": "cartophyl",
      "uid": 1020777,
      "tags": {
        "amenity": "bar",
        "name": "Zoo Rock Café"
      }
    },
    {
      "type": "node",
      "id": 2139279919,
      "lat": 10.6437353,
      "lon": -61.4628132,
      "timestamp": "2016-09-09T17:07:44Z",
      "version": 3,
      "changeset": 42037896,
      "user": "Daley Special",
      "uid": 4318325,
      "tags": {
        "amenity": "bar",
        "name": "Cuzz Bar"
      }
    },
    {
      "type": "node",
      "id": 2152163207,
      "lat": 10.161843,
      "lon": -68.8961877,
      "timestamp": "2013-02-12T18:14:03Z",
      "version": 1,
      "changeset": 15009007,
      "user": "mscrasth",
      "uid": 1227424,
      "tags": {
        "amenity": "bar"
      }
    },
    {
      "type": "node",
      "id": 2178494993,
      "lat": 15.2470199,
      "lon": -61.3153604,
      "timestamp": "2013-02-28T15:59:05Z",
      "version": 1,
      "changeset": 15198571,
      "user": "Wrennie",
      "uid": 1191870,
      "tags": {
        "addr:housename": "Spot Light Bar",
        "addr:street": "Geneva, Grand Bay",
        "amenity": "bar",
        "name": "Spot Light Bar",
        "wifi": "no"
      }
    },
    {
      "type": "node",
      "id": 2262714715,
      "lat": 18.6794163,
      "lon": -68.4156664,
      "timestamp": "2023-11-11T20:33:04Z",
      "version": 3,
      "changeset": 143914182,
      "user": "bric@",
      "uid": 19541488,
      "tags": {
        "amenity": "pub",
        "description": "Dress Code: Casual Elegance",
        "name": "Rendez-vous"
      }
    },
    {
      "type": "node",
      "id": 2262714718,
      "lat": 18.6791551,
      "lon": -68.415002,
      "timestamp": "2013-04-11T12:45:39Z",
      "version": 1,
      "changeset": 15689435,
      "user": "Altaolar",
      "uid": 1081501,
      "tags": {
        "amenity": "pub",
        "description": "Dress Code: Resort Formal",
        "name": "Scores"
      }
    },
    {
      "type": "node",
      "id": 2262714733,
      "lat": 18.6794543,
      "lon": -68.4151591,
      "timestamp": "2023-11-11T20:33:04Z",
      "version": 3,
      "changeset": 143914182,
      "user": "bric@",
      "uid": 19541488,
      "tags": {
        "amenity": "bar",
        "description": "Dress Code: Casual",
        "name": "Showtime"
      }
    },
    {
      "type": "node",
      "id": 2262942997,
      "lat": 10.4869232,
      "lon": -66.9330805,
      "timestamp": "2021-03-13T00:37:27Z",
      "version": 5,
      "changeset": 100938368,
      "user": "albertoq",
      "uid": 527105,
      "tags": {
        "addr:city": "Caracas",
        "addr:postcode": "1020",
        "addr:street": "Av. José Antonio Páez",
        "amenity": "bar",
        "name": "El Torreón"
      }
    },
    {
      "type": "node",
      "id": 2286675933,
      "lat": 18.4198909,
      "lon": -64.618147,
      "timestamp": "2017-01-11T14:53:38Z",
      "version": 2,
      "changeset": 45078079,
      "user": "desertfox",
      "uid": 127007,
      "tags": {
        "amenity": "pub",
        "name": "Pusser's Road Town Pub"
      }
    },
    {
      "type": "node",
      "id": 2286708423,
      "lat": 18.4017507,
      "lon": -64.6339935,
      "timestamp": "2016-06-18T12:54:49Z",
      "version": 3,
      "changeset": 40115286,
      "user": "de vries",
      "uid": 1707814,
      "tags": {
        "amenity": "pub",
        "name": "Capt´n Mulligans"
      }
    },
    {
      "type": "node",
      "id": 2286711586,
      "lat": 18.4108007,
      "lon": -64.6306461,
      "timestamp": "2013-04-30T13:05:31Z",
      "version": 1,
      "changeset": 15920264,
      "user": "desertfox",
      "uid": 127007,
      "tags": {
        "amenity": "pub"
      }
    },
    {
      "type": "node",
      "id": 2304332808,
      "lat": 10.5015975,
      "lon": -66.9200476,
      "timestamp": "2014-06-22T17:21:13Z",
      "version": 3,
      "changeset": 23085014,
      "user": "albertoq",
      "uid": 527105,
      "tags": {
        "addr:city": "Caracas",
        "addr:postcode": "1010",
        "addr:street": "Av. Lecuna",
        "amenity": "bar",
        "name": "Tasca La Cueva"
      }
    },
    {
      "type": "node",
      "id": 2329690932,
      "lat": 10.5869136,
      "lon": -61.2078014,
      "timestamp": "2013-06-02T17:50:10Z",
      "version": 1,
      "changeset": 16394677,
      "user": "wkc",
      "uid": 476555,
      "tags": {
        "amenity": "bar",
        "name": "Ce La Vie"
      }
    },
    {
      "type": "node",
      "id": 2329690938,
      "lat": 10.5139794,
      "lon": -61.184139,
      "timestamp": "2013-06-02T17:50:11Z",
      "version": 1,
      "changeset": 16394677,
      "user": "wkc",
      "uid": 476555,
      "tags": {
        "amenity": "bar",
        "name": "D Well Bar"
      }
    },
    {
      "type": "node",
      "id": 2330129414,
      "lat": 10.6794356,
      "lon": -61.3653994,
      "timestamp": "2013-06-03T00:57:05Z",
      "version": 1,
      "changeset": 16399907,
      "user": "wkc",
      "uid": 476555,
      "tags": {
        "amenity": "bar"
      }
    },
    {
      "type": "node",
      "id": 2330129417,
      "lat": 10.6813662,
      "lon": -61.3645587,
      "timestamp": "2013-06-03T00:57:05Z",
      "version": 1,
      "changeset": 16399907,
      "user": "wkc",
      "uid": 476555,
      "tags": {
        "amenity": "bar"
      }
    },
    {
      "type": "node",
      "id": 2340668347,
      "lat": 18.0950894,
      "lon": -65.4731943,
      "timestamp": "2013-06-11T14:53:16Z",
      "version": 1,
      "changeset": 16511141,
      "user": "bmacwade",
      "uid": 1537867,
      "tags": {
        "amenity": "bar",
        "name": "La Nasa",
        "wifi": "no"
      }
    },
    {
      "type": "node",
      "id": 2352883334,
      "lat": 10.4856375,
      "lon": -66.9088414,
      "timestamp": "2021-06-21T02:56:52Z",
      "version": 4,
      "changeset": 106686459,
      "user": "Wilmer Osario",
      "uid": 5443883,
      "tags": {
        "addr:city": "Caracas",
        "addr:postcode": "1040",
        "addr:street": "Av. Nueva Granada",
        "amenity": "bar",
        "name": "Las Tres Sirenas"
      }
    },
    {
      "type": "node",
      "id": 2357992945,
      "lat": 10.4964462,
      "lon": -61.1582617,
      "timestamp": "2013-06-23T23:17:04Z",
      "version": 1,
      "changeset": 16677294,
      "user": "wkc",
      "uid": 476555,
      "tags": {
        "amenity": "pub",
        "name": "Guaico Tamana Recreational Club"
      }
    },
    {
      "type": "node",
      "id": 2365229349,
      "lat": 10.2859221,
      "lon": -61.4520047,
      "timestamp": "2013-06-29T03:27:00Z",
      "version": 1,
      "changeset": 16747041,
      "user": "tariqhosein",
      "uid": 993170,
      "tags": {
        "amenity": "bar",
        "name": "Dawn's Cuisine Rest & Bar"
      }
    },
    {
      "type": "node",
      "id": 2377583856,
      "lat": 10.2478025,
      "lon": -61.4220395,
      "timestamp": "2021-01-06T20:58:50Z",
      "version": 3,
      "changeset": 97071284,
      "user": "Xtatixc",
      "uid": 12290882,
      "tags": {
        "amenity": "pub",
        "name": "BabyFace Restaurant & Bar"
      }
    },
    {
      "type": "node",
      "id": 2381992087,
      "lat": 11.1704779,
      "lon": -60.7830578,
      "timestamp": "2013-07-12T05:12:48Z",
      "version": 1,
      "changeset": 16921429,
      "user": "jpxt34",
      "uid": 1635765,
      "tags": {
        "addr:city": "Carnbee",
        "addr:street": "Auchenskeoch Buccoo Bay Road",
        "amenity": "bar",
        "cuisine": "fried_food",
        "name": "Good Timers",
        "phone": "8686399078",
        "source": "local_knowledge"
      }
    },
    {
      "type": "node",
      "id": 2388791326,
      "lat": 10.4839561,
      "lon": -66.8892258,
      "timestamp": "2015-05-12T03:56:32Z",
      "version": 3,
      "changeset": 31024074,
      "user": "albertoq",
      "uid": 527105,
      "tags": {
        "addr:city": "Caracas",
        "addr:postcode": "1040",
        "addr:street": "Av. La Facultad",
        "amenity": "bar",
        "name": "La Meseta"
      }
    },
    {
      "type": "node",
      "id": 2388820803,
      "lat": 10.4858944,
      "lon": -66.8859568,
      "timestamp": "2021-03-13T00:37:28Z",
      "version": 3,
      "changeset": 100938368,
      "user": "albertoq",
      "uid": 527105,
      "tags": {
        "amenity": "bar",
        "name": "La Padrona"
      }
    },
    {
      "type": "node",
      "id": 2388820809,
      "lat": 10.4855197,
      "lon": -66.8883144,
      "timestamp": "2015-05-12T04:01:30Z",
      "version": 4,
      "changeset": 31024119,
      "user": "albertoq",
      "uid": 527105,
      "tags": {
        "addr:city": "Caracas",
        "addr:postcode": "1040",
        "addr:street": "Av. La Facultad",
        "amenity": "bar",
        "name": "La Nave"
      }
    },
    {
      "type": "node",
      "id": 2389792299,
      "lat": 10.501331,
      "lon": -66.9056039,
      "timestamp": "2014-08-24T19:48:23Z",
      "version": 2,
      "changeset": 24988167,
      "user": "albertoq",
      "uid": 527105,
      "tags": {
        "addr:city": "Caracas",
        "addr:postcode": "1010",
        "addr:street": "Av. Sur 13",
        "amenity": "pub",
        "name": "La Portela",
        "smoking": "no"
      }
    },
    {
      "type": "node",
      "id": 2389854174,
      "lat": 10.5036807,
      "lon": -66.9062878,
      "timestamp": "2014-06-22T20:55:21Z",
      "version": 4,
      "changeset": 23089101,
      "user": "albertoq",
      "uid": 527105,
      "tags": {
        "addr:city": "Caracas",
        "addr:postcode": "1010",
        "addr:street": "Av. Este 2",
        "amenity": "pub",
        "name": "Tasca Cerveceria Caracas",
        "smoking": "no"
      }
    },
    {
      "type": "node",
      "id": 2389854216,
      "lat": 10.5023728,
      "lon": -66.9049709,
      "timestamp": "2015-05-09T04:23:22Z",
      "version": 3,
      "changeset": 30925670,
      "user": "albertoq",
      "uid": 527105,
      "tags": {
        "addr:city": "Caracas",
        "addr:postcode": "1010",
        "addr:street": "Av. México",
        "amenity": "pub",
        "name": "Taberna Barba Negra"
      }
    },
    {
      "type": "node",
      "id": 2395644950,
      "lat": 12.1061253,
      "lon": -68.9341243,
      "timestamp": "2021-04-21T01:20:32Z",
      "version": 10,
      "changeset": 103300172,
      "user": "OmniSynThesis 360 VR",
      "uid": 6045989,
      "tags": {
        "addr:city": "Willemstad",
        "addr:country": "CW",
        "addr:housename": "Vienna Beer Garden",
        "addr:housenumber": "6",
        "addr:place": "Punda",
        "addr:street": "Handelskade",
        "amenity": "pub",
        "cuisine": "regional",
        "name": "Vienna Biergarten",
        "ref:cw_id": "33857",
        "source": "KG Ground Survey 2015"
      }
    },
    {
      "type": "node",
      "id": 2397989569,
      "lat": 10.4996064,
      "lon": -66.8978389,
      "timestamp": "2015-05-16T20:47:25Z",
      "version": 3,
      "changeset": 31212101,
      "user": "albertoq",
      "uid": 527105,
      "tags": {
        "addr:city": "Caracas",
        "addr:postcode": "1010",
        "addr:street": "Sur 25",
        "amenity": "pub",
        "name": "Café Raja Tabla"
      }
    },
    {
      "type": "node",
      "id": 2434837576,
      "lat": 10.6809009,
      "lon": -61.5066312,
      "timestamp": "2013-08-28T07:27:55Z",
      "version": 1,
      "changeset": 17549355,
      "user": "wkc",
      "uid": 476555,
      "tags": {
        "amenity": "bar",
        "name": "Bunny's Bar"
      }
    },
    {
      "type": "node",
      "id": 2453018123,
      "lat": 10.6277743,
      "lon": -61.3495194,
      "timestamp": "2013-09-10T15:30:14Z",
      "version": 1,
      "changeset": 17769237,
      "user": "wkc",
      "uid": 476555,
      "tags": {
        "amenity": "bar",
        "name": "Sandbaggers Sports Lounge"
      }
    },
    {
      "type": "node",
      "id": 2470362972,
      "lat": 10.4926807,
      "lon": -66.8681951,
      "timestamp": "2021-03-22T22:22:05Z",
      "version": 6,
      "changeset": 101531872,
      "user": "albertoq",
      "uid": 527105,
      "tags": {
        "addr:city": "Caracas",
        "addr:postcode": "1050",
        "addr:street": "Av. Principal de El Bosque",
        "amenity": "pub",
        "name": "La Posada del Mesonero"
      }
    },
    {
      "type": "node",
      "id": 2471264760,
      "lat": 10.4779423,
      "lon": -66.8583005,
      "timestamp": "2025-03-14T19:52:04Z",
      "version": 7,
      "changeset": 163624992,
      "user": "Eyleen Jaen",
      "uid": 22627470,
      "tags": {
        "addr:city": "Caracas",
        "addr:housename": "C.C Paseo Las Mercedes",
        "addr:place": "C.C Paseo Las Mercedes",
        "addr:postcode": "1060",
        "addr:street": "Paseo Henrique Eraso",
        "amenity": "bar",
        "contact:facebook": "https://www.facebook.com/trasnochocult/",
        "contact:instagram": "https://www.instagram.com/trasnochocult/",
        "contact:twitter": "https://twitter.com/trasnochocult",
        "contact:website": "https://www.trasnochocultural.com/",
        "description": "Espacio de cultura con salas de cine, teatros, galería, lugares de encuentro y relajación.",
        "name": "Trasnocho Cultural",
        "operator": "Fundación Trasnocho Cultural"
      }
    },
    {
      "type": "node",
      "id": 2500859878,
      "lat": 10.4935248,
      "lon": -66.8492919,
      "timestamp": "2025-10-09T03:50:19Z",
      "version": 5,
      "changeset": 173029950,
      "user": "flapnuta",
      "uid": 22309985,
      "tags": {
        "addr:city": "Caracas",
        "addr:postcode": "1060",
        "addr:street": "Av. Sur Altamira",
        "amenity": "bar",
        "contact:instagram": "greenwichpubccs",
        "name": "Greenwich",
        "opening_hours": "Tu-Sa 18:00-03:00"
      }
    },
    {
      "type": "node",
      "id": 2500996962,
      "lat": 10.5002986,
      "lon": -66.8468475,
      "timestamp": "2025-09-29T00:25:34Z",
      "version": 8,
      "changeset": 172588518,
      "user": "Melponte",
      "uid": 20589500,
      "tags": {
        "addr:city": "Caracas",
        "addr:full": "Altamira Suites",
        "addr:postcode": "1060",
        "addr:street": "1ª Transversal de Los Palos Grandes",
        "amenity": "bar"
      }
    },
    {
      "type": "node",
      "id": 2512219346,
      "lat": 18.4163329,
      "lon": -64.6680808,
      "timestamp": "2016-06-18T12:54:50Z",
      "version": 3,
      "changeset": 40115286,
      "user": "de vries",
      "uid": 1707814,
      "tags": {
        "amenity": "bar",
        "name": "Stoutt's Lookout"
      }
    },
    {
      "type": "node",
      "id": 2522657744,
      "lat": 10.4848923,
      "lon": -66.8268381,
      "timestamp": "2021-09-27T12:12:51Z",
      "version": 3,
      "changeset": 111760775,
      "user": "Wilmer Osario",
      "uid": 5443883,
      "tags": {
        "addr:city": "Caracas",
        "addr:postcode": "1071",
        "addr:street": "Av. Principal Los Cortijos",
        "amenity": "pub",
        "name": "El Gato y El Oso"
      }
    },
    {
      "type": "node",
      "id": 2537952936,
      "lat": 18.4494203,
      "lon": -64.4359276,
      "timestamp": "2013-11-18T13:56:02Z",
      "version": 1,
      "changeset": 18972491,
      "user": "ElChefe",
      "uid": 66073,
      "tags": {
        "amenity": "pub"
      }
    },
    {
      "type": "node",
      "id": 2539486612,
      "lat": 18.3000761,
      "lon": -66.3546222,
      "timestamp": "2023-10-16T19:08:57Z",
      "version": 3,
      "changeset": 142680446,
      "user": "descubrebitcoin",
      "uid": 17565129,
      "tags": {
        "addr:city": "Corozal",
        "addr:housename": "PR-618",
        "addr:postcode": "00783",
        "amenity": "bar",
        "currency:XBT": "no",
        "name": "La Sombra del Laurel",
        "website": "https://www.facebook.com/LaSombraDelLaurelMiguelCrespo"
      }
    },
    {
      "type": "node",
      "id": 2539996735,
      "lat": 10.4967155,
      "lon": -66.8250276,
      "timestamp": "2015-05-28T19:06:12Z",
      "version": 2,
      "changeset": 31541791,
      "user": "albertoq",
      "uid": 527105,
      "tags": {
        "addr:city": "Caracas",
        "addr:postcode": "1071",
        "addr:street": "5ª Av. de Montecristo",
        "amenity": "bar",
        "name": "Tasca Doña Luisa"
      }
    },
    {
      "type": "node",
      "id": 2542514217,
      "lat": 18.4651736,
      "lon": -66.1176561,
      "timestamp": "2024-05-04T18:24:11Z",
      "version": 2,
      "changeset": 150892928,
      "user": "wheelmap_visitor",
      "uid": 290680,
      "tags": {
        "amenity": "bar",
        "name": "Marilyn's Place",
        "wheelchair": "limited"
      }
    },
    {
      "type": "node",
      "id": 2542514226,
      "lat": 18.4640262,
      "lon": -66.117656,
      "timestamp": "2024-05-11T16:06:12Z",
      "version": 4,
      "changeset": 151193160,
      "user": "wheelmap_visitor",
      "uid": 290680,
      "tags": {
        "amenity": "bar",
        "name": "Anam",
        "phone": "1-939-416-9037",
        "shop": "beauty",
        "wheelchair": "no"
      }
    },
    {
      "type": "node",
      "id": 2567482442,
      "lat": 18.404822,
      "lon": -66.008338,
      "timestamp": "2013-12-06T04:47:38Z",
      "version": 1,
      "changeset": 19300149,
      "user": "Mitchell572",
      "uid": 1812261,
      "tags": {
        "amenity": "bar",
        "name": "Colmado Placita Del Rey"
      }
    },
    {
      "type": "node",
      "id": 2577351488,
      "lat": 18.4709216,
      "lon": -69.8911201,
      "timestamp": "2016-05-10T22:48:05Z",
      "version": 3,
      "changeset": 39229102,
      "user": "Canyonsrcool",
      "uid": 126508,
      "tags": {
        "amenity": "bar",
        "name": "Navarro",
        "note": "Sports bar",
        "source": "KG Ground Survey 2016"
      }
    },
    {
      "type": "node",
      "id": 2605250893,
      "lat": 18.4664389,
      "lon": -69.8935546,
      "timestamp": "2014-01-01T22:43:54Z",
      "version": 1,
      "changeset": 19754256,
      "user": "renesigma",
      "uid": 1139318,
      "tags": {
        "amenity": "pub",
        "name": "New Jersey Bodega"
      }
    },
    {
      "type": "node",
      "id": 2605250897,
      "lat": 18.4662639,
      "lon": -69.8934134,
      "timestamp": "2016-12-26T18:51:01Z",
      "version": 3,
      "changeset": 44688693,
      "user": "renesigma",
      "uid": 1139318,
      "tags": {
        "amenity": "bar",
        "name": "New Jersey Drinks"
      }
    },
    {
      "type": "node",
      "id": 2621060216,
      "lat": 10.4791191,
      "lon": -66.8154737,
      "timestamp": "2015-06-03T18:37:54Z",
      "version": 2,
      "changeset": 31699930,
      "user": "albertoq",
      "uid": 527105,
      "tags": {
        "addr:city": "Caracas",
        "addr:postcode": "1071",
        "addr:street": "Av. Francisco de Miranda",
        "amenity": "pub",
        "name": "India"
      }
    },
    {
      "type": "node",
      "id": 2639701301,
      "lat": 15.2845271,
      "lon": -61.2696617,
      "timestamp": "2014-01-27T14:24:04Z",
      "version": 1,
      "changeset": 20229775,
      "user": "fluder",
      "uid": 1905319,
      "tags": {
        "amenity": "bar",
        "name": "Rastarant"
      }
    },
    {
      "type": "node",
      "id": 2663762560,
      "lat": 18.465445,
      "lon": -66.1141673,
      "timestamp": "2014-02-09T19:55:34Z",
      "version": 1,
      "changeset": 20472039,
      "user": "vramirez122000",
      "uid": 15027,
      "tags": {
        "amenity": "bar",
        "name": "Douglas's Pub"
      }
    },
    {
      "type": "node",
      "id": 2664047351,
      "lat": 18.465791,
      "lon": -66.1150146,
      "timestamp": "2014-02-09T21:43:11Z",
      "version": 1,
      "changeset": 20473888,
      "user": "jeffhaack",
      "uid": 81521,
      "tags": {
        "amenity": "bar",
        "name": "Wisos Velillas Bar"
      }
    },
    {
      "type": "node",
      "id": 2664140222,
      "lat": 18.4652414,
      "lon": -66.1124717,
      "timestamp": "2024-05-04T16:20:27Z",
      "version": 2,
      "changeset": 150888059,
      "user": "wheelmap_visitor",
      "uid": 290680,
      "tags": {
        "amenity": "bar",
        "name": "Brickhouse",
        "wheelchair": "limited"
      }
    },
    {
      "type": "node",
      "id": 2664140224,
      "lat": 18.465465,
      "lon": -66.1123389,
      "timestamp": "2024-05-04T16:18:02Z",
      "version": 3,
      "changeset": 150887929,
      "user": "wheelmap_visitor",
      "uid": 290680,
      "tags": {
        "amenity": "bar",
        "name": "Colmado Bar Moreno's",
        "wheelchair": "limited"
      }
    },
    {
      "type": "node",
      "id": 2685395809,
      "lat": 18.467753,
      "lon": -66.1143804,
      "timestamp": "2024-05-11T17:44:01Z",
      "version": 3,
      "changeset": 151196873,
      "user": "wheelmap_visitor",
      "uid": 290680,
      "tags": {
        "amenity": "pub",
        "name": "El Adoquín del Patio",
        "wheelchair": "no"
      }
    },
    {
      "type": "node",
      "id": 2689799115,
      "lat": 12.0873667,
      "lon": -68.899864,
      "timestamp": "2024-03-01T06:43:31Z",
      "version": 6,
      "changeset": 148082676,
      "user": "ablevi202",
      "uid": 15815055,
      "tags": {
        "amenity": "bar",
        "lgbtq": "primary",
        "name": "Wet & Wild Beach Club",
        "source": "Happy hour",
        "wheelchair": "limited"
      }
    },
    {
      "type": "node",
      "id": 2728332607,
      "lat": 17.9786903,
      "lon": -67.206884,
      "timestamp": "2014-03-20T08:11:19Z",
      "version": 1,
      "changeset": 21205669,
      "user": "luiscruzlmc",
      "uid": 1994345,
      "tags": {
        "amenity": "bar",
        "name": "El Tamarindo"
      }
    },
    {
      "type": "node",
      "id": 2735308054,
      "lat": 18.4639125,
      "lon": -66.1124007,
      "timestamp": "2024-05-04T16:30:57Z",
      "version": 2,
      "changeset": 150888551,
      "user": "wheelmap_visitor",
      "uid": 290680,
      "tags": {
        "amenity": "bar",
        "name": "Señor Frogs",
        "wheelchair": "yes"
      }
    },
    {
      "type": "node",
      "id": 2737543092,
      "lat": 18.467283,
      "lon": -66.114651,
      "timestamp": "2015-02-24T21:25:43Z",
      "version": 2,
      "changeset": 29079138,
      "user": "RoadGeek_MD99",
      "uid": 475877,
      "tags": {
        "addr:city": "Viejo San Juan",
        "addr:housenumber": "277",
        "addr:postcode": "00901",
        "addr:street": "Calle del Sol",
        "amenity": "bar",
        "name": "El Farolito"
      }
    },
    {
      "type": "node",
      "id": 2738523668,
      "lat": 18.466742,
      "lon": -66.1166631,
      "timestamp": "2014-03-24T00:45:24Z",
      "version": 1,
      "changeset": 21276015,
      "user": "epicjefferson",
      "uid": 1998137,
      "tags": {
        "amenity": "bar",
        "name": "The Mezzanie"
      }
    },
    {
      "type": "node",
      "id": 2738647625,
      "lat": 18.4669197,
      "lon": -66.1175664,
      "timestamp": "2014-03-24T01:32:58Z",
      "version": 1,
      "changeset": 21276384,
      "user": "epicjefferson",
      "uid": 1998137,
      "tags": {
        "amenity": "bar",
        "name": "Acqua"
      }
    },
    {
      "type": "node",
      "id": 2738647629,
      "lat": 18.4662133,
      "lon": -66.1181624,
      "timestamp": "2024-05-11T16:28:48Z",
      "version": 3,
      "changeset": 151193987,
      "user": "wheelmap_visitor",
      "uid": 290680,
      "tags": {
        "amenity": "bar",
        "name": "Booty's",
        "wheelchair": "no"
      }
    },
    {
      "type": "node",
      "id": 2738647632,
      "lat": 18.4662559,
      "lon": -66.1181824,
      "timestamp": "2014-03-24T01:32:59Z",
      "version": 1,
      "changeset": 21276384,
      "user": "epicjefferson",
      "uid": 1998137,
      "tags": {
        "amenity": "bar",
        "name": "Don Pablo"
      }
    },
    {
      "type": "node",
      "id": 2738647633,
      "lat": 18.4663165,
      "lon": -66.1182023,
      "timestamp": "2024-05-11T16:28:33Z",
      "version": 2,
      "changeset": 151193974,
      "user": "wheelmap_visitor",
      "uid": 290680,
      "tags": {
        "amenity": "bar",
        "name": "El Batey",
        "wheelchair": "no"
      }
    },
    {
      "type": "node",
      "id": 2738647634,
      "lat": 18.467123,
      "lon": -66.1181072,
      "timestamp": "2024-05-11T16:49:39Z",
      "version": 2,
      "changeset": 151194708,
      "user": "wheelmap_visitor",
      "uid": 290680,
      "tags": {
        "amenity": "bar",
        "name": "El Boqueron",
        "wheelchair": "yes"
      }
    },
    {
      "type": "node",
      "id": 2738647640,
      "lat": 18.4671157,
      "lon": -66.1174881,
      "timestamp": "2018-07-28T18:24:07Z",
      "version": 3,
      "changeset": 61148893,
      "user": "vramirez122000",
      "uid": 15027,
      "tags": {
        "amenity": "bar",
        "name": "La Cubanita"
      }
    },
    {
      "type": "node",
      "id": 2738647641,
      "lat": 18.4673506,
      "lon": -66.1170993,
      "timestamp": "2024-05-11T17:34:45Z",
      "version": 2,
      "changeset": 151196529,
      "user": "wheelmap_visitor",
      "uid": 290680,
      "tags": {
        "amenity": "bar",
        "name": "La Sombrilla Rosa",
        "wheelchair": "yes"
      }
    },
    {
      "type": "node",
      "id": 2738647644,
      "lat": 18.4670611,
      "lon": -66.1183769,
      "timestamp": "2024-05-11T16:32:00Z",
      "version": 2,
      "changeset": 151194081,
      "user": "wheelmap_visitor",
      "uid": 290680,
      "tags": {
        "amenity": "bar",
        "name": "Nono's",
        "wheelchair": "yes"
      }
    },
    {
      "type": "node",
      "id": 2748751711,
      "lat": 18.4681067,
      "lon": -66.1198399,
      "timestamp": "2024-05-11T16:44:50Z",
      "version": 2,
      "changeset": 151194519,
      "user": "wheelmap_visitor",
      "uid": 290680,
      "tags": {
        "amenity": "bar",
        "name": "Cinema Bar 1950",
        "wheelchair": "yes"
      }
    },
    {
      "type": "node",
      "id": 2750533209,
      "lat": 18.4393387,
      "lon": -66.7424947,
      "timestamp": "2014-03-28T19:59:42Z",
      "version": 1,
      "changeset": 21371906,
      "user": "Zumbador",
      "uid": 1991475,
      "tags": {
        "amenity": "bar",
        "name": "La Cambija Sport Bar"
      }
    },
    {
      "type": "node",
      "id": 2752223128,
      "lat": 18.4672782,
      "lon": -66.1178127,
      "timestamp": "2014-03-29T17:37:10Z",
      "version": 1,
      "changeset": 21386907,
      "user": "igeopr",
      "uid": 732590,
      "tags": {
        "amenity": "bar",
        "name": "Café Culebra"
      }
    },
    {
      "type": "node",
      "id": 2752223130,
      "lat": 18.4672655,
      "lon": -66.1178855,
      "timestamp": "2018-07-28T18:24:07Z",
      "version": 2,
      "changeset": 61148893,
      "user": "vramirez122000",
      "uid": 15027,
      "tags": {
        "amenity": "bar",
        "name": "Dákiti"
      }
    },
    {
      "type": "node",
      "id": 2752283902,
      "lat": 18.4673972,
      "lon": -66.1172793,
      "timestamp": "2024-05-11T17:33:14Z",
      "version": 4,
      "changeset": 151196467,
      "user": "wheelmap_visitor",
      "uid": 290680,
      "tags": {
        "amenity": "bar",
        "email": "latabernalupulo@gmail.com",
        "name": "La Taberna Lúpulo",
        "name:es": "La Taberna Lúpulo",
        "opening_hours": "Su-Fr 12:00-02:00; Sa 12:00-03:00",
        "phone": "17877213772",
        "website": "https://www.latabernalupulo.com/",
        "wheelchair": "yes"
      }
    },
    {
      "type": "node",
      "id": 2774426353,
      "lat": 19.1096057,
      "lon": -69.8254421,
      "timestamp": "2017-09-26T00:21:09Z",
      "version": 2,
      "changeset": 52370154,
      "user": "Guvani",
      "uid": 2379712,
      "tags": {
        "amenity": "bar",
        "name": "Amazonas"
      }
    },
    {
      "type": "node",
      "id": 2776566192,
      "lat": 10.5043792,
      "lon": -66.8912402,
      "timestamp": "2019-08-17T04:10:07Z",
      "version": 3,
      "changeset": 73434654,
      "user": "albertoq",
      "uid": 527105,
      "tags": {
        "addr:city": "Caracas",
        "addr:postcode": "1050",
        "addr:street": "Av. Andrés Bello",
        "amenity": "pub",
        "name": "Sandy"
      }
    },
    {
      "type": "node",
      "id": 2797878369,
      "lat": 10.484066,
      "lon": -66.861807,
      "timestamp": "2025-03-14T19:45:46Z",
      "version": 5,
      "changeset": 163624808,
      "user": "alexydler",
      "uid": 22354495,
      "tags": {
        "addr:city": "Caracas",
        "addr:postcode": "1060",
        "addr:street": "Madrid",
        "amenity": "bar",
        "name": "Il Padrino",
        "smoking": "no"
      }
    },
    {
      "type": "node",
      "id": 2798890793,
      "lat": 10.2086037,
      "lon": -67.4516712,
      "timestamp": "2014-04-18T14:06:52Z",
      "version": 1,
      "changeset": 21768983,
      "user": "JRojas",
      "uid": 192354,
      "tags": {
        "amenity": "bar",
        "name": "La Jungla"
      }
    },
    {
      "type": "node",
      "id": 2830337406,
      "lat": 12.1599318,
      "lon": -68.9310568,
      "timestamp": "2014-05-01T21:48:15Z",
      "version": 1,
      "changeset": 22073787,
      "user": "Hans t",
      "uid": 1950390,
      "tags": {
        "amenity": "bar",
        "name": "Eric Snack"
      }
    },
    {
      "type": "node",
      "id": 2834514652,
      "lat": 18.456685,
      "lon": -66.0738536,
      "timestamp": "2017-06-10T19:50:14Z",
      "version": 2,
      "changeset": 49427559,
      "user": "karinaberlingeri710",
      "uid": 4961282,
      "tags": {
        "addr:city": "San Juan",
        "addr:postcode": "00911",
        "addr:state": "PR",
        "addr:street": "Avenida Ashford",
        "amenity": "bar",
        "name": "London Bar"
      }
    },
    {
      "type": "node",
      "id": 2834514658,
      "lat": 18.4566757,
      "lon": -66.0738193,
      "timestamp": "2017-06-10T19:50:14Z",
      "version": 2,
      "changeset": 49427559,
      "user": "karinaberlingeri710",
      "uid": 4961282,
      "tags": {
        "addr:city": "San Juan",
        "addr:postcode": "00911",
        "addr:state": "PR",
        "addr:street": "Avenida Ashford",
        "amenity": "bar",
        "name": "The Big Spot"
      }
    },
    {
      "type": "node",
      "id": 2834514659,
      "lat": 18.4567022,
      "lon": -66.0727386,
      "timestamp": "2018-07-31T00:54:23Z",
      "version": 3,
      "changeset": 61211884,
      "user": "vramirez122000",
      "uid": 15027,
      "tags": {
        "amenity": "bar",
        "name": "Kaña"
      }
    },
    {
      "type": "node",
      "id": 2850664482,
      "lat": 18.0781702,
      "lon": -63.0614492,
      "timestamp": "2015-01-21T02:34:54Z",
      "version": 3,
      "changeset": 28298647,
      "user": "47NOE",
      "uid": 1811738,
      "tags": {
        "amenity": "bar",
        "name": "Tree Lounge Tapas Bar",
        "opening_hours": "10:00-02:00"
      }
    },
    {
      "type": "node",
      "id": 2850675802,
      "lat": 18.0783142,
      "lon": -63.0608355,
      "timestamp": "2019-05-09T12:58:33Z",
      "version": 4,
      "changeset": 70072106,
      "user": "Verdy_p",
      "uid": 90780,
      "tags": {
        "amenity": "bar",
        "name": "L'eaulounge Cabanas et Piscine",
        "opening_hours": "10:00-17:00"
      }
    },
    {
      "type": "node",
      "id": 2867871708,
      "lat": 18.007151,
      "lon": -66.6089674,
      "timestamp": "2014-05-19T04:04:02Z",
      "version": 1,
      "changeset": 22417731,
      "user": "Nicolle Anais",
      "uid": 2081346,
      "tags": {
        "amenity": "pub"
      }
    },
    {
      "type": "node",
      "id": 2901057208,
      "lat": 10.56399,
      "lon": -61.30886,
      "timestamp": "2014-06-05T13:10:09Z",
      "version": 1,
      "changeset": 22755712,
      "user": "Siff",
      "uid": 2104970,
      "tags": {
        "amenity": "bar"
      }
    },
    {
      "type": "node",
      "id": 2901067706,
      "lat": 10.5637787,
      "lon": -61.3090635,
      "timestamp": "2014-06-05T13:15:41Z",
      "version": 1,
      "changeset": 22755804,
      "user": "Siff",
      "uid": 2104970,
      "tags": {
        "amenity": "bar"
      }
    },
    {
      "type": "node",
      "id": 2910002050,
      "lat": 18.6685227,
      "lon": -68.3994258,
      "timestamp": "2023-07-11T22:15:22Z",
      "version": 3,
      "changeset": 138397452,
      "user": "Daneel76",
      "uid": 9057313,
      "tags": {
        "amenity": "bar",
        "name": "Bohio"
      }
    },
    {
      "type": "node",
      "id": 2949512477,
      "lat": 18.4520389,
      "lon": -66.0629818,
      "timestamp": "2017-02-04T19:07:51Z",
      "version": 4,
      "changeset": 45812955,
      "user": "LLAQWA",
      "uid": 77114,
      "tags": {
        "addr:city": "San Juan",
        "addr:housenumber": "1507",
        "addr:postcode": "00911",
        "addr:street": "Calle Loíza",
        "amenity": "bar",
        "contact:email": "elbarbero1507@gmail.com",
        "contact:phone": "+1-787-473-8161",
        "contact:website": "https://www.facebook.com/elbarberopr",
        "name": "El Bar Bero",
        "opening_hours": "We-Sa 19:00-02:00"
      }
    },
    {
      "type": "node",
      "id": 2949512483,
      "lat": 18.4521144,
      "lon": -66.0634686,
      "timestamp": "2016-06-04T18:41:27Z",
      "version": 4,
      "changeset": 39802424,
      "user": "MelanieSanchezVera",
      "uid": 4063597,
      "tags": {
        "addr:city": "San Juan",
        "addr:housenumber": "1503",
        "addr:postcode": "00911",
        "addr:street": "Calle Loíza",
        "amenity": "bar",
        "contact:email": "info@theplanbpr.com",
        "contact:phone": "+1-939-642-3444",
        "contact:website": "http://www.theplanbpr.com/index.htm",
        "cuisine": "bar",
        "name": "Grass Lounge",
        "opening_hours": "20:00-02:00"
      }
    },
    {
      "type": "node",
      "id": 2950114342,
      "lat": 18.4566279,
      "lon": -66.0745558,
      "timestamp": "2018-01-29T12:13:44Z",
      "version": 2,
      "changeset": 55857650,
      "user": "daniel_solow",
      "uid": 1954307,
      "tags": {
        "addr:street": "Avenida Magdalena",
        "amenity": "bar",
        "name": "Stop & Go",
        "toilets": "yes"
      }
    },
    {
      "type": "node",
      "id": 2951585508,
      "lat": 18.3750768,
      "lon": -68.8462445,
      "timestamp": "2025-09-03T12:26:56Z",
      "version": 3,
      "changeset": 171405548,
      "user": "Stoebi",
      "uid": 46023,
      "tags": {
        "amenity": "bar",
        "name": "On The Rocks Bar"
      }
    },
    {
      "type": "node",
      "id": 2951668529,
      "lat": 16.0254974,
      "lon": -61.6972762,
      "timestamp": "2014-07-06T23:56:43Z",
      "version": 1,
      "changeset": 23994955,
      "user": "CL971",
      "uid": 2132462,
      "tags": {
        "amenity": "bar"
      }
    },
    {
      "type": "node",
      "id": 2968182067,
      "lat": 16.0521041,
      "lon": -61.5643445,
      "timestamp": "2014-07-17T22:33:44Z",
      "version": 1,
      "changeset": 24211184,
      "user": "philipp973",
      "uid": 666413,
      "tags": {
        "amenity": "bar",
        "name": "Capes Bar"
      }
    },
    {
      "type": "node",
      "id": 2972413645,
      "lat": 15.9521514,
      "lon": -61.7072756,
      "timestamp": "2016-11-02T15:25:13Z",
      "version": 2,
      "changeset": 43354746,
      "user": "Hervé TUC",
      "uid": 922338,
      "tags": {
        "amenity": "bar",
        "name": "Le Terminus - Chez Jean"
      }
    },
    {
      "type": "node",
      "id": 2973875668,
      "lat": 18.0190158,
      "lon": -63.061224,
      "timestamp": "2014-07-22T00:56:40Z",
      "version": 1,
      "changeset": 24284666,
      "user": "philipp973",
      "uid": 666413,
      "tags": {
        "amenity": "bar",
        "name": "Gizmo's Grill & Bar"
      }
    },
    {
      "type": "node",
      "id": 2973875671,
      "lat": 18.0191123,
      "lon": -63.0609373,
      "timestamp": "2014-07-22T00:56:40Z",
      "version": 1,
      "changeset": 24284666,
      "user": "philipp973",
      "uid": 666413,
      "tags": {
        "amenity": "bar",
        "name": "Toucan's Bar"
      }
    },
    {
      "type": "node",
      "id": 3017969619,
      "lat": 14.4690652,
      "lon": -60.8646183,
      "timestamp": "2019-01-28T03:22:38Z",
      "version": 2,
      "changeset": 66692516,
      "user": "47NOE",
      "uid": 1811738,
      "tags": {
        "amenity": "bar",
        "layer": "1",
        "name": "Le Mayday"
      }
    },
    {
      "type": "node",
      "id": 3021426321,
      "lat": 18.2345016,
      "lon": -66.0326719,
      "timestamp": "2014-08-17T01:12:12Z",
      "version": 1,
      "changeset": 24798347,
      "user": "vramirez122000",
      "uid": 15027,
      "tags": {
        "amenity": "bar"
      }
    },
    {
      "type": "node",
      "id": 3030386746,
      "lat": 16.2773388,
      "lon": -61.8027976,
      "timestamp": "2021-12-01T01:14:42Z",
      "version": 2,
      "changeset": 114423573,
      "user": "Ben Abelshausen",
      "uid": 137772,
      "tags": {
        "amenity": "bar"
      }
    },
    {
      "type": "node",
      "id": 3030477752,
      "lat": 16.3535823,
      "lon": -61.7339498,
      "timestamp": "2018-12-09T01:24:22Z",
      "version": 3,
      "changeset": 65304655,
      "user": "Martin868",
      "uid": 2567631,
      "tags": {
        "amenity": "pub"
      }
    },
    {
      "type": "node",
      "id": 3030496372,
      "lat": 16.3212472,
      "lon": -61.7862967,
      "timestamp": "2014-08-20T20:18:42Z",
      "version": 1,
      "changeset": 24893912,
      "user": "kstar971",
      "uid": 879634,
      "tags": {
        "amenity": "bar"
      }
    },
    {
      "type": "node",
      "id": 3035273317,
      "lat": 16.3426692,
      "lon": -61.7717252,
      "timestamp": "2014-08-22T17:32:55Z",
      "version": 1,
      "changeset": 24936862,
      "user": "kstar971",
      "uid": 879634,
      "tags": {
        "amenity": "pub"
      }
    },
    {
      "type": "node",
      "id": 3090083450,
      "lat": 18.4919981,
      "lon": -69.8622629,
      "timestamp": "2014-09-22T01:56:26Z",
      "version": 1,
      "changeset": 25592981,
      "user": "renesigma",
      "uid": 1139318,
      "tags": {
        "amenity": "pub",
        "name": "Billar",
        "sport": "billards"
      }
    },
    {
      "type": "node",
      "id": 3098121665,
      "lat": 18.4502636,
      "lon": -66.0706434,
      "timestamp": "2014-09-27T02:24:39Z",
      "version": 1,
      "changeset": 25698038,
      "user": "gustavo_pr",
      "uid": 989960,
      "tags": {
        "amenity": "bar",
        "name": "Santurce's Cafe"
      }
    },
    {
      "type": "node",
      "id": 3098121666,
      "lat": 18.4502293,
      "lon": -66.0705979,
      "timestamp": "2017-08-03T01:07:59Z",
      "version": 2,
      "changeset": 50794023,
      "user": "estarq",
      "uid": 4754915,
      "tags": {
        "addr:city": "San Juan",
        "addr:housenumber": "1348",
        "addr:postcode": "00907",
        "addr:state": "PR",
        "addr:street": "Calle Orbeta",
        "amenity": "bar",
        "name": "Tonitas Cafe"
      }
    },
    {
      "type": "node",
      "id": 3104487737,
      "lat": 14.4372593,
      "lon": -60.8263968,
      "timestamp": "2014-09-30T21:26:44Z",
      "version": 1,
      "changeset": 25778549,
      "user": "Stephixus",
      "uid": 318501,
      "tags": {
        "amenity": "bar"
      }
    },
    {
      "type": "node",
      "id": 3137413240,
      "lat": 10.4841091,
      "lon": -66.9435732,
      "timestamp": "2021-03-13T00:37:34Z",
      "version": 3,
      "changeset": 100938368,
      "user": "albertoq",
      "uid": 527105,
      "tags": {
        "addr:city": "Caracas",
        "addr:postcode": "1020",
        "addr:street": "Av. Las Fuentes",
        "amenity": "bar",
        "internet_access": "no",
        "name": "El Cubanito",
        "shop": "bookmaker",
        "smoking": "isolated",
        "wheelchair": "yes"
      }
    },
    {
      "type": "node",
      "id": 3144376530,
      "lat": 10.646179,
      "lon": -61.3816926,
      "timestamp": "2014-10-22T19:39:20Z",
      "version": 1,
      "changeset": 26263629,
      "user": "wkc",
      "uid": 476555,
      "tags": {
        "amenity": "bar",
        "building:level": "2",
        "name": "Surfer's Bar"
      }
    },
    {
      "type": "node",
      "id": 3147543495,
      "lat": 10.4860197,
      "lon": -66.8728269,
      "timestamp": "2021-09-23T21:47:38Z",
      "version": 3,
      "changeset": 111617305,
      "user": "Wilmer Osario",
      "uid": 5443883,
      "tags": {
        "addr:city": "Caracas",
        "addr:postcode": "1050",
        "addr:street": "Cervante",
        "amenity": "pub",
        "name": "Sollube"
      }
    },
    {
      "type": "node",
      "id": 3161537982,
      "lat": 18.472502,
      "lon": -69.9395691,
      "timestamp": "2015-11-04T01:40:33Z",
      "version": 2,
      "changeset": 35069815,
      "user": "renesigma",
      "uid": 1139318,
      "tags": {
        "addr:city": "Santo Domingo",
        "addr:street": "Avenida Gustavo Mejía Ricart",
        "amenity": "bar",
        "name": "La Posta",
        "smoking": "yes"
      }
    },
    {
      "type": "node",
      "id": 3161537983,
      "lat": 18.4736543,
      "lon": -69.9374886,
      "timestamp": "2019-06-15T03:25:29Z",
      "version": 4,
      "changeset": 71270380,
      "user": "HubMiner",
      "uid": 238419,
      "tags": {
        "addr:city": "Santo Domingo",
        "addr:street": "Avenida Gustavo Mejía Ricart esq Federico Geraldino",
        "amenity": "bar",
        "name": "Marjua",
        "opening_hours": "17:00-00:00",
        "smoking": "yes",
        "source": "KG Ground Survey 2016"
      }
    },
    {
      "type": "node",
      "id": 3161537986,
      "lat": 18.4669874,
      "lon": -69.9431876,
      "timestamp": "2019-06-15T03:25:29Z",
      "version": 2,
      "changeset": 71270380,
      "user": "HubMiner",
      "uid": 238419,
      "tags": {
        "addr:city": "Santo Domingo",
        "addr:street": "Calle Rafael Augusto Sanchez",
        "amenity": "bar",
        "name": "Cultura Cervecera",
        "opening_hours": "17:00-01:00",
        "smoking": "outside"
      }
    },
    {
      "type": "node",
      "id": 3170980061,
      "lat": 10.279274,
      "lon": -61.46635,
      "timestamp": "2014-11-06T20:13:01Z",
      "version": 1,
      "changeset": 26601351,
      "user": "evrglo",
      "uid": 1530323,
      "tags": {
        "addr:city": "San Fernando",
        "addr:street": "Court Street",
        "amenity": "pub",
        "atm": "no",
        "cuisine": "caribbean",
        "food": "yes",
        "internet_access": "no",
        "name": "Cristal's",
        "outdoor_seating": "yes",
        "smoking": "separated",
        "takeaway": "yes"
      }
    },