{
  "version": 0.6,
  "generator": "Overpass API 0.7.62.8 e802775f",
  "osm3s": {
    "timestamp_osm_base": "2025-10-23T20:31:06Z",
    "copyright": "The data included in this document is from www.openstreetmap.org. The data is made available under ODbL."
  },
  "elements": [
    {
      "type": "node",
      "id": 196626175,
      "lat": 51.0783222,
      "lon": -114.1306633,
      "timestamp": "2024-11-08T01:43:12Z",
      "version": 5,
      "changeset": 158878033,
      "user": "Unarmored5156",
      "uid": 21276961,
      "tags": {
        "amenity": "pub",
        "check_date": "2024-10-14",
        "level": "0",
        "level:ref": "1",
        "name": "The Den",
        "opening_hours": "Mo-Fr 11:00-20:00; PH off"
      }
    },
    {
      "type": "node",
      "id": 196626183,
      "lat": 51.0784418,
      "lon": -114.1306496,
      "timestamp": "2024-11-08T01:43:12Z",
      "version": 3,
      "changeset": 158878033,
      "user": "Unarmored5156",
      "uid": 21276961,
      "tags": {
        "amenity": "pub",
        "level": "1",
        "level:ref": "2",
        "name": "The Black Lounge",
        "opening_hours": "Mo-Fr 11:00-20:00; PH off"
      }
    },
    {
      "type": "node",
      "id": 196745687,
      "lat": 51.1916672,
      "lon": -114.4703768,
      "timestamp": "2008-09-04T09:01:53Z",
      "version": 2,
      "changeset": 522497,
      "user": "Jason Reid",
      "uid": 7774,
      "tags": {
        "amenity": "pub",
        "created_by": "JOSM",
        "name": "Ducks on the Roof"
      }
    },
    {
      "type": "node",
      "id": 196745732,
      "lat": 51.190523,
      "lon": -114.4696574,
      "timestamp": "2014-08-05T03:05:02Z",
      "version": 2,
      "changeset": 24547352,
      "user": "mike-from-canmore",
      "uid": 2018180,
      "tags": {
        "amenity": "pub",
        "name": "Texas Gate"
      }
    },
    {
      "type": "node",
      "id": 196745811,
      "lat": 51.186764,
      "lon": -114.4647106,
      "timestamp": "2014-08-05T03:05:01Z",
      "version": 3,
      "changeset": 24547352,
      "user": "mike-from-canmore",
      "uid": 2018180,
      "tags": {
        "amenity": "pub",
        "name": "BullHorn Saloon"
      }
    },
    {
      "type": "node",
      "id": 196745839,
      "lat": 51.1934399,
      "lon": -114.4896668,
      "timestamp": "2017-12-14T03:33:28Z",
      "version": 2,
      "changeset": 54613515,
      "user": "4564654",
      "uid": 7223999,
      "tags": {
        "amenity": "pub",
        "name": "Cambrian Arms"
      }
    },
    {
      "type": "node",
      "id": 252672598,
      "lat": 51.1112774,
      "lon": -114.0530693,
      "timestamp": "2019-09-18T22:09:54Z",
      "version": 5,
      "changeset": 74646921,
      "user": "Matthew Darwin",
      "uid": 5633991,
      "tags": {
        "addr:city": "Calgary",
        "addr:housenumber": "53",
        "addr:postcode": "T2K 6H9",
        "addr:street": "Hunterhorn Road NE",
        "amenity": "pub",
        "name": "The Black Bull",
        "opening_hours": "11:00-02:00"
      }
    },
    {
      "type": "node",
      "id": 252827348,
      "lat": 51.0764464,
      "lon": -114.0026841,
      "timestamp": "2008-03-19T00:23:41Z",
      "version": 1,
      "changeset": 349232,
      "user": "Mungewell",
      "uid": 23880,
      "tags": {
        "amenity": "pub",
        "created_by": "Potlatch 0.7b",
        "name": "Toad and Turtle"
      }
    },
    {
      "type": "node",
      "id": 305315527,
      "lat": 51.1553756,
      "lon": -114.0552838,
      "timestamp": "2008-10-18T02:46:46Z",
      "version": 1,
      "changeset": 408285,
      "user": "AKC",
      "uid": 64065,
      "tags": {
        "amenity": "pub",
        "created_by": "Potlatch 0.10e",
        "name": "Woody's Taphouse"
      }
    },
    {
      "type": "node",
      "id": 348231528,
      "lat": 50.4366286,
      "lon": -116.2184582,
      "timestamp": "2009-02-21T21:19:44Z",
      "version": 4,
      "changeset": 597143,
      "user": "Laguna Seca",
      "uid": 36000,
      "tags": {
        "amenity": "pub",
        "created_by": "Potlatch 0.10f",
        "name": "Cappucino Hut"
      }
    },
    {
      "type": "node",
      "id": 419898887,
      "lat": 50.6737572,
      "lon": -114.2801653,
      "timestamp": "2009-06-13T21:56:36Z",
      "version": 1,
      "changeset": 1508729,
      "user": "Mungewell",
      "uid": 23880,
      "tags": {
        "amenity": "bar",
        "name": "Cougars"
      }
    },
    {
      "type": "node",
      "id": 419898891,
      "lat": 50.6730644,
      "lon": -114.277942,
      "timestamp": "2022-04-09T01:01:51Z",
      "version": 2,
      "changeset": 119489111,
      "user": "DannyMcD",
      "uid": 5789626,
      "tags": {
        "amenity": "bar",
        "name": "Renegades"
      }
    },
    {
      "type": "node",
      "id": 443195851,
      "lat": 50.7081072,
      "lon": -119.2513056,
      "timestamp": "2009-07-18T05:01:06Z",
      "version": 1,
      "changeset": 1859647,
      "user": "Rhondle",
      "uid": 88259,
      "tags": {
        "amenity": "pub"
      }
    },
    {
      "type": "node",
      "id": 471225284,
      "lat": 50.948869,
      "lon": -114.0859272,
      "timestamp": "2009-08-19T23:02:13Z",
      "version": 1,
      "changeset": 2206484,
      "user": "Ted Bullock",
      "uid": 54884,
      "tags": {
        "amenity": "bar"
      }
    },
    {
      "type": "node",
      "id": 471275254,
      "lat": 50.9837915,
      "lon": -114.0140816,
      "timestamp": "2016-10-14T23:50:07Z",
      "version": 2,
      "changeset": 42908614,
      "user": "Jesse Baker",
      "uid": 4539274,
      "tags": {
        "amenity": "bar",
        "name": "Partners",
        "name:en": "Partners"
      }
    },
    {
      "type": "node",
      "id": 513736435,
      "lat": 51.0739172,
      "lon": -114.1655574,
      "timestamp": "2014-04-05T21:58:48Z",
      "version": 2,
      "changeset": 21522586,
      "user": "JamesBadger",
      "uid": 901180,
      "tags": {
        "amenity": "pub",
        "name": "Pazzer's Saskatchewan Pub"
      }
    },
    {
      "type": "node",
      "id": 571734360,
      "lat": 51.0373451,
      "lon": -114.1675857,
      "timestamp": "2022-06-25T00:58:05Z",
      "version": 2,
      "changeset": 122822431,
      "user": "HotButter",
      "uid": 4206647,
      "tags": {
        "amenity": "pub",
        "name": "New Camp"
      }
    },
    {
      "type": "node",
      "id": 574044277,
      "lat": 51.1519461,
      "lon": -114.2147774,
      "timestamp": "2009-11-29T02:51:01Z",
      "version": 1,
      "changeset": 3242079,
      "user": "Silvermane",
      "uid": 186339,
      "tags": {
        "amenity": "pub",
        "name": "Blind Monk"
      }
    },
    {
      "type": "node",
      "id": 577473875,
      "lat": 51.0870238,
      "lon": -114.1267733,
      "timestamp": "2025-07-22T04:38:34Z",
      "version": 4,
      "changeset": 169272779,
      "user": "BeefWellington",
      "uid": 22637876,
      "tags": {
        "addr:city": "Calgary",
        "addr:housenumber": "3630",
        "addr:postcode": "T2L 2M6",
        "addr:province": "Alberta",
        "addr:street": "Brentwood Road NW",
        "addr:unit": "800",
        "amenity": "pub",
        "name": "Kampus Brewing Co",
        "phone": "+1 403-284-4404",
        "website": "https://www.calgarysbestpubs.com/kampusbrewing/"
      }
    },
    {
      "type": "node",
      "id": 613569247,
      "lat": 51.1768259,
      "lon": -115.570643,
      "timestamp": "2023-05-29T00:38:45Z",
      "version": 8,
      "changeset": 136675295,
      "user": "lokejul",
      "uid": 2034065,
      "tags": {
        "addr:city": "Banff",
        "addr:housenumber": "202",
        "addr:postcode": "T1L 1B5",
        "addr:street": "Banff Avenue",
        "amenity": "pub",
        "level": "1",
        "name": "Rose and Crown",
        "opening_hours": "12:00-02:00",
        "phone": "+1-403-762-2121",
        "start_date": "1985",
        "website": "https://roseandcrown.ca/"
      }
    },
    {
      "type": "node",
      "id": 616550388,
      "lat": 52.8440844,
      "lon": -110.8408451,
      "timestamp": "2024-07-19T23:55:12Z",
      "version": 2,
      "changeset": 154162235,
      "user": "christopherius",
      "uid": 7106760,
      "tags": {
        "amenity": "bar",
        "name": "Springs Sports Bar"
      }
    },
    {
      "type": "node",
      "id": 616550396,
      "lat": 52.8328712,
      "lon": -110.8620935,
      "timestamp": "2024-06-26T23:06:21Z",
      "version": 3,
      "changeset": 153223550,
      "user": "christopherius",
      "uid": 7106760,
      "tags": {
        "addr:city": "Wainwright",
        "addr:housenumber": "102",
        "addr:postcode": "T9W 1P8",
        "addr:street": "10 Street",
        "amenity": "bar",
        "name": "JD`s @ The Park"
      }
    },
    {
      "type": "node",
      "id": 616550397,
      "lat": 52.8336113,
      "lon": -110.860429,
      "timestamp": "2024-06-29T20:14:05Z",
      "version": 2,
      "changeset": 153346555,
      "user": "christopherius",
      "uid": 7106760,
      "tags": {
        "amenity": "bar",
        "name": "Tony`s"
      }
    },
    {
      "type": "node",
      "id": 616550404,
      "lat": 52.8380794,
      "lon": -110.8566591,
      "timestamp": "2024-07-06T23:05:25Z",
      "version": 2,
      "changeset": 153642135,
      "user": "christopherius",
      "uid": 7106760,
      "tags": {
        "amenity": "bar",
        "name": "Mojo`s"
      }
    },
    {
      "type": "node",
      "id": 619536282,
      "lat": 50.4566886,
      "lon": -116.2383194,
      "timestamp": "2020-06-26T22:56:28Z",
      "version": 2,
      "changeset": 87215152,
      "user": "mvs1010",
      "uid": 6935937,
      "tags": {
        "amenity": "bar",
        "name": "The T-Bar"
      }
    },
    {
      "type": "node",
      "id": 650402597,
      "lat": 51.1236666,
      "lon": -114.2483151,
      "timestamp": "2016-07-08T14:21:25Z",
      "version": 2,
      "changeset": 40569626,
      "user": "abDoug",
      "uid": 3789884,
      "tags": {
        "amenity": "pub",
        "name": "The Last Straw"
      }
    },
    {
      "type": "node",
      "id": 651254319,
      "lat": 53.5239773,
      "lon": -113.5131256,
      "timestamp": "2023-10-19T00:06:02Z",
      "version": 7,
      "changeset": 142787640,
      "user": "b-jazz-bot",
      "uid": 9451067,
      "tags": {
        "addr:city": "Edmonton",
        "addr:housenumber": "10922",
        "addr:postcode": "T6G 0Z1",
        "addr:street": "88 Avenue NW",
        "amenity": "bar",
        "cuisine": "bistro",
        "email": "info@thesugarbowl.org",
        "internet_access": "wlan",
        "name": "Sugar Bowl",
        "opening_hours": "08:00-01:00; Fr,Sa 08:00-02:00",
        "outdoor_seating": "yes",
        "phone": "+1-780-433-8369",
        "smoking": "no",
        "website": "https://www.thesugarbowl.org/"
      }
    },
    {
      "type": "node",
      "id": 673606457,
      "lat": 50.9152683,
      "lon": -113.9610766,
      "timestamp": "2019-09-18T14:20:43Z",
      "version": 4,
      "changeset": 74630446,
      "user": "Matthew Darwin",
      "uid": 5633991,
      "tags": {
        "addr:city": "Calgary",
        "addr:housenumber": "53",
        "addr:postcode": "T2Z 0N2",
        "addr:street": "High Street SE",
        "amenity": "pub",
        "name": "Kilt and Kaber Ale House"
      }
    },
    {
      "type": "node",
      "id": 677232784,
      "lat": 53.5702427,
      "lon": -113.4853146,
      "timestamp": "2010-03-29T01:12:11Z",
      "version": 2,
      "changeset": 4263362,
      "user": "Clinton Carew",
      "uid": 195474,
      "tags": {
        "amenity": "bar",
        "name": "Green Frogs"
      }
    },
    {
      "type": "node",
      "id": 678980567,
      "lat": 51.178345,
      "lon": -115.571681,
      "timestamp": "2023-05-29T00:38:45Z",
      "version": 4,
      "changeset": 136675295,
      "user": "lokejul",
      "uid": 2034065,
      "tags": {
        "addr:city": "Banff",
        "addr:housenumber": "207",
        "addr:postcode": "T1L 1C2",
        "addr:street": "Wolf Street",
        "amenity": "pub",
        "description": "Irish Pub",
        "level": "0",
        "name": "St. James's Gate Olde Irish Pub",
        "phone": "+1-403-762-9355",
        "start_date": "1996",
        "website": "https://www.stjamesgatebanff.com"
      }
    },
    {
      "type": "node",
      "id": 683772704,
      "lat": 58.5144523,
      "lon": -117.127545,
      "timestamp": "2017-10-14T19:53:35Z",
      "version": 2,
      "changeset": 52936991,
      "user": "Rps333",
      "uid": 596047,
      "tags": {
        "amenity": "bar"
      }
    },
    {
      "type": "node",
      "id": 810757290,
      "lat": 51.162195,
      "lon": -114.1248213,
      "timestamp": "2019-09-23T15:17:51Z",
      "version": 6,
      "changeset": 74815458,
      "user": "Matthew Darwin",
      "uid": 5633991,
      "tags": {
        "addr:housenumber": "#116-12024",
        "addr:street": "Symons Valley Road NW",
        "amenity": "pub",
        "name": "Scotsman's Well",
        "phone": "+1-403-274-9355",
        "website": "https://www.scotsmanswell.com/"
      }
    },
    {
      "type": "node",
      "id": 818389834,
      "lat": 53.5162406,
      "lon": -113.4985654,
      "timestamp": "2019-03-06T21:40:10Z",
      "version": 3,
      "changeset": 67860336,
      "user": "b-jazz-bot",
      "uid": 9451067,
      "tags": {
        "amenity": "pub",
        "microbrewery": "yes",
        "name": "Polar Park Brewing Co.",
        "note": "Name abbrvt'd on website: Co.",
        "website": "https://www.polarparkbrewing.com/"
      }
    },
    {
      "type": "node",
      "id": 838720448,
      "lat": 51.1353224,
      "lon": -114.1084,
      "timestamp": "2021-11-12T04:54:59Z",
      "version": 6,
      "changeset": 113677657,
      "user": "HubMiner",
      "uid": 238419,
      "tags": {
        "addr:city": "Calgary",
        "addr:housenumber": "16",
        "addr:province": "Alberta",
        "addr:street": "MacEwan Drive NW",
        "addr:unit": "3",
        "amenity": "pub",
        "name": "Brixton Neighborhood Pub",
        "opening_hours": "Mo-Fr 15:00-22:00"
      }
    },
    {
      "type": "node",
      "id": 841414139,
      "lat": 53.5417127,
      "lon": -113.5080708,
      "timestamp": "2024-03-21T18:07:11Z",
      "version": 4,
      "changeset": 148977466,
      "user": "TagaSanPedroAko",
      "uid": 2541613,
      "tags": {
        "addr:city": "Edmonton",
        "addr:housenumber": "10125",
        "addr:postcode": "T5J 3P2",
        "addr:street": "109 Street NW",
        "amenity": "pub",
        "name": "The Pint Public House"
      }
    },
    {
      "type": "node",
      "id": 870544638,
      "lat": 51.6409692,
      "lon": -111.9366989,
      "timestamp": "2010-08-20T16:04:01Z",
      "version": 1,
      "changeset": 5545080,
      "user": "petersfreeman",
      "uid": 143129,
      "tags": {
        "amenity": "bar"
      }
    },
    {
      "type": "node",
      "id": 907891497,
      "lat": 53.6072801,
      "lon": -113.4691479,
      "timestamp": "2014-02-13T06:09:45Z",
      "version": 2,
      "changeset": 20535405,
      "user": "wheelmap_visitor",
      "uid": 290680,
      "tags": {
        "amenity": "pub",
        "name": "Chimmy's Pub & Grill",
        "wheelchair": "limited"
      }
    },
    {
      "type": "node",
      "id": 908962049,
      "lat": 53.5613142,
      "lon": -113.4735955,
      "timestamp": "2010-09-12T18:27:53Z",
      "version": 1,
      "changeset": 5762754,
      "user": "AKC",
      "uid": 64065,
      "tags": {
        "amenity": "pub",
        "name": "The End Zone Pub & Grill"
      }
    },
    {
      "type": "node",
      "id": 926027471,
      "lat": 50.9182407,
      "lon": -115.1466089,
      "timestamp": "2011-06-16T22:31:50Z",
      "version": 2,
      "changeset": 8459274,
      "user": "wheelmap_visitor",
      "uid": 290680,
      "tags": {
        "amenity": "pub",
        "name": "Bighorn Lounge",
        "wheelchair": "yes"
      }
    },
    {
      "type": "node",
      "id": 963960611,
      "lat": 53.5591711,
      "lon": -113.5255679,
      "timestamp": "2010-10-24T21:31:01Z",
      "version": 1,
      "changeset": 6163730,
      "user": "AKC",
      "uid": 64065,
      "tags": {
        "amenity": "bar",
        "name": "B Street Bar"
      }
    },
    {
      "type": "node",
      "id": 975890832,
      "lat": 53.5506164,
      "lon": -113.5909092,
      "timestamp": "2010-11-03T17:31:37Z",
      "version": 1,
      "changeset": 6277863,
      "user": "AKC",
      "uid": 64065,
      "tags": {
        "amenity": "pub",
        "name": "Silver Martini Pub & Grill"
      }
    },
    {
      "type": "node",
      "id": 976462170,
      "lat": 53.4986064,
      "lon": -113.4968324,
      "timestamp": "2019-09-18T14:11:25Z",
      "version": 7,
      "changeset": 74629683,
      "user": "Matthew Darwin",
      "uid": 5633991,
      "tags": {
        "addr:city": "Edmonton",
        "addr:housenumber": "6107",
        "addr:postcode": "T6H 2K8",
        "addr:street": "104 Street NW",
        "amenity": "bar",
        "name": "Midway Music Arcade Kitchen",
        "outdoor_seating": "no",
        "website": "https://midwaybar.ca/"
      }
    },
    {
      "type": "node",
      "id": 976462184,
      "lat": 53.4718447,
      "lon": -113.4950399,
      "timestamp": "2025-10-18T22:38:24Z",
      "version": 6,
      "changeset": 173469810,
      "user": "Jons Icoli",
      "uid": 22342502,
      "tags": {
        "addr:housenumber": "3803",
        "addr:street": "Calgary Trail NW",
        "amenity": "pub",
        "check_date": "2025-10-18",
        "internet_access": "wlan",
        "internet_access:fee": "no",
        "name": "Wild Wing",
        "opening_hours": "11:00-23:00",
        "payment:cash": "yes",
        "payment:credit_cards": "yes",
        "payment:debit_cards": "yes",
        "website": "https://wildwingrestaurants.com",
        "wheelchair": "yes"
      }
    },
    {
      "type": "node",
      "id": 977801782,
      "lat": 53.5173368,
      "lon": -113.5001168,
      "timestamp": "2010-11-05T20:33:17Z",
      "version": 1,
      "changeset": 6298066,
      "user": "AKC",
      "uid": 64065,
      "tags": {
        "amenity": "bar",
        "name": "Lyve on Whyte",
        "website": "http://lyveonwhyte.com/"
      }
    },
    {
      "type": "node",
      "id": 978165621,
      "lat": 53.5592957,
      "lon": -113.4905171,
      "timestamp": "2010-11-06T04:16:43Z",
      "version": 1,
      "changeset": 6299868,
      "user": "AKC",
      "uid": 64065,
      "tags": {
        "amenity": "pub",
        "name": "Chicago Joe's Pizza & Pub"
      }
    },
    {
      "type": "node",
      "id": 999050487,
      "lat": 55.348132,
      "lon": -118.7829875,
      "timestamp": "2010-11-22T05:00:30Z",
      "version": 1,
      "changeset": 6428847,
      "user": "Seanson",
      "uid": 373477,
      "tags": {
        "amenity": "pub",
        "name": "Alamo"
      }
    },
    {
      "type": "node",
      "id": 1036718766,
      "lat": 50.9307372,
      "lon": -113.9707648,
      "timestamp": "2017-06-01T19:45:20Z",
      "version": 4,
      "changeset": 49175205,
      "user": "ianb",
      "uid": 185998,
      "tags": {
        "amenity": "pub",
        "name": "Woody's Taphouse"
      }
    },
    {
      "type": "node",
      "id": 1053260916,
      "lat": 53.5630899,
      "lon": -113.5087759,
      "timestamp": "2010-12-27T18:57:04Z",
      "version": 2,
      "changeset": 6780943,
      "user": "Martin11310",
      "uid": 388550,
      "tags": {
        "amenity": "pub",
        "level": "1",
        "name": "Runway 29 Pub & Lounge"
      }
    },
    {
      "type": "node",
      "id": 1074585070,
      "lat": 53.5854499,
      "lon": -113.4909225,
      "timestamp": "2022-05-12T20:32:09Z",
      "version": 2,
      "changeset": 120905606,
      "user": "DannyMcD",
      "uid": 5789626,
      "tags": {
        "addr:city": "Edmonton",
        "addr:housenumber": "12711",
        "addr:postcode": "T5E 4C1",
        "addr:street": "97 Street NW",
        "amenity": "pub",
        "name": "The Canadian Brew House;The Canadian Brewhouse",
        "website": "http://www.thecanadianbrewhouse.com/"
      }
    },
    {
      "type": "node",
      "id": 1074746702,
      "lat": 53.5700273,
      "lon": -113.5349393,
      "timestamp": "2022-05-08T14:22:19Z",
      "version": 2,
      "changeset": 120704744,
      "user": "DannyMcD",
      "uid": 5789626,
      "tags": {
        "amenity": "pub",
        "name": "High Note Bar & Grill"
      }
    },
    {
      "type": "node",
      "id": 1092906683,
      "lat": 51.0671377,
      "lon": -114.0736251,
      "timestamp": "2014-02-15T05:49:55Z",
      "version": 2,
      "changeset": 20570235,
      "user": "alester",
      "uid": 307202,
      "tags": {
        "amenity": "pub",
        "name": "The Cat n' Fiddle Pub",
        "website": "http://www.catnfiddlepub.ca/"
      }
    },
    {
      "type": "node",
      "id": 1137135993,
      "lat": 50.032182,
      "lon": -110.6864724,
      "timestamp": "2019-09-03T13:37:51Z",
      "version": 3,
      "changeset": 74042119,
      "user": "Matthew Darwin",
      "uid": 5633991,
      "tags": {
        "addr:city": "Medicine Hat",
        "addr:housenumber": "11",
        "addr:postcode": "T1A 1J2",
        "addr:street": "7 Street Southeast",
        "addr:unit": "B",
        "amenity": "pub",
        "name": "Lizard's Pub & Eatery"
      }
    },
    {
      "type": "node",
      "id": 1148478199,
      "lat": 53.5704968,
      "lon": -113.5373727,
      "timestamp": "2022-05-08T14:22:19Z",
      "version": 2,
      "changeset": 120704744,
      "user": "DannyMcD",
      "uid": 5789626,
      "tags": {
        "amenity": "pub",
        "name": "Big Foot Pub"
      }
    },
    {
      "type": "node",
      "id": 1160763809,
      "lat": 51.0416023,
      "lon": -114.0744063,
      "timestamp": "2024-07-12T04:26:11Z",
      "version": 3,
      "changeset": 153836656,
      "user": "aljedaxi",
      "uid": 9581696,
      "tags": {
        "addr:city": "Calgary",
        "addr:housenumber": "1201",
        "addr:postcode": "T2R 0Y6",
        "addr:province": "AB",
        "addr:street": "5 Street SW",
        "amenity": "pub",
        "contact:facebook": "https://facebook.com/hudsonsdowntowncalgary",
        "email": "downtowncgy@hudsonscanadaspub.com",
        "fax": "+1 403 457 1181",
        "indoor_seating": "yes",
        "name": "Hudsons Tap House",
        "outdoor_seating": "yes",
        "phone": "+1 403 457 1119",
        "website": "https://hudsonscanadaspub.com/"
      }
    },
    {
      "type": "node",
      "id": 1293193505,
      "lat": 53.5182456,
      "lon": -113.4866735,
      "timestamp": "2021-04-27T15:51:05Z",
      "version": 2,
      "changeset": 103717596,
      "user": "Viajero Perdido",
      "uid": 2365330,
      "tags": {
        "amenity": "bar",
        "name": "Empress Ale House"
      }
    },
    {
      "type": "node",
      "id": 1304560479,
      "lat": 51.1748283,
      "lon": -115.570631,
      "timestamp": "2023-06-03T17:34:37Z",
      "version": 6,
      "changeset": 136910489,
      "user": "lokejul",
      "uid": 2034065,
      "tags": {
        "addr:housenumber": "110",
        "addr:postcode": "T1L 1G2",
        "addr:street": "Banff Avenue",
        "alt_name": "The Pub; The Lodge; The Taproom",
        "amenity": "pub",
        "level": "1",
        "name": "Banff Ave Brewing Company",
        "opening_hours": "Mo-We 12:00-00:00; Th,Fr 12:00-01:00; Sa 11:30-01:00; Su 11:30-00:00",
        "phone": "+1-403-762-1003",
        "website": "https://banffavebrewingco.ca"
      }
    },
    {
      "type": "node",
      "id": 1305130158,
      "lat": 51.0445968,
      "lon": -114.0923244,
      "timestamp": "2025-07-25T01:02:12Z",
      "version": 5,
      "changeset": 169427132,
      "user": "hoserab",
      "uid": 5722347,
      "tags": {
        "addr:city": "Calgary",
        "addr:housenumber": "1324",
        "addr:postcode": "T3C 0J2",
        "addr:province": "Alberta",
        "addr:street": "10 Avenue SW",
        "amenity": "bar",
        "email": "info@galaxykaraokebar.com",
        "name": "Galaxy Karaoke",
        "name:en": "Galaxy Karaoke",
        "name:ko": "갤럭시 노래방",
        "opening_hours": "Fr-Sa 18:00-02:00; Su-Th 18:00-24:00",
        "phone": "+1 403-452-7790",
        "website": "https://galaxykaraokebar.com/"
      }
    },
    {
      "type": "node",
      "id": 1305234608,
      "lat": 53.5226283,
      "lon": -113.5186045,
      "timestamp": "2019-09-18T14:11:25Z",
      "version": 4,
      "changeset": 74629683,
      "user": "Matthew Darwin",
      "uid": 5633991,
      "tags": {
        "addr:city": "Edmonton",
        "addr:housenumber": "11113",
        "addr:postcode": "T6G 0X8",
        "addr:street": "87 Avenue NW",
        "amenity": "pub",
        "name": "The Writer's Room",
        "opening_hours": "11:00-01:00"
      }
    },
    {
      "type": "node",
      "id": 1305234609,
      "lat": 53.5517674,
      "lon": -113.5078451,
      "timestamp": "2011-05-29T20:53:03Z",
      "version": 1,
      "changeset": 8285998,
      "user": "AKC",
      "uid": 64065,
      "tags": {
        "amenity": "pub",
        "name": "Crown & Pub"
      }
    },
    {
      "type": "node",
      "id": 1305260990,
      "lat": 53.5419882,
      "lon": -113.6233449,
      "timestamp": "2023-10-18T23:55:02Z",
      "version": 3,
      "changeset": 142787321,
      "user": "b-jazz-bot",
      "uid": 9451067,
      "tags": {
        "addr:city": "Edmonton",
        "addr:housenumber": "17512",
        "addr:postcode": "T5S 2S1",
        "addr:province": "AB",
        "addr:street": "Stony Plain Road NW",
        "amenity": "pub",
        "name": "Metropolitan Billiards",
        "website": "https://metrobilliards.com/"
      }
    },
    {
      "type": "node",
      "id": 1314738116,
      "lat": 51.2025593,
      "lon": -113.9918852,
      "timestamp": "2024-05-22T01:28:50Z",
      "version": 2,
      "changeset": 151652793,
      "user": "Ben  Glenroy",
      "uid": 21519303,
      "tags": {
        "amenity": "pub",
        "name": "Fionn Maccool’s Irish Pub",
        "note": "Vacant retail shops within crossiron mills.",
        "theme": "irish"
      }
    },
    {
      "type": "node",
      "id": 1329128670,
      "lat": 53.51653,
      "lon": -113.4950954,
      "timestamp": "2019-03-06T06:44:00Z",
      "version": 2,
      "changeset": 67832407,
      "user": "b-jazz-bot",
      "uid": 9451067,
      "tags": {
        "amenity": "bar",
        "name": "Cook County Saloon",
        "website": "https://www.cookcountysaloon.com/"
      }
    },
    {
      "type": "node",
      "id": 1337984128,
      "lat": 53.4824687,
      "lon": -113.4942684,
      "timestamp": "2011-06-25T07:48:39Z",
      "version": 1,
      "changeset": 8539619,
      "user": "AKC",
      "uid": 64065,
      "tags": {
        "amenity": "pub",
        "name": "Lion's Head Pub"
      }
    },
    {
      "type": "node",
      "id": 1399442150,
      "lat": 50.5553131,
      "lon": -119.1414191,
      "timestamp": "2011-08-15T15:40:30Z",
      "version": 2,
      "changeset": 9028280,
      "user": "mattropolis",
      "uid": 492807,
      "tags": {
        "amenity": "bar"
      }
    },
    {
      "type": "node",
      "id": 1444288039,
      "lat": 51.0379842,
      "lon": -114.073546,
      "timestamp": "2024-07-01T22:29:11Z",
      "version": 6,
      "changeset": 153431390,
      "user": "aljedaxi",
      "uid": 9581696,
      "tags": {
        "addr:city": "Calgary",
        "addr:housenumber": "534",
        "addr:postcode": "T2S 0B1",
        "addr:province": "AB",
        "addr:street": "17 Avenue SW",
        "amenity": "pub",
        "contact:facebook": "https://www.facebook.com/shipandanchorpub/",
        "contact:instagram": "shipandanchorpub",
        "contact:twitter": "@ship_and_anchor",
        "delivery": "yes",
        "delivery:partner": "skipthedishes",
        "indoor_seating": "yes",
        "name": "Ship & Anchor Pub",
        "opening_hours": "Mo-Su 10:00-03:00",
        "outdoor_seating": "yes",
        "website": "https://shipandanchor.com/",
        "wheelchair": "yes"
      }
    },
    {
      "type": "node",
      "id": 1639979266,
      "lat": 50.052845,
      "lon": -119.410122,
      "timestamp": "2022-05-20T04:03:33Z",
      "version": 2,
      "changeset": 121221359,
      "user": "lionfish16",
      "uid": 8656157,
      "tags": {
        "amenity": "pub",
        "name": "Turtle Bay Pub",
        "outdoor_seating": "yes",
        "smoking": "no",
        "toilets": "yes",
        "toilets:access": "customers"
      }
    },
    {
      "type": "node",
      "id": 1641391814,
      "lat": 51.0369942,
      "lon": -113.9626506,
      "timestamp": "2012-02-21T02:23:44Z",
      "version": 1,
      "changeset": 10746842,
      "user": "AKC",
      "uid": 64065,
      "tags": {
        "amenity": "bar",
        "name": "County Line Saloon"
      }
    },
    {
      "type": "node",
      "id": 1662936731,
      "lat": 50.876141,
      "lon": -114.0377738,
      "timestamp": "2012-03-06T19:18:28Z",
      "version": 1,
      "changeset": 10893460,
      "user": "CASHCL",
      "uid": 611758,
      "tags": {
        "addr:housename": "Walden Gate",
        "amenity": "pub",
        "name": "Windsor Rose GastroPub"
      }
    },
    {
      "type": "node",
      "id": 1709264210,
      "lat": 53.6752316,
      "lon": -113.4889044,
      "timestamp": "2012-04-09T21:53:16Z",
      "version": 1,
      "changeset": 11245887,
      "user": "cdn_madness",
      "uid": 653603,
      "tags": {
        "amenity": "pub",
        "name": "CFB Edmonton Jr. Ranks Mess"
      }
    },
    {
      "type": "node",
      "id": 1735998375,
      "lat": 51.0386602,
      "lon": -114.0949988,
      "timestamp": "2012-04-30T05:19:00Z",
      "version": 1,
      "changeset": 11456252,
      "user": "AKC",
      "uid": 64065,
      "tags": {
        "amenity": "bar",
        "name": "Toque International Lounge",
        "website": "http://www.facebook.com/pages/Toque-International-Lounge/110716312346052"
      }
    },
    {
      "type": "node",
      "id": 1749050732,
      "lat": 53.5867214,
      "lon": -110.5270364,
      "timestamp": "2014-11-04T05:00:17Z",
      "version": 3,
      "changeset": 26541330,
      "user": "Darren Wiebe - Aleph",
      "uid": 1149009,
      "tags": {
        "amenity": "bar"
      }
    },
    {
      "type": "node",
      "id": 1792700217,
      "lat": 51.071058,
      "lon": -113.9826709,
      "timestamp": "2023-10-24T02:08:28Z",
      "version": 2,
      "changeset": 143043802,
      "user": "b-jazz-bot",
      "uid": 9451067,
      "tags": {
        "amenity": "pub",
        "name": "Jamesons Irish Pub",
        "website": "https://jamesonspubs.com/sunridge/"
      }
    },
    {
      "type": "node",
      "id": 1809357832,
      "lat": 51.0457034,
      "lon": -114.064102,
      "timestamp": "2023-10-24T02:05:50Z",
      "version": 5,
      "changeset": 143043738,
      "user": "b-jazz-bot",
      "uid": 9451067,
      "tags": {
        "addr:city": "Calgary",
        "addr:housenumber": "118",
        "addr:postcode": "T2P 1B3",
        "addr:province": "AB",
        "addr:street": "8 Avenue SW",
        "addr:unit": "100",
        "amenity": "bar",
        "brewery": "various",
        "contact:facebook": "https://www.facebook.com/wednesdayroom",
        "contact:instagram": "thewednesdayroom",
        "contact:twitter": "@wednesday_room",
        "email": "info@wednesdayroom.com",
        "name": "The Wednesday Room",
        "opening_hours": "Tu-Th 17:00-23:00; Fr-Sa 17:00-24:00; Su-Mo off",
        "phone": "+1 403 452 5080",
        "reservation": "yes",
        "website": "https://wednesdayroom.com/",
        "wheelchair": "limited"
      }
    },
    {
      "type": "node",
      "id": 1824976410,
      "lat": 51.0589296,
      "lon": -114.0143316,
      "timestamp": "2012-07-14T02:03:09Z",
      "version": 1,
      "changeset": 12213309,
      "user": "AKC",
      "uid": 64065,
      "tags": {
        "amenity": "pub",
        "name": "Galliano Neighbourhood Pub",
        "website": "http://www.gallianopub.com/page/page/5467114.htm"
      }
    },
    {
      "type": "node",
      "id": 1824985576,
      "lat": 51.0952655,
      "lon": -114.0619675,
      "timestamp": "2012-07-14T02:44:59Z",
      "version": 1,
      "changeset": 12213462,
      "user": "AKC",
      "uid": 64065,
      "tags": {
        "amenity": "pub",
        "name": "Round the Corner Pub"
      }
    },
    {
      "type": "node",
      "id": 1860640725,
      "lat": 53.5113648,
      "lon": -113.3123323,
      "timestamp": "2012-08-10T19:08:56Z",
      "version": 1,
      "changeset": 12683674,
      "user": "Sundance",
      "uid": 239998,
      "tags": {
        "amenity": "pub",
        "cuisine": "sandwich",
        "name": "Original Joe's",
        "source:name": "local_knowledge"
      }
    },
    {
      "type": "node",
      "id": 1907735686,
      "lat": 51.4261683,
      "lon": -116.180947,
      "timestamp": "2014-02-10T16:19:41Z",
      "version": 2,
      "changeset": 20488090,
      "user": "MuzikMachine",
      "uid": 1820014,
      "tags": {
        "amenity": "pub",
        "name": "The Outpost",
        "operator": "Post Hotel"
      }
    },
    {
      "type": "node",
      "id": 1925831376,
      "lat": 53.3528927,
      "lon": -110.8559917,
      "timestamp": "2023-12-17T00:35:27Z",
      "version": 2,
      "changeset": 145201448,
      "user": "christopherius",
      "uid": 7106760,
      "tags": {
        "amenity": "bar",
        "name": "Brunnie"
      }
    },
    {
      "type": "node",
      "id": 1925831380,
      "lat": 53.351119,
      "lon": -110.8354316,
      "timestamp": "2016-09-21T15:28:06Z",
      "version": 3,
      "changeset": 42326754,
      "user": "MuzikMachine",
      "uid": 1820014,
      "tags": {
        "amenity": "bar",
        "name": "Ropers Lounge"
      }
    },
    {
      "type": "node",
      "id": 1955858979,
      "lat": 53.5414141,
      "lon": -113.498998,
      "timestamp": "2025-08-09T08:56:52Z",
      "version": 3,
      "changeset": 170189774,
      "user": "JMGonk",
      "uid": 13501296,
      "tags": {
        "addr:city": "Edmonton",
        "addr:housenumber": "10115",
        "addr:postcode": "T5J 0Z9",
        "addr:province": "AB",
        "addr:street": "104 Street",
        "amenity": "bar",
        "email": "info@tzin.ca",
        "name": "Tzin Wine and Tapas",
        "opening_hours": "Su,Mo off; Tu-Th 16:00-23:00; Fr-Sa 16:00-24:00",
        "phone": "+1 780-428-8946",
        "website": "https://tzin.ca/"
      }
    },
    {
      "type": "node",
      "id": 1956642696,
      "lat": 53.5404943,
      "lon": -113.4989953,
      "timestamp": "2012-10-10T13:15:40Z",
      "version": 1,
      "changeset": 13440987,
      "user": "Galahad 2000",
      "uid": 528656,
      "tags": {
        "addr:housenumber": "10041",
        "addr:street": "104 Street",
        "amenity": "bar",
        "name": "Cask and Barrel"
      }
    },
    {
      "type": "node",
      "id": 2061251803,
      "lat": 53.612638,
      "lon": -113.379233,
      "timestamp": "2018-10-26T14:59:21Z",
      "version": 2,
      "changeset": 63903845,
      "user": "Matthew Darwin",
      "uid": 5633991,
      "tags": {
        "addr:city": "Edmonton",
        "amenity": "pub",
        "cuisine": "burger",
        "microbrewery": "no",
        "name": "Doyle's Pub",
        "takeaway": "yes",
        "wheelchair": "yes"
      }
    },
    {
      "type": "node",
      "id": 2126939910,
      "lat": 51.1754838,
      "lon": -115.5713373,
      "timestamp": "2023-10-02T11:37:42Z",
      "version": 5,
      "changeset": 142035052,
      "user": "seattlefyi",
      "uid": 692614,
      "tags": {
        "addr:housenumber": "119",
        "addr:postcode": "T1L 1G1",
        "addr:street": "Banff Avenue",
        "amenity": "pub",
        "bar": "yes",
        "check_date": "2023-10-01",
        "level": "1",
        "name": "The Elk & Oarsman",
        "opening_hours": "Mo-Fr 12:00-23:00; Sa,Su 11:00-23:00",
        "phone": "+1-403-762-4616",
        "website": "https://elkandoarsman.com"
      }
    },
    {
      "type": "node",
      "id": 2169663279,
      "lat": 51.7972816,
      "lon": -114.641583,
      "timestamp": "2013-03-18T01:58:26Z",
      "version": 2,
      "changeset": 15403409,
      "user": "Praxlus",
      "uid": 666390,
      "tags": {
        "addr:housenumber": "250",
        "addr:postcode": "T0M 1X0",
        "addr:street": "Main Ave E",
        "amenity": "pub",
        "name": "Swamp Donkeys Pub",
        "wifi": "no"
      }
    },
    {
      "type": "node",
      "id": 2173587131,
      "lat": 55.3322333,
      "lon": -115.4336642,
      "timestamp": "2025-06-04T20:49:43Z",
      "version": 2,
      "changeset": 167196197,
      "user": "AmyGISAdmin",
      "uid": 22970269,
      "tags": {
        "amenity": "bar",
        "name": "Kinuso Bar"
      }
    },
    {
      "type": "node",
      "id": 2195980963,
      "lat": 55.2824726,
      "lon": -114.7726611,
      "timestamp": "2018-10-19T16:26:26Z",
      "version": 2,
      "changeset": 63683836,
      "user": "Melanie Chabot",
      "uid": 8444217,
      "tags": {
        "amenity": "bar",
        "name": "Joey's Sports Bar"
      }
    },
    {
      "type": "node",
      "id": 2235253231,
      "lat": 52.8190335,
      "lon": -110.8835885,
      "timestamp": "2013-03-29T18:16:17Z",
      "version": 1,
      "changeset": 15542124,
      "user": "Rps333",
      "uid": 596047,
      "tags": {
        "amenity": "bar"
      }
    },
    {
      "type": "node",
      "id": 2478216384,
      "lat": 53.5028245,
      "lon": -113.5799187,
      "timestamp": "2013-09-30T20:59:12Z",
      "version": 1,
      "changeset": 18118161,
      "user": "Sundance",
      "uid": 239998,
      "tags": {
        "amenity": "pub",
        "name": "Mahogany Bar",
        "source:name": "local_knowledge"
      }
    },
    {
      "type": "node",
      "id": 2602720870,
      "lat": 50.9884256,
      "lon": -114.070819,
      "timestamp": "2013-12-31T06:24:57Z",
      "version": 1,
      "changeset": 19727048,
      "user": "discovery2000one",
      "uid": 1862018,
      "tags": {
        "addr:city": "Calgary",
        "addr:housenumber": "7304",
        "addr:postcode": "T2H 0L8",
        "addr:street": "Macleod Trail S",
        "amenity": "pub",
        "name": "Limericks"
      }
    },
    {
      "type": "node",
      "id": 2609812662,
      "lat": 51.0439823,
      "lon": -114.1400239,
      "timestamp": "2014-01-05T17:37:41Z",
      "version": 2,
      "changeset": 19828214,
      "user": "discovery2000one",
      "uid": 1862018,
      "tags": {
        "addr:city": "Calgary",
        "addr:housenumber": "1002",
        "addr:postcode": "T3C 1S2",
        "addr:street": "37 Street SW",
        "amenity": "bar",
        "name": "Aussie Rules Foodhouse & Bar",
        "short_name": "Aussie Rules"
      }
    },
    {
      "type": "node",
      "id": 2953267833,
      "lat": 51.067456,
      "lon": -114.043064,
      "timestamp": "2021-04-15T03:24:07Z",
      "version": 3,
      "changeset": 102959534,
      "user": "roaur",
      "uid": 2734080,
      "tags": {
        "amenity": "bar",
        "name": "Len's Den"
      }
    },
    {
      "type": "node",
      "id": 3008646006,
      "lat": 53.6305708,
      "lon": -113.5925973,
      "timestamp": "2014-08-10T13:33:07Z",
      "version": 1,
      "changeset": 24654978,
      "user": "Rps333",
      "uid": 596047,
      "tags": {
        "addr:housenumber": "23",
        "addr:street": "Akins Drive",
        "amenity": "pub",
        "name": "Lb's Pub"
      }
    },
    {
      "type": "node",
      "id": 3011543442,
      "lat": 53.6366098,
      "lon": -113.5750717,
      "timestamp": "2021-03-02T15:50:56Z",
      "version": 3,
      "changeset": 100290970,
      "user": "Jumpin1",
      "uid": 10309568,
      "tags": {
        "addr:city": "St. Albert",
        "addr:housenumber": "112 #205",
        "addr:street": "Carnegie Drive",
        "amenity": "pub",
        "name": "The Bourbon Room."
      }
    },
    {
      "type": "node",
      "id": 3154827222,
      "lat": 50.9978911,
      "lon": -118.1962499,
      "timestamp": "2025-06-01T21:55:07Z",
      "version": 7,
      "changeset": 167068970,
      "user": "joel56dt",
      "uid": 3794090,
      "tags": {
        "addr:city": "Revelstoke",
        "addr:housenumber": "306",
        "addr:postcode": "V0E 2S0",
        "addr:street": "MacKenzie Avenue",
        "amenity": "pub",
        "cuisine": "regional",
        "description": "Bar & Grill",
        "name": "Village Idiot",
        "phone": "+1-250-837-6240",
        "reservation": "no",
        "website": "http://www.thevillageidiot.ca"
      }
    },
    {
      "type": "node",
      "id": 3308022145,
      "lat": 53.5421014,
      "lon": -113.4912939,
      "timestamp": "2023-08-18T22:38:55Z",
      "version": 2,
      "changeset": 140076444,
      "user": "TinaBo",
      "uid": 1556884,
      "tags": {
        "amenity": "pub",
        "name": "Craft Beer Market",
        "opening_hours": "Su-Th 11:00-12:00, Fr,Sa 11:00-01:30"
      }
    },
    {
      "type": "node",
      "id": 3316894849,
      "lat": 54.7177907,
      "lon": -115.4022455,
      "timestamp": "2018-07-30T12:59:19Z",
      "version": 3,
      "changeset": 61194938,
      "user": "shreena",
      "uid": 8444496,
      "tags": {
        "amenity": "bar",
        "name": "Swan Hills Hotel",
        "toilets:wheelchair": "yes",
        "wheelchair": "yes"
      }
    },
    {
      "type": "node",
      "id": 3372125699,
      "lat": 53.526097,
      "lon": -113.5234433,
      "timestamp": "2015-02-25T18:18:13Z",
      "version": 1,
      "changeset": 29097559,
      "user": "Flight780",
      "uid": 2525040,
      "tags": {
        "amenity": "pub",
        "name": "Dewey's"
      }
    },
    {
      "type": "node",
      "id": 3378977600,
      "lat": 51.0740963,
      "lon": -114.0560111,
      "timestamp": "2019-09-18T22:09:54Z",
      "version": 3,
      "changeset": 74646921,
      "user": "Matthew Darwin",
      "uid": 5633991,
      "tags": {
        "addr:city": "Calgary",
        "addr:housenumber": "2418",
        "addr:street": "Edmonton Trail NE",
        "amenity": "pub",
        "name": "Nixx"
      }
    },
    {
      "type": "node",
      "id": 3401333874,
      "lat": 51.0293182,
      "lon": -114.0301806,
      "timestamp": "2024-12-08T20:51:50Z",
      "version": 3,
      "changeset": 160069947,
      "user": "hoserab",
      "uid": 5722347,
      "tags": {
        "amenity": "pub",
        "name": "Mug Shotz Sports Bar & Grill",
        "opening_hours": "Tu,Th 11:00-21:00; We,Fr 11:00-22:00; Sa 12:00-21:00"
      }
    },
    {
      "type": "node",
      "id": 3438081483,
      "lat": 53.5215955,
      "lon": -113.5201364,
      "timestamp": "2015-04-04T20:45:27Z",
      "version": 1,
      "changeset": 29981140,
      "user": "Ranek",
      "uid": 156121,
      "tags": {
        "amenity": "pub",
        "name": "Sherlock Holmes Pub"
      }
    },
    {
      "type": "node",
      "id": 3497804450,
      "lat": 51.442825,
      "lon": -116.1614829,
      "timestamp": "2015-05-04T20:34:09Z",
      "version": 1,
      "changeset": 30790949,
      "user": "Jepau",
      "uid": 309210,
      "tags": {
        "amenity": "bar",
        "name": "Kokanee Kabin"
      }
    },
    {
      "type": "node",
      "id": 3615495109,
      "lat": 53.5198085,
      "lon": -113.5960902,
      "timestamp": "2015-06-24T16:23:25Z",
      "version": 1,
      "changeset": 32186727,
      "user": "chlang",
      "uid": 183444,
      "tags": {
        "amenity": "pub",
        "name": "Brewsters Brewing Company"
      }
    },
    {
      "type": "node",
      "id": 3636258492,
      "lat": 53.5085703,
      "lon": -113.6313107,
      "timestamp": "2019-09-18T14:11:25Z",
      "version": 2,
      "changeset": 74629683,
      "user": "Matthew Darwin",
      "uid": 5633991,
      "tags": {
        "addr:city": "Edmonton",
        "addr:housenumber": "7522",
        "addr:postcode": "T5T 2Y5",
        "addr:street": "178 Street NW",
        "amenity": "bar",
        "name": "The Beer Hunter Bar and Grill"
      }
    },
    {
      "type": "node",
      "id": 3753776767,
      "lat": 50.2389505,
      "lon": -117.801445,
      "timestamp": "2015-09-22T02:37:28Z",
      "version": 2,
      "changeset": 34174266,
      "user": "Goufre",
      "uid": 2807514,
      "tags": {
        "amenity": "pub",
        "name": "Three Lions Pub"
      }
    },
    {
      "type": "node",
      "id": 3835030366,
      "lat": 51.0780891,
      "lon": -114.13161,
      "timestamp": "2024-11-08T01:43:12Z",
      "version": 5,
      "changeset": 158878033,
      "user": "Unarmored5156",
      "uid": 21276961,
      "tags": {
        "amenity": "pub",
        "check_date": "2024-10-14",
        "level": "2",
        "level:ref": "3",
        "name": "The Last Defence Lounge",
        "opening_hours": "Mo-We 11:30-20:00, Th-Fr 11:30-22:00",
        "outdoor_seating": "yes",
        "phone": "+1 403 220 7973",
        "website": "https://lastdefencelounge.ca"
      }
    },
    {
      "type": "node",
      "id": 3878959359,
      "lat": 53.5185326,
      "lon": -113.4973324,
      "timestamp": "2018-10-26T15:13:43Z",
      "version": 2,
      "changeset": 63904252,
      "user": "Matthew Darwin",
      "uid": 5633991,
      "tags": {
        "addr:city": "Edmonton",
        "addr:housenumber": "8217",
        "addr:postcode": "T6E 4E7",
        "addr:street": "104 Street North-west",
        "amenity": "pub",
        "cuisine": "burger",
        "name": "O2's Tap House and Grill",
        "phone": "+1-780-760-0202",
        "smoking": "no",
        "website": "http://www.o2taphouseandgrill.com/"
      }
    },
    {
      "type": "node",
      "id": 4112926180,
      "lat": 56.7270945,
      "lon": -111.38287,
      "timestamp": "2019-09-03T02:05:05Z",
      "version": 3,
      "changeset": 74017229,
      "user": "Matthew Darwin",
      "uid": 5633991,
      "tags": {
        "addr:city": "Fort McMurray",
        "addr:housenumber": "10006",
        "addr:postcode": "T9H 1S8",
        "addr:street": "MacDonald Avenue",
        "amenity": "bar",
        "name": "Live Bar and Grill",
        "phone": "+1-780-743-0161"
      }
    },
    {
      "type": "node",
      "id": 4191959889,
      "lat": 50.971289,
      "lon": -114.1192239,
      "timestamp": "2016-05-17T16:11:05Z",
      "version": 1,
      "changeset": 39380933,
      "user": "soundslike",
      "uid": 3905403,
      "tags": {
        "amenity": "pub",
        "name": "Point and Feather"
      }
    },
    {
      "type": "node",
      "id": 4224421596,
      "lat": 53.545645,
      "lon": -113.4919455,
      "timestamp": "2017-04-22T03:12:11Z",
      "version": 2,
      "changeset": 48021042,
      "user": "dalmond",
      "uid": 36223,
      "tags": {
        "addr:street": "103 Avenue NW",
        "amenity": "bar",
        "name": "Paggo Lounge",
        "opening_hours": "Mo-Su 11:00-23:00"
      }
    },
    {
      "type": "node",
      "id": 4224501490,
      "lat": 53.5452576,
      "lon": -113.4930772,
      "timestamp": "2025-08-19T20:58:10Z",
      "version": 5,
      "changeset": 170691991,
      "user": "brendanshoe",
      "uid": 20282078,
      "tags": {
        "addr:city": "Edmonton",
        "addr:housenumber": "10235",
        "addr:postcode": "T5J 3E8",
        "addr:province": "AB",
        "addr:street": "101 Street NW",
        "addr:unit": "195",
        "amenity": "pub",
        "name": "O'Byrne’s Ice District",
        "opening_hours": "Mo-Fr 11:00-24:00; Sa-Su 11:00-26:00",
        "website": "https://www.obyrnes.com/ice-district-page"
      }
    },
    {
      "type": "node",
      "id": 4258052761,
      "lat": 53.5183464,
      "lon": -113.5043118,
      "timestamp": "2023-10-19T00:05:40Z",
      "version": 2,
      "changeset": 142787630,
      "user": "b-jazz-bot",
      "uid": 9451067,
      "tags": {
        "addr:city": "Edmonton",
        "addr:housenumber": "10616",
        "addr:postcode": "T6E 2A7",
        "addr:street": "82 Avenue North-west",
        "amenity": "pub",
        "email": "info@obyrnes.com",
        "name": "O'Byrnes's Irish Pub",
        "outdoor_seating": "yes",
        "phone": "+1-780-414-6766",
        "website": "https://obyrnes.com/"
      }
    },
    {
      "type": "node",
      "id": 4263873693,
      "lat": 53.5177677,
      "lon": -113.5006882,
      "timestamp": "2016-06-25T03:22:30Z",
      "version": 1,
      "changeset": 40275012,
      "user": "Srgcooke",
      "uid": 4094954,
      "tags": {
        "amenity": "bar",
        "name": "The Billiard Club"
      }
    },
    {
      "type": "node",
      "id": 4263873699,
      "lat": 53.5422687,
      "lon": -113.4994484,
      "timestamp": "2025-08-19T18:00:27Z",
      "version": 2,
      "changeset": 170684958,
      "user": "brendanshoe",
      "uid": 20282078,
      "tags": {
        "addr:city": "Edmonton",
        "addr:housenumber": "10156",
        "addr:postcode": "T5J 1A7",
        "addr:province": "AB",
        "addr:street": "104 Street NW",
        "amenity": "pub",
        "internet_access": "wlan",
        "name": "Kelly's Pub",
        "opening_hours": "Mo-Su 11:00-26:00",
        "phone": "+1-780-451-8825"
      }
    },
    {
      "type": "node",
      "id": 4263876391,
      "lat": 53.544451,
      "lon": -113.4976739,
      "timestamp": "2023-11-21T12:18:17Z",
      "version": 4,
      "changeset": 144284998,
      "user": "b-jazz-bot",
      "uid": 9451067,
      "tags": {
        "addr:city": "Edmonton",
        "addr:housenumber": "10266",
        "addr:postcode": "t5j0y8",
        "addr:province": "AB",
        "addr:street": "103 Street NW",
        "amenity": "bar",
        "name": "Smoke BBQ Bar",
        "website": "https://smokebar.ca/"
      }
    },
    {
      "type": "node",
      "id": 4263876392,
      "lat": 53.5421091,
      "lon": -113.5080767,
      "timestamp": "2024-03-21T18:07:11Z",
      "version": 3,
      "changeset": 148977466,
      "user": "TagaSanPedroAko",
      "uid": 2541613,
      "tags": {
        "amenity": "bar",
        "name": "Greta Bar"
      }
    },
    {
      "type": "node",
      "id": 4263876491,
      "lat": 53.5410949,
      "lon": -113.5016816,
      "timestamp": "2020-12-08T20:17:53Z",
      "version": 2,
      "changeset": 95509748,
      "user": "Rps333",
      "uid": 596047,
      "tags": {
        "amenity": "bar",
        "name": "Rocky Mountain Ice House"
      }
    },
    {
      "type": "node",
      "id": 4263898589,
      "lat": 53.5402843,
      "lon": -113.4958237,
      "timestamp": "2016-06-25T03:22:50Z",
      "version": 1,
      "changeset": 40275012,
      "user": "Srgcooke",
      "uid": 4094954,
      "tags": {
        "amenity": "bar",
        "name": "Hawkeye's Too"
      }
    },
    {
      "type": "node",
      "id": 4263898592,
      "lat": 53.5460237,
      "lon": -113.4989786,
      "timestamp": "2019-09-18T14:11:25Z",
      "version": 3,
      "changeset": 74629683,
      "user": "Matthew Darwin",
      "uid": 5633991,
      "tags": {
        "addr:city": "Edmonton",
        "addr:housenumber": "10363",
        "addr:street": "104 Street NW",
        "addr:unit": "T5J 1B9",
        "amenity": "bar",
        "name": "Mercer Tavern",
        "operator": "Mercer Tavern"
      }
    },
    {
      "type": "node",
      "id": 4263898989,
      "lat": 53.5410819,
      "lon": -113.5021147,
      "timestamp": "2016-06-25T03:22:57Z",
      "version": 1,
      "changeset": 40275012,
      "user": "Srgcooke",
      "uid": 4094954,
      "tags": {
        "amenity": "bar",
        "name": "Red Star"
      }
    },
    {
      "type": "node",
      "id": 4263899289,
      "lat": 53.5386872,
      "lon": -113.5003099,
      "timestamp": "2016-06-25T03:23:02Z",
      "version": 1,
      "changeset": 40275012,
      "user": "Srgcooke",
      "uid": 4094954,
      "tags": {
        "amenity": "bar",
        "name": "Dockside Bar"
      }
    },
    {
      "type": "node",
      "id": 4295615023,
      "lat": 53.5252082,
      "lon": -113.527586,
      "timestamp": "2023-05-10T15:53:43Z",
      "version": 4,
      "changeset": 135942414,
      "user": "Airfall",
      "uid": 16755483,
      "tags": {
        "amenity": "pub",
        "level": "7",
        "name": "Room at the Top",
        "outdoor_seating": "no",
        "short_name": "RATT",
        "smoking": "no"
      }
    },
    {
      "type": "node",
      "id": 4295617957,
      "lat": 53.5179081,
      "lon": -113.4961044,
      "timestamp": "2024-10-14T04:03:21Z",
      "version": 10,
      "changeset": 157858263,
      "user": "zarr80",
      "uid": 21763229,
      "tags": {
        "addr:city": "Edmonton",
        "addr:housenumber": "10329",
        "addr:postcode": "T6E 1Z9",
        "addr:street": "Whyte Avenue NW",
        "amenity": "pub",
        "internet_access": "wlan",
        "name": "Blues on Whyte",
        "opening_hours": "Mo-Sa 10:00-02:00; Su 11:00-02:00",
        "phone": "+1-780-439-3981",
        "smoking": "no",
        "website": "https://www.bluesonwhyte.com/"
      }
    },
    {
      "type": "node",
      "id": 4329381589,
      "lat": 53.5710553,
      "lon": -113.4986245,
      "timestamp": "2016-07-31T12:41:56Z",
      "version": 1,
      "changeset": 41144172,
      "user": "ManicVoid",
      "uid": 4345287,
      "tags": {
        "amenity": "bar"
      }
    },
    {
      "type": "node",
      "id": 4340205278,
      "lat": 50.256473,
      "lon": -119.2636626,
      "timestamp": "2016-08-07T17:52:44Z",
      "version": 1,
      "changeset": 41309018,
      "user": "Ohadpoz",
      "uid": 4296993,
      "tags": {
        "amenity": "bar",
        "name": "Original Joe's"
      }
    },
    {
      "type": "node",
      "id": 4340447797,
      "lat": 50.2362426,
      "lon": -119.355285,
      "timestamp": "2016-08-07T22:05:36Z",
      "version": 1,
      "changeset": 41312877,
      "user": "Ohadpoz",
      "uid": 4296993,
      "tags": {
        "amenity": "bar",
        "name": "Outboard Pub"
      }
    },
    {
      "type": "node",
      "id": 4396234790,
      "lat": 51.6411443,
      "lon": -111.9406406,
      "timestamp": "2016-09-11T15:03:11Z",
      "version": 1,
      "changeset": 42080905,
      "user": "Jesse Baker",
      "uid": 4539274,
      "tags": {
        "amenity": "bar",
        "name": "Goose Pub",
        "name:en": "Goose Pub"
      }
    },
    {
      "type": "node",
      "id": 4438451391,
      "lat": 50.8772217,
      "lon": -119.466074,
      "timestamp": "2016-10-09T01:20:18Z",
      "version": 1,
      "changeset": 42745174,
      "user": "Jesse Baker",
      "uid": 4539274,
      "tags": {
        "amenity": "pub",
        "name": "Copper Island Pub & Grill",
        "name:en": "Copper Island Pub & Grill"
      }
    },
    {
      "type": "node",
      "id": 4448424991,
      "lat": 50.7867251,
      "lon": -112.4670137,
      "timestamp": "2021-11-09T21:36:58Z",
      "version": 2,
      "changeset": 113584641,
      "user": "KayleeS",
      "uid": 13265498,
      "tags": {
        "amenity": "bar",
        "name": "Imperial Tavern",
        "name:en": "Imperial Tavern"
      }
    },
    {
      "type": "node",
      "id": 4449504294,
      "lat": 50.9888874,
      "lon": -114.0007858,
      "timestamp": "2022-03-21T18:42:13Z",
      "version": 2,
      "changeset": 118748087,
      "user": "DannyMcD",
      "uid": 5789626,
      "tags": {
        "amenity": "pub",
        "name": "Ogden Whistle Pub"
      }
    },
    {
      "type": "node",
      "id": 4453726873,
      "lat": 51.1740254,
      "lon": -114.1086315,
      "timestamp": "2023-11-16T04:07:59Z",
      "version": 3,
      "changeset": 144077122,
      "user": "HotButter",
      "uid": 4206647,
      "tags": {
        "addr:city": "Calgary",
        "addr:housenumber": "3018, 2060",
        "addr:postcode": "T3P 0M9",
        "addr:street": "Symons Valley Parkway NW",
        "amenity": "bar",
        "name": "Tipsy Pig",
        "smoking": "separated"
      }
    },
    {
      "type": "node",
      "id": 4463596823,
      "lat": 51.035259,
      "lon": -113.9595459,
      "timestamp": "2016-10-25T16:08:36Z",
      "version": 1,
      "changeset": 43163283,
      "user": "abDoug",
      "uid": 3789884,
      "tags": {
        "addr:housenumber": "5147",
        "addr:street": "20 Avenue SE",
        "amenity": "pub",
        "name": "Grampa's Pub"
      }
    },
    {
      "type": "node",
      "id": 4473505308,
      "lat": 50.9987011,
      "lon": -113.9797675,
      "timestamp": "2016-10-31T19:55:32Z",
      "version": 1,
      "changeset": 43312549,
      "user": "Jesse Baker",
      "uid": 4539274,
      "tags": {
        "amenity": "bar",
        "name": "Partners",
        "name:en": "Partners"
      }
    },
    {
      "type": "node",
      "id": 4486041590,
      "lat": 53.5407633,
      "lon": -113.5238987,
      "timestamp": "2016-11-07T21:58:01Z",
      "version": 2,
      "changeset": 43474411,
      "user": "Bootprint",
      "uid": 76077,
      "tags": {
        "addr:street": "Jasper Avenue NW",
        "amenity": "bar",
        "name": "Mama's Gin Joint",
        "name:en": "Mama's Gin Joint",
        "old_name": "Woody's Video Bar"
      }
    },
    {
      "type": "node",
      "id": 4521590190,
      "lat": 51.1297793,
      "lon": -114.0042868,
      "timestamp": "2024-05-14T18:31:22Z",
      "version": 5,
      "changeset": 151327115,
      "user": "HaPe-CZ",
      "uid": 11276832,
      "tags": {
        "amenity": "bar",
        "brand": "Vino Volo",
        "brand:wikidata": "Q7932710",
        "check_date": "2023-10-03",
        "name": "Vino Volo",
        "name:en": "Vino Volo"
      }
    },
    {
      "type": "node",
      "id": 4521613994,
      "lat": 51.1296167,
      "lon": -114.0033104,
      "timestamp": "2024-05-14T18:31:22Z",
      "version": 4,
      "changeset": 151327115,
      "user": "HaPe-CZ",
      "uid": 11276832,
      "tags": {
        "amenity": "bar",
        "check_date": "2023-10-03",
        "name": "Belgian Beer Cafe",
        "name:en": "Belgian Beer Cafe"
      }
    },
    {
      "type": "node",
      "id": 4560878811,
      "lat": 53.2699547,
      "lon": -113.5662806,
      "timestamp": "2020-04-30T17:50:07Z",
      "version": 3,
      "changeset": 84430042,
      "user": "Allisongechter",
      "uid": 10343770,
      "tags": {
        "addr:city": "Leduc",
        "addr:country": "CA",
        "addr:housenumber": "5404",
        "addr:postcode": "T9E 8L9",
        "addr:province": "AB",
        "addr:street": "Discovery Way",
        "addr:unit": "201",
        "amenity": "pub",
        "name": "The Canadian Brewhouse",
        "name:en": "Canadian Brewhouse"
      }
    },
    {
      "type": "node",
      "id": 4636182375,
      "lat": 53.2222492,
      "lon": -114.9787459,
      "timestamp": "2017-01-26T23:25:33Z",
      "version": 1,
      "changeset": 45534669,
      "user": "Offspring153",
      "uid": 5197217,
      "tags": {
        "amenity": "bar"
      }
    },
    {
      "type": "node",
      "id": 4636182376,
      "lat": 53.2240918,
      "lon": -114.9777201,
      "timestamp": "2017-01-26T23:25:33Z",
      "version": 1,
      "changeset": 45534669,
      "user": "Offspring153",
      "uid": 5197217,
      "tags": {
        "amenity": "bar",
        "name": "Oil Country Taphouse"
      }
    },
    {
      "type": "node",
      "id": 4646376605,
      "lat": 52.2584531,
      "lon": -113.813192,
      "timestamp": "2022-04-25T20:38:24Z",
      "version": 2,
      "changeset": 120183148,
      "user": "DannyMcD",
      "uid": 5789626,
      "tags": {
        "amenity": "bar",
        "name": "Social 13",
        "smoking": "no"
      }
    },
    {
      "type": "node",
      "id": 4664559190,
      "lat": 50.9328508,
      "lon": -113.9644214,
      "timestamp": "2017-06-07T18:38:07Z",
      "version": 3,
      "changeset": 49344630,
      "user": "ianb",
      "uid": 185998,
      "tags": {
        "amenity": "pub",
        "name": "Original Joe's",
        "name:en": "Original Joe's"
      }
    },
    {
      "type": "node",
      "id": 4664571789,
      "lat": 50.9332591,
      "lon": -113.9644143,
      "timestamp": "2017-06-07T18:38:07Z",
      "version": 2,
      "changeset": 49344630,
      "user": "ianb",
      "uid": 185998,
      "tags": {
        "amenity": "pub",
        "name": "Muldoons Pub",
        "name:en": "Muldoons Pub"
      }
    },
    {
      "type": "node",
      "id": 4670218391,
      "lat": 53.3056905,
      "lon": -113.5817763,
      "timestamp": "2019-06-22T22:50:25Z",
      "version": 2,
      "changeset": 71519948,
      "user": "lhirlimann",
      "uid": 201055,
      "tags": {
        "amenity": "bar",
        "name": "Heineken Lounge",
        "name:en": "Heineken Lounge",
        "opening_hours": "Mo-Su 05:00-21:00"
      }
    },
    {
      "type": "node",
      "id": 4670253192,
      "lat": 53.3054852,
      "lon": -113.5814245,
      "timestamp": "2019-06-22T22:52:49Z",
      "version": 2,
      "changeset": 71519948,
      "user": "lhirlimann",
      "uid": 201055,
      "tags": {
        "amenity": "bar",
        "name": "Belgian Beer Cafe",
        "name:en": "Belgian Beer Cafe",
        "opening_hours": "Mo-Fr 04:30-12:00; Sa 04:30-22:00"
      }
    },
    {
      "type": "node",
      "id": 4670259089,
      "lat": 53.3069105,
      "lon": -113.583686,
      "timestamp": "2019-06-22T22:59:39Z",
      "version": 2,
      "changeset": 71519948,
      "user": "lhirlimann",
      "uid": 201055,
      "tags": {
        "amenity": "bar",
        "name": "No.99 Gretzky's Wine and Whiskey",
        "name:en": "No.99 Gretzky's Wine and Whiskey",
        "opening_hours": "Mo-Su 05:00-01:00"
      }
    },
    {
      "type": "node",
      "id": 4686136508,
      "lat": 52.2691752,
      "lon": -113.812741,
      "timestamp": "2022-04-25T20:16:51Z",
      "version": 2,
      "changeset": 120182550,
      "user": "DannyMcD",
      "uid": 5789626,
      "tags": {
        "amenity": "bar",
        "cocktails": "yes",
        "name": "Occam’s Razor"
      }
    },
    {
      "type": "node",
      "id": 4686136517,
      "lat": 52.2691776,
      "lon": -113.812848,
      "timestamp": "2022-04-25T20:16:51Z",
      "version": 2,
      "changeset": 120182550,
      "user": "DannyMcD",
      "uid": 5789626,
      "tags": {
        "amenity": "bar",
        "name": "The Velvet Olive Lounge"
      }
    },
    {
      "type": "node",
      "id": 4733120038,
      "lat": 51.0353647,
      "lon": -114.072,
      "timestamp": "2025-03-08T19:01:35Z",
      "version": 7,
      "changeset": 163376196,
      "user": "hoserab",
      "uid": 5722347,
      "tags": {
        "addr:housenumber": "1919",
        "addr:postcode": "T2S 1W4",
        "addr:street": "4 Street SW",
        "amenity": "pub",
        "contact:instagram": "collegebarmission",
        "indoor_seating": "yes",
        "name": "The Unicorn on Four",
        "opening_hours": "Su-Mo 11:00-24:00; Th 11:00-01:00; Fr-Sa 11:00-02:00",
        "outdoor_seating": "yes",
        "website": "https://theunicornonfour.ca/home/"
      }
    },
    {
      "type": "node",
      "id": 4746063412,
      "lat": 50.9706527,
      "lon": -114.0723717,
      "timestamp": "2025-08-16T04:22:17Z",
      "version": 2,
      "changeset": 170504169,
      "user": "HostileSpark",
      "uid": 23189051,
      "tags": {
        "amenity": "bar",
        "name": "Ranchman's",
        "opening_hours": "We-Sa 17:00-23:00+; Mo,Tu off"
      }
    },
    {
      "type": "node",
      "id": 4747208356,
      "lat": 50.9058145,
      "lon": -114.1108339,
      "timestamp": "2023-10-24T02:16:27Z",
      "version": 4,
      "changeset": 143043979,
      "user": "b-jazz-bot",
      "uid": 9451067,
      "tags": {
        "addr:city": "Calgary",
        "addr:housenumber": "2335",
        "addr:postcode": "T2Y 4S6",
        "addr:street": "162 Avenue SW",
        "amenity": "pub",
        "name": "The Bull & Finch",
        "opening_hours": "Mo-Su 10:00-01:00",
        "outdoor_seating": "yes",
        "phone": "+1-403-873-8088",
        "website": "https://bullandfinchbars.com/"
      }
    },
    {
      "type": "node",
      "id": 4758456990,
      "lat": 50.9719814,
      "lon": -114.0700481,
      "timestamp": "2017-03-27T18:56:12Z",
      "version": 1,
      "changeset": 47209486,
      "user": "ianb",
      "uid": 185998,
      "tags": {
        "amenity": "pub",
        "name": "King's Head Pub & Eatery"
      }
    },
    {
      "type": "node",
      "id": 4758456992,
      "lat": 50.9726992,
      "lon": -114.0694841,
      "timestamp": "2024-12-19T00:47:02Z",
      "version": 2,
      "changeset": 160373392,
      "user": "hoserab",
      "uid": 5722347,
      "tags": {
        "addr:housenumber": "9030",
        "addr:postcode": "T2H 0M4",
        "addr:street": "Macleod Trail SE",
        "amenity": "pub",
        "name": "Peanuts Public House",
        "smoking": "no",
        "website": "https://www.peanutspublichouse.com/"
      }
    },
    {
      "type": "node",
      "id": 4764803341,
      "lat": 50.9280792,
      "lon": -114.0282031,
      "timestamp": "2017-03-30T18:55:45Z",
      "version": 1,
      "changeset": 47302151,
      "user": "ianb",
      "uid": 185998,
      "tags": {
        "amenity": "pub",
        "name": "Lighthouse Pub & Eatery"
      }
    },
    {
      "type": "node",
      "id": 4764803344,
      "lat": 50.9288131,
      "lon": -114.030463,
      "timestamp": "2017-03-30T18:55:45Z",
      "version": 1,
      "changeset": 47302151,
      "user": "ianb",
      "uid": 185998,
      "tags": {
        "amenity": "pub",
        "name": "The Winkin' Owl"
      }
    },
    {
      "type": "node",
      "id": 4773880900,
      "lat": 53.537442,
      "lon": -113.5087813,
      "timestamp": "2025-08-20T18:06:05Z",
      "version": 5,
      "changeset": 170741168,
      "user": "brendanshoe",
      "uid": 20282078,
      "tags": {
        "addr:city": "Edmonton",
        "addr:housenumber": "9902",
        "addr:street": "109 Street NW",
        "amenity": "bar",
        "name": "Dolly's Cocktail Bar",
        "outdoor_seating": "no",
        "website": "https://www.dollyscocktails.ca/"
      }
    },
    {
      "type": "node",
      "id": 4777832121,
      "lat": 51.037963,
      "lon": -114.0909011,
      "timestamp": "2024-08-16T04:36:01Z",
      "version": 2,
      "changeset": 155308895,
      "user": "aljedaxi",
      "uid": 9581696,
      "tags": {
        "addr:housenumber": "1230",
        "addr:street": "17 Avenue SW",
        "amenity": "pub",
        "indoor_seating": "yes",
        "name": "Jamesons Irish Pub",
        "outdoor_seating": "yes"
      }
    },
    {
      "type": "node",
      "id": 4782016009,
      "lat": 51.177465,
      "lon": -115.57152,
      "timestamp": "2023-10-15T18:14:21Z",
      "version": 4,
      "changeset": 142629472,
      "user": "b-jazz-bot",
      "uid": 9451067,
      "tags": {
        "addr:housenumber": "215",
        "addr:street": "Banff Avenue",
        "amenity": "pub",
        "level": "-1",
        "name": "The Pump & Tap Tavern",
        "opening_hours": "12:00-02:00",
        "phone": "+1-403-760-6610",
        "website": "https://pumpandtap.com/"
      }
    },
    {
      "type": "node",
      "id": 4792141571,
      "lat": 50.9294314,
      "lon": -114.0296511,
      "timestamp": "2017-04-13T18:46:55Z",
      "version": 1,
      "changeset": 47752534,
      "user": "ianb",
      "uid": 185998,
      "tags": {
        "amenity": "pub",
        "name": "Filos"
      }
    },
    {
      "type": "node",
      "id": 4804585226,
      "lat": 50.9688343,
      "lon": -114.069303,
      "timestamp": "2017-04-19T20:34:48Z",
      "version": 1,
      "changeset": 47951698,
      "user": "ianb",
      "uid": 185998,
      "tags": {
        "amenity": "pub",
        "name": "Regal Beagle"
      }
    },
    {
      "type": "node",
      "id": 4808825435,
      "lat": 51.0458326,
      "lon": -114.0685208,
      "timestamp": "2023-07-07T18:05:08Z",
      "version": 3,
      "changeset": 138239219,
      "user": "Adam Dunn",
      "uid": 5306,
      "tags": {
        "addr:housenumber": "310",
        "addr:street": "8 Avenue SW",
        "amenity": "pub",
        "email": "info@localon8thave.com",
        "fax": "+1-403-264-8564",
        "name": "Local Public Eatery",
        "opening_hours": "Mo-We 11:00-01:00, Th,Fr 11:00-02:00, Sa 10:00-02:00, Su 10:00-01:00",
        "phone": "+1-403-264-7808",
        "short_name": "Local",
        "website": "http://localon8thave.com/"
      }
    },
    {
      "type": "node",
      "id": 4833341487,
      "lat": 51.0122349,
      "lon": -114.0653769,
      "timestamp": "2017-05-03T19:22:54Z",
      "version": 1,
      "changeset": 48374206,
      "user": "ianb",
      "uid": 185998,
      "tags": {
        "amenity": "pub",
        "name": "Blind Beggar"
      }
    },
    {
      "type": "node",
      "id": 4848178921,
      "lat": 50.9313334,
      "lon": -114.0635516,
      "timestamp": "2017-05-11T19:12:03Z",
      "version": 1,
      "changeset": 48602043,
      "user": "ianb",
      "uid": 185998,
      "tags": {
        "amenity": "pub",
        "name": "Three Crowns"
      }
    },
    {
      "type": "node",
      "id": 4863024223,
      "lat": 55.0576061,
      "lon": -117.2795626,
      "timestamp": "2017-05-19T01:37:29Z",
      "version": 1,
      "changeset": 48807351,
      "user": "Jesse Baker",
      "uid": 4539274,
      "tags": {
        "amenity": "pub",
        "name": "Shooters",
        "name:en": "Shooters"
      }
    },
    {
      "type": "node",
      "id": 4868692608,
      "lat": 51.0453969,
      "lon": -114.0839802,
      "timestamp": "2019-09-18T22:09:54Z",
      "version": 2,
      "changeset": 74646921,
      "user": "Matthew Darwin",
      "uid": 5633991,
      "tags": {
        "addr:city": "Calgary",
        "addr:housenumber": "1000",
        "addr:postcode": "T2P 2Y6",
        "addr:street": "9 Avenue SW",
        "amenity": "pub",
        "name": "Dickens Pub",
        "outdoor_seating": "no",
        "phone": "+1-403-233-7550",
        "website": "http://dickenspub.ca"
      }
    },
    {
      "type": "node",
      "id": 4877266088,
      "lat": 51.0463028,
      "lon": -114.0853108,
      "timestamp": "2019-03-06T05:42:58Z",
      "version": 3,
      "changeset": 67831000,
      "user": "b-jazz-bot",
      "uid": 9451067,
      "tags": {
        "addr:housenumber": "1020",
        "addr:postcode": "T2P 1J2",
        "addr:street": "8 Avenue SW",
        "amenity": "bar",
        "fax": "+1-888-213-5845",
        "name": "The Comedy Cave",
        "outdoor_seating": "yes",
        "phone": "+1-403-287-1120",
        "website": "https://comedycave.com/"
      }
    },
    {
      "type": "node",
      "id": 4898162362,
      "lat": 51.016285,
      "lon": -114.1085451,
      "timestamp": "2025-07-03T16:58:36Z",
      "version": 4,
      "changeset": 168453067,
      "user": "hoserab",
      "uid": 5722347,
      "tags": {
        "addr:city": "Calgary",
        "addr:housenumber": "2040",
        "addr:postcode": "T2T 2M7",
        "addr:street": "42 Avenue SW",
        "amenity": "pub",
        "name": "The Garrison",
        "opening_hours": "Mo-We 11:00-24:00, Th-Sa 11:00-01:00, Su 11:00-23:00",
        "website": "http://www.garrisonpub.com/"
      }
    },
    {
      "type": "node",
      "id": 4904521154,
      "lat": 50.9308478,
      "lon": -113.9619738,
      "timestamp": "2017-06-08T18:07:29Z",
      "version": 1,
      "changeset": 49375445,
      "user": "ianb",
      "uid": 185998,
      "tags": {
        "amenity": "pub",
        "name": "Toad 'n' Turtle"
      }
    },
    {
      "type": "node",
      "id": 4913376593,
      "lat": 51.0454912,
      "lon": -114.0645955,
      "timestamp": "2019-09-18T22:09:54Z",
      "version": 2,
      "changeset": 74646921,
      "user": "Matthew Darwin",
      "uid": 5633991,
      "tags": {
        "addr:city": "Calgary",
        "addr:housenumber": "125",
        "addr:postcode": "T2P 1B4",
        "addr:street": "8 Avenue SW;Stephen Avenue",
        "amenity": "bar",
        "name": "The Bank & Baron"
      }
    },
    {
      "type": "node",
      "id": 4913454469,
      "lat": 50.9525007,
      "lon": -113.9986143,
      "timestamp": "2017-06-13T19:06:46Z",
      "version": 1,
      "changeset": 49509392,
      "user": "ianb",
      "uid": 185998,
      "tags": {
        "amenity": "pub",
        "name": "Bull & Finch"
      }
    },
    {
      "type": "node",
      "id": 4913912321,
      "lat": 51.0903215,
      "lon": -115.3582053,
      "timestamp": "2017-06-14T02:52:48Z",
      "version": 1,
      "changeset": 49516351,
      "user": "Vancouver Pearl",
      "uid": 5170345,
      "tags": {
        "addr:housenumber": "637",
        "addr:street": "10 Street",
        "amenity": "pub",
        "name": "Marra's Way Sushi",
        "name:en": "Marra's Way Sushi"
      }
    },
    {
      "type": "node",
      "id": 4914016023,
      "lat": 50.7008072,
      "lon": -119.2829186,
      "timestamp": "2017-06-14T04:39:58Z",
      "version": 1,
      "changeset": 49517260,
      "user": "Vancouver Pearl",
      "uid": 5170345,
      "tags": {
        "addr:housenumber": "141",
        "addr:street": "Trans-Canada Highway",
        "amenity": "pub",
        "cuisine": "chinese",
        "name": "Royal Wok",
        "name:en": "Royal Wok"
      }
    },
    {
      "type": "node",
      "id": 4929645366,
      "lat": 50.9146159,
      "lon": -114.0662764,
      "timestamp": "2017-06-22T00:06:12Z",
      "version": 1,
      "changeset": 49733005,
      "user": "ianb",
      "uid": 185998,
      "tags": {
        "amenity": "pub",
        "name": "Dixons"
      }
    },
    {
      "type": "node",
      "id": 4936151578,
      "lat": 51.0379382,
      "lon": -114.068865,
      "timestamp": "2019-09-18T14:20:43Z",
      "version": 2,
      "changeset": 74630446,
      "user": "Matthew Darwin",
      "uid": 5633991,
      "tags": {
        "addr:city": "Calgary",
        "addr:housenumber": "300",
        "addr:postcode": "T2S 0A8",
        "addr:street": "17 Avenue SW",
        "amenity": "bar",
        "name": "Model Citizen",
        "opening_hours": "Th 20:00-02:00; Fr 21:00-02:00; Sa 20:00-02:00",
        "outdoor_seating": "no"
      }
    },
    {
      "type": "node",
      "id": 4937461621,
      "lat": 50.9920227,
      "lon": -113.9837243,
      "timestamp": "2018-03-21T18:30:55Z",
      "version": 3,
      "changeset": 57395536,
      "user": "Matthew Darwin",
      "uid": 5633991,
      "tags": {
        "addr:city": "Calgary",
        "addr:housenumber": "28-7003",
        "addr:postcode": "T2C 1N6",
        "addr:street": "30 Street SE",
        "amenity": "bar",
        "name": "Gusto's Restaurant and Lodge",
        "name:en": "Gusto's",
        "opening_hours": "Mo-Su 09:30-20:00",
        "phone": "+1-403-236-1040",
        "website": "http://gustosrestaurant.com"
      }
    },
    {
      "type": "node",
      "id": 4949492244,
      "lat": 51.0436374,
      "lon": -114.065383,
      "timestamp": "2024-07-04T03:50:24Z",
      "version": 6,
      "changeset": 153525441,
      "user": "aljedaxi",
      "uid": 9581696,
      "tags": {
        "addr:city": "Calgary",
        "addr:housenumber": "140",
        "addr:postcode": "T2R 0A3",
        "addr:province": "AB",
        "addr:street": "10 Avenue SW",
        "amenity": "pub",
        "contact:instagram": "bottlescrewbills",
        "delivery": "yes",
        "email": "info@bottlescrewbill.com",
        "fax": "+1 403 266 6630",
        "indoor_seating": "yes",
        "name": "Bottlescrew Bill's",
        "note": "Last checked if business still had Fax machine on 2022-06-19. -Binzy",
        "opening_hours": "Mo-Sa 11:30-02:00; Su 11:00-01:00",
        "outdoor_seating": "yes",
        "phone": "+1 403 263 7900",
        "reservation": "yes",
        "takeaway": "yes",
        "website": "https://www.bottlescrewbill.com/"
      }
    },
    {
      "type": "node",
      "id": 4951440777,
      "lat": 51.0132245,
      "lon": -114.1398963,
      "timestamp": "2024-05-30T17:05:16Z",
      "version": 3,
      "changeset": 152046194,
      "user": "Binzy_Boi",
      "uid": 15304597,
      "tags": {
        "addr:housenumber": "4604",
        "addr:postcode": "T3E 3C9",
        "addr:street": "37 Street SW",
        "amenity": "pub",
        "email": "manager@weaselheadbarandgrill.com",
        "name": "Weaselhead Bar - Grill",
        "opening_hours": "Mo 14:00-24:00, Tu-Th 12:00-24:00, Fr,Sa 12:00-01:00, Su 11:00-22:00",
        "payment:apple_pay": "yes",
        "payment:interac": "yes",
        "payment:mastercard": "yes",
        "payment:visa": "yes",
        "phone": "+1-403-246-6322",
        "start_date": "1998",
        "website": "https://www.weaselheadbarandgrill.com/",
        "website:menu": "https://www.weaselheadbarandgrill.com/food-menu"
      }
    },
    {
      "type": "node",
      "id": 4952901029,
      "lat": 50.962704,
      "lon": -114.0874792,
      "timestamp": "2025-08-17T04:01:31Z",
      "version": 4,
      "changeset": 170547869,
      "user": "HostileSpark",
      "uid": 23189051,
      "tags": {
        "addr:city": "Calgary",
        "addr:housenumber": "10233",
        "addr:street": "Elbow Drive SW",
        "amenity": "pub",
        "name": "Bull & Finch",
        "opening_hours": "Mo-Su 11:00-23:00",
        "phone": "+1-403-259-5555",
        "smoking": "outside"
      }
    },
    {
      "type": "node",
      "id": 4995514800,
      "lat": 50.9604612,
      "lon": -114.0463459,
      "timestamp": "2017-07-26T20:18:50Z",
      "version": 1,
      "changeset": 50600221,
      "user": "ianb",
      "uid": 185998,
      "tags": {
        "amenity": "pub",
        "name": "Governor's Pub & Restaurant"
      }
    },
    {
      "type": "node",
      "id": 5031183073,
      "lat": 50.9332472,
      "lon": -114.0173846,
      "timestamp": "2019-09-18T14:20:43Z",
      "version": 2,
      "changeset": 74630446,
      "user": "Matthew Darwin",
      "uid": 5633991,
      "tags": {
        "addr:city": "Calgary",
        "addr:housenumber": "950",
        "addr:postcode": "T2J 6E7",
        "addr:street": "Queensland Drive SE",
        "amenity": "pub",
        "name": "The Brass Monkey",
        "opening_hours": "Mo-Su 10:00-02:00"
      }
    },
    {
      "type": "node",
      "id": 5047070671,
      "lat": 51.0456735,
      "lon": -114.063738,
      "timestamp": "2024-06-14T03:47:13Z",
      "version": 7,
      "changeset": 152657042,
      "user": "Binzy_Boi",
      "uid": 15304597,
      "tags": {
        "addr:city": "Calgary",
        "addr:housenumber": "110",
        "addr:postcode": "T2P 1B3",
        "addr:street": "8 Avenue SW",
        "amenity": "pub",
        "contact:facebook": "https://www.facebook.com/thebearandkilt/",
        "description": "Located in basement.",
        "email": "bear.kilt@shawbiz.ca",
        "name": "Bear & Kilt",
        "opening_hours": "Mo-Sa 11:00-02:00, Su 18:00-02:00",
        "outdoor_seating": "no",
        "payment:american_express": "yes",
        "payment:interac": "yes",
        "payment:mastercard": "yes",
        "payment:visa": "yes",
        "phone": "+1-403-232-8442",
        "wheelchair": "no"
      }
    },
    {
      "type": "node",
      "id": 5062679256,
      "lat": 53.5179015,
      "lon": -113.4965341,
      "timestamp": "2018-03-23T15:41:06Z",
      "version": 3,
      "changeset": 57461285,
      "user": "Arctic gnome",
      "uid": 6511217,
      "tags": {
        "amenity": "pub",
        "name": "Funky Buddha"
      }
    },
    {
      "type": "node",
      "id": 5155707756,
      "lat": 51.0876871,
      "lon": -114.072559,
      "timestamp": "2017-10-08T18:06:22Z",
      "version": 1,
      "changeset": 52737911,
      "user": "Knitted Pigeon",
      "uid": 6770548,
      "tags": {
        "amenity": "pub",
        "name": "Stavro's Sports Bar",
        "outdoor_seating": "no",
        "smoking": "outside"
      }
    },
    {
      "type": "node",
      "id": 5180508422,
      "lat": 51.0904106,
      "lon": -114.2000531,
      "timestamp": "2025-08-28T17:48:08Z",
      "version": 3,
      "changeset": 171148153,
      "user": "hoserab",
      "uid": 5722347,
      "tags": {
        "addr:housenumber": "7930",
        "addr:postcode": "T3B 0H3",
        "addr:street": "Bowness Road NW",
        "addr:unit": "76",
        "amenity": "pub",
        "name": "Bowness Pub",
        "wheelchair": "limited"
      }
    },
    {
      "type": "node",
      "id": 5211490825,
      "lat": 53.5178882,
      "lon": -113.5013037,
      "timestamp": "2017-11-05T03:25:00Z",
      "version": 1,
      "changeset": 53517916,
      "user": "Arctic gnome",
      "uid": 6511217,
      "tags": {
        "amenity": "bar",
        "name": "Filthy's"
      }
    },
    {
      "type": "node",
      "id": 5211490827,
      "lat": 53.5182861,
      "lon": -113.5023833,
      "timestamp": "2017-11-05T03:25:00Z",
      "version": 1,
      "changeset": 53517916,
      "user": "Arctic gnome",
      "uid": 6511217,
      "tags": {
        "amenity": "bar",
        "name": "Beercade"
      }
    },
    {
      "type": "node",
      "id": 5217048233,
      "lat": 51.0609472,
      "lon": -114.1797554,
      "timestamp": "2023-07-13T15:05:40Z",
      "version": 5,
      "changeset": 138468388,
      "user": "q0p4",
      "uid": 19816187,
      "tags": {
        "addr:city": "Calgary",
        "addr:housenumber": "6416",
        "addr:postcode": "T3H 2H3",
        "addr:street": "Old Banff Coach Road SW",
        "amenity": "pub",
        "name": "Schooner's Neighbourhood Pub",
        "opening_hours": "Mo-Tu 10:00-00:00, We-Su 10:00-02:00",
        "outdoor_seating": "yes",
        "smoking": "outside"
      }
    },
    {
      "type": "node",
      "id": 5220592392,
      "lat": 51.0714835,
      "lon": -113.945131,
      "timestamp": "2019-09-18T22:09:54Z",
      "version": 2,
      "changeset": 74646921,
      "user": "Matthew Darwin",
      "uid": 5633991,
      "tags": {
        "addr:city": "Calgary",
        "addr:housenumber": "6024",
        "addr:postcode": "T1Y 2X1",
        "addr:street": "Rundlehorn Drive NE",
        "amenity": "bar",
        "name": "Pineridge Pines Pub",
        "outdoor_seating": "no",
        "smoking": "outside"
      }
    },
    {
      "type": "node",
      "id": 5220601763,
      "lat": 51.0383131,
      "lon": -114.1414843,
      "timestamp": "2024-07-17T11:50:46Z",
      "version": 8,
      "changeset": 154054719,
      "user": "Binzy_Boi",
      "uid": 15304597,
      "tags": {
        "addr:city": "Calgary",
        "addr:housenumber": "1637",
        "addr:postcode": "T3C 1S7",
        "addr:street": "37 Street SW",
        "amenity": "pub",
        "name": "The Dorset Pub & Eatery",
        "opening_hours": "Su 11:00-22:00; Mo-Sa 11:00-23:00",
        "outdoor_seating": "yes",
        "payment:american_express": "yes",
        "payment:apple_pay": "yes",
        "payment:google_pay": "yes",
        "payment:interac": "yes",
        "payment:mastercard": "yes",
        "payment:square_wallet": "yes",
        "payment:visa": "yes",
        "wheelchair": "yes"
      }
    },
    {
      "type": "node",
      "id": 5317908830,
      "lat": 50.0424613,
      "lon": -110.6716003,
      "timestamp": "2019-12-31T00:57:40Z",
      "version": 4,
      "changeset": 79035612,
      "user": "Adam Martin",
      "uid": 1539368,
      "tags": {
        "addr:city": "Medicine Hat",
        "addr:housenumber": "140",
        "addr:postcode": "T1A 8C1",
        "addr:street": "Maple Avenue Southeast",
        "addr:unit": "200",
        "amenity": "pub",
        "entrance": "yes",
        "name": "Captain's Cabin Pub"
      }
    },
    {
      "type": "node",
      "id": 5324432705,
      "lat": 51.0379965,
      "lon": -114.073926,
      "timestamp": "2024-07-01T22:29:08Z",
      "version": 4,
      "changeset": 153431390,
      "user": "aljedaxi",
      "uid": 9581696,
      "tags": {
        "addr:city": "Calgary",
        "addr:housenumber": "550",
        "addr:postcode": "T2S 0B1",
        "addr:province": "AB",
        "addr:street": "17 Avenue SW",
        "amenity": "pub",
        "delivery": "yes",
        "delivery:partner": "skipthedishes;ubereats",
        "email": "info17th@ntnl.ca",
        "indoor_seating": "yes",
        "name": "National on 17th",
        "opening_hours": "Mo-Tu 11:00-23:00; We 11:00-24:00; Th 11:00-01:00; Fr-Sa 11:00-02:00; Su 10:00-23:00",
        "outdoor_seating": "yes",
        "phone": "+1 403 229 0226",
        "reservation": "yes",
        "takeaway": "yes",
        "website": "https://www.ntnl.ca/",
        "wheelchair": "yes"
      }
    },
    {
      "type": "node",
      "id": 5346337449,
      "lat": 50.0590876,
      "lon": -110.6697038,
      "timestamp": "2019-09-03T13:37:51Z",
      "version": 2,
      "changeset": 74042119,
      "user": "Matthew Darwin",
      "uid": 5633991,
      "tags": {
        "addr:city": "Medicine Hat",
        "addr:housenumber": "717",
        "addr:postcode": "T1C 1P3",
        "addr:street": "20 Street Northeast",
        "addr:unit": "3",
        "amenity": "pub",
        "entrance": "main",
        "name": "The Lucky Goat Pub"
      }
    },
    {
      "type": "node",
      "id": 5404514379,
      "lat": 52.3798615,
      "lon": -113.789161,
      "timestamp": "2018-02-11T01:00:02Z",
      "version": 1,
      "changeset": 56253278,
      "user": "Snackles",
      "uid": 7597964,
      "tags": {
        "amenity": "bar",
        "name": "Resolve Bar & Grill"
      }
    },
    {
      "type": "node",
      "id": 5411746924,
      "lat": 56.1459526,
      "lon": -117.7365211,
      "timestamp": "2018-02-14T07:58:41Z",
      "version": 1,
      "changeset": 56345564,
      "user": "Yottabyte",
      "uid": 312388,
      "tags": {
        "amenity": "bar"
      }
    },
    {
      "type": "node",
      "id": 5486521831,
      "lat": 53.5444713,
      "lon": -113.4861667,
      "timestamp": "2018-03-18T14:37:25Z",
      "version": 1,
      "changeset": 57292283,
      "user": "markiesaw",
      "uid": 7731196,
      "tags": {
        "addr:housenumber": "10217",
        "addr:street": "97 Street NW",
        "amenity": "bar",
        "name": "Bohemia"
      }
    },
    {
      "type": "node",
      "id": 5590804129,
      "lat": 51.0317159,
      "lon": -114.07176,
      "timestamp": "2025-01-19T17:58:36Z",
      "version": 5,
      "changeset": 161534617,
      "user": "aljedaxi",
      "uid": 9581696,
      "tags": {
        "addr:city": "Calgary",
        "addr:housenumber": "506",
        "addr:postcode": "T2S 0K4",
        "addr:province": "AB",
        "addr:street": "24 Avenue SW",
        "amenity": "pub",
        "contact:facebook": "http://www.facebook.com/joyceon4thirishpubcalgary",
        "contact:instagram": "joyceon4th_yyc",
        "contact:twitter": "@Joyceon4th_yyc",
        "delivery": "yes",
        "delivery:partner": "skipthedishes",
        "email": "joyceon4th@calgarysbestpubs.com",
        "fax": "+1 403 541 9169",
        "indoor_seating": "yes",
        "name": "Joyce on 4th Irish Pub",
        "opening_hours": "Mo-We 11:30-01:00; Th 11:00-01:00; Fr 11:00-02:00; Sa 09:00-02:00; Su 09:00-00:00",
        "operator": "Calgary's Best Pubs",
        "outdoor_seating": "yes",
        "phone": "+1 403 541 9168",
        "website": "https://calgarysbestpubs.com/joyce/",
        "wheelchair": "yes"
      }
    },
    {
      "type": "node",
      "id": 5607957700,
      "lat": 51.0531581,
      "lon": -114.0446353,
      "timestamp": "2019-09-18T22:09:54Z",
      "version": 2,
      "changeset": 74646921,
      "user": "Matthew Darwin",
      "uid": 5633991,
      "tags": {
        "addr:city": "Calgary",
        "addr:housenumber": "813",
        "addr:street": "1 Avenue NE",
        "amenity": "bar",
        "name": "Cannibale"
      }
    },
    {
      "type": "node",
      "id": 5675767708,
      "lat": 51.0282476,
      "lon": -114.0951492,
      "timestamp": "2025-07-04T16:08:41Z",
      "version": 4,
      "changeset": 168492216,
      "user": "hoserab",
      "uid": 5722347,
      "tags": {
        "addr:housenumber": "2905",
        "addr:postcode": "T2T 3V5",
        "addr:street": "14 Street SW",
        "amenity": "pub",
        "name": "The Royal",
        "old_name": "Bankview Public House",
        "opening_hours": "Su-Mo 11:00-23:00; Tu-Th 11:00-24:00; Fr-Sa 11:00-01:00",
        "outdoor_seating": "yes",
        "phone": "+1 403-452-4792",
        "website": "https://royalyyc.ca/"
      }
    },
    {
      "type": "node",
      "id": 5737637855,
      "lat": 53.2666789,
      "lon": -110.0222094,
      "timestamp": "2025-04-20T18:24:37Z",
      "version": 6,
      "changeset": 165207608,
      "user": "christopherius",
      "uid": 7106760,
      "tags": {
        "addr:city": "Lloydminster",
        "addr:housenumber": "5601",
        "addr:postcode": "T9V 2H3",
        "addr:street": "31 Street",
        "amenity": "bar",
        "name": "Neighbors Pub",
        "opening_hours": "Mo-Sa 11:00-22:00; Su off"
      }
    },
    {
      "type": "node",
      "id": 5763113896,
      "lat": 55.1772407,
      "lon": -118.8225445,
      "timestamp": "2018-07-16T07:27:58Z",
      "version": 1,
      "changeset": 60750820,
      "user": "Hypnotic94",
      "uid": 5667257,
      "tags": {
        "amenity": "bar",
        "name": "The Den Pub and Carvery"
      }
    },
    {
      "type": "node",
      "id": 5796708953,
      "lat": 51.0424986,
      "lon": -114.075425,
      "timestamp": "2024-08-16T04:34:57Z",
      "version": 5,
      "changeset": 155308895,
      "user": "aljedaxi",
      "uid": 9581696,
      "tags": {
        "addr:city": "Calgary",
        "addr:housenumber": "625",
        "addr:postcode": "T2R 0E1",
        "addr:province": "Alberta",
        "addr:street": "11 Avenue SW",
        "amenity": "bar",
        "email": "love@regrub.ca",
        "indoor_seating": "yes",
        "name": "Regrub Burger Bar",
        "official_name": "Re:Grub",
        "opening_hours": "Su-We 11:30-20:00; Th 11:30-21:00; Fr 11:30-22:00; Sa 11:00-21:00",
        "outdoor_seating": "yes",
        "phone": "+1 403 700 0912",
        "website": "https://regrub.ca/beltline/"
      }
    },
    {
      "type": "node",
      "id": 5839242367,
      "lat": 53.2802768,
      "lon": -110.0052606,
      "timestamp": "2023-08-25T22:22:19Z",
      "version": 3,
      "changeset": 140390841,
      "user": "christopherius",
      "uid": 7106760,
      "tags": {
        "addr:city": "Lloydminster",
        "addr:housenumber": "4615",
        "addr:postcode": "S9V 0P4",
        "addr:street": "50 Avenue",
        "amenity": "pub",
        "name": "Midtown Pub",
        "opening_hours": "Mo-Su 10:00-02:00",
        "phone": "+1-306-825-5591",
        "website": "https://www.manhattaninnhotel.com/midtown-pub"
      }
    },
    {
      "type": "node",
      "id": 5892975821,
      "lat": 53.4985931,
      "lon": -113.4851593,
      "timestamp": "2018-10-26T03:33:30Z",
      "version": 2,
      "changeset": 63886657,
      "user": "Matthew Darwin",
      "uid": 5633991,
      "tags": {
        "addr:city": "Edmonton",
        "addr:housenumber": "9850",
        "addr:street": "62 Avenue NW",
        "amenity": "pub",
        "craft": "brewery",
        "email": "taproom@seachangebeer.com",
        "name": "Sea Change Brewing Co.",
        "phone": "+1-780-784-2996",
        "website": "https://www.seachangebeer.com/"
      }
    },
    {
      "type": "node",
      "id": 5907253607,
      "lat": 50.9988601,
      "lon": -118.1975,
      "timestamp": "2025-05-29T19:56:43Z",
      "version": 5,
      "changeset": 166940749,
      "user": "joel56dt",
      "uid": 3794090,
      "tags": {
        "addr:city": "Revelstoke",
        "addr:housenumber": "200",
        "addr:postcode": "V0E 2S0",
        "addr:street": "3rd Street West",
        "amenity": "bar",
        "brewery": "yes;various",
        "name": "The Last Drop",
        "opening_hours": "Mo-Su 15:00-00:00",
        "outdoor_seating": "yes"
      }
    },
    {
      "type": "node",
      "id": 5907264590,
      "lat": 50.9976548,
      "lon": -118.195486,
      "timestamp": "2023-09-25T13:03:12Z",
      "version": 3,
      "changeset": 141730727,
      "user": "Sangueffusor",
      "uid": 6793422,
      "tags": {
        "addr:city": "Revelstoke",
        "addr:housenumber": "107",
        "addr:postcode": "V0E 2S0",
        "addr:street": "2nd Street East",
        "amenity": "bar",
        "brewery": "yes;various",
        "email": "info@craftbierhaus.com",
        "name": "Craft Bierhaus",
        "opening_hours": "Su-Sa 12:00-02:00",
        "outdoor_seating": "yes",
        "phone": "+1-250-805-1754",
        "website": "https://www.craftbierhaus.com/"
      }
    },
    {
      "type": "node",
      "id": 5910907139,
      "lat": 53.2652753,
      "lon": -113.5529841,
      "timestamp": "2018-09-17T05:22:43Z",
      "version": 1,
      "changeset": 62652176,
      "user": "DK28082",
      "uid": 8802274,
      "tags": {
        "amenity": "bar",
        "name": "Shades Bar"
      }
    },
    {
      "type": "node",
      "id": 6005904504,
      "lat": 51.6601213,
      "lon": -114.1385155,
      "timestamp": "2024-07-02T06:13:02Z",
      "version": 2,
      "changeset": 153438827,
      "user": "ContraBand",
      "uid": 2051947,
      "tags": {
        "amenity": "pub",
        "name": "Didsbury Saloon"
      }
    },
    {
      "type": "node",
      "id": 6005945618,
      "lat": 51.6584672,
      "lon": -114.1388237,
      "timestamp": "2018-10-22T21:31:51Z",
      "version": 1,
      "changeset": 63773742,
      "user": "Louisea",
      "uid": 8882102,
      "tags": {
        "amenity": "pub",
        "name": "All Jacked Up Bar & Grill"
      }
    },
    {
      "type": "node",
      "id": 6040439052,
      "lat": 53.4533653,
      "lon": -113.5245778,
      "timestamp": "2018-11-05T23:43:25Z",
      "version": 1,
      "changeset": 64214737,
      "user": "NymextTheWonderful",
      "uid": 9051838,
      "tags": {
        "amenity": "bar",
        "name": "Vinny's Bar"
      }
    },
    {
      "type": "node",
      "id": 6045601454,
      "lat": 50.3593403,
      "lon": -119.059306,
      "timestamp": "2023-04-27T16:10:58Z",
      "version": 7,
      "changeset": 135434780,
      "user": "QuigleyJones",
      "uid": 297740,
      "tags": {
        "addr:city": "Silverstar Mountain",
        "addr:housenumber": "139",
        "addr:postcode": "V1B 3M1",
        "addr:street": "Main Street",
        "amenity": "pub",
        "contact:facebook": "https://www.facebook.com/longjohnspubbc",
        "name": "Long John's Pub",
        "opening_hours": "Mo-Tu,Th 11:00-18:00; We 11:00-20:30; Fr 11:00-19:30; Sa 11:00-22:00; Su 12:00-22:00",
        "phone": "+1-250-549-2992",
        "website": "https://www.longjohnspub.com/",
        "year": "2001"
      }
    },
    {
      "type": "node",
      "id": 6084025486,
      "lat": 53.5414482,
      "lon": -113.5245035,
      "timestamp": "2018-11-23T04:30:47Z",
      "version": 1,
      "changeset": 64801009,
      "user": "Jayratt",
      "uid": 9135301,
      "tags": {
        "addr:housenumber": "11740",
        "addr:street": "Jasper Avenue NW",
        "amenity": "bar",
        "name": "On The Rocks",
        "name:en": "On The Rocks Kitchen and Drinks"
      }
    },
    {
      "type": "node",
      "id": 6100976624,
      "lat": 50.9030608,
      "lon": -113.9899337,
      "timestamp": "2019-09-18T14:20:43Z",
      "version": 2,
      "changeset": 74630446,
      "user": "Matthew Darwin",
      "uid": 5633991,
      "tags": {
        "addr:city": "Calgary",
        "addr:housenumber": "16666",
        "addr:postcode": "T2Z 1N4",
        "addr:street": "McKenzie Lake Boulevard SE",
        "amenity": "bar",
        "name": "Coasters Bar & Grill",
        "outdoor_seating": "yes"
      }
    },
    {
      "type": "node",
      "id": 6179366916,
      "lat": 53.4955271,
      "lon": -112.0523555,
      "timestamp": "2019-01-02T19:59:53Z",
      "version": 1,
      "changeset": 65969436,
      "user": "johnnyw03",
      "uid": 6968308,
      "tags": {
        "amenity": "pub",
        "name": "New Alberta Pub"
      }
    },
    {
      "type": "node",
      "id": 6209227776,
      "lat": 51.0490283,
      "lon": -114.0804548,
      "timestamp": "2019-01-15T00:37:50Z",
      "version": 1,
      "changeset": 66318972,
      "user": "hoserab",
      "uid": 5722347,
      "tags": {
        "addr:housenumber": "832",
        "addr:postcode": "T2P 0N5",
        "addr:street": "5 Avenue SW",
        "amenity": "bar",
        "email": "info@bacchuskaraokecalgary.com",
        "name": "Bacchus 5th Karaoke",
        "opening_hours": "Mo-Su 18:00-03:00",
        "phone": "+1-403-474-1009",
        "website": "http://www.bacchuskaraokecalgary.com/"
      }
    },
    {
      "type": "node",
      "id": 6334220724,
      "lat": 51.1719216,
      "lon": -114.1594558,
      "timestamp": "2019-09-18T21:42:31Z",
      "version": 2,
      "changeset": 74646341,
      "user": "Matthew Darwin",
      "uid": 5633991,
      "tags": {
        "addr:city": "Calgary",
        "addr:housenumber": "8",
        "addr:postcode": "T3R 0X2",
        "addr:street": "Nolan Hill Boulevard NW",
        "addr:unit": "300",
        "amenity": "bar",
        "name": "State & Main Kitchen & Bar"
      }
    },
    {
      "type": "node",
      "id": 6334894155,
      "lat": 51.0847034,
      "lon": -114.2218077,
      "timestamp": "2021-12-19T16:23:23Z",
      "version": 5,
      "changeset": 115131392,
      "user": "wheelmap_visitor",
      "uid": 290680,
      "tags": {
        "addr:city": "Calgary",
        "addr:country": "CA",
        "addr:housenumber": "151",
        "addr:postcode": "T3H 4E5",
        "addr:province": "AB",
        "addr:street": "Canada Olympic Road SW",
        "amenity": "bar",
        "name": "Molson Canadian Hockey House",
        "wheelchair": "limited"
      }
    },
    {
      "type": "node",
      "id": 6347340877,
      "lat": 50.5505354,
      "lon": -119.1405023,
      "timestamp": "2019-03-19T12:37:45Z",
      "version": 1,
      "changeset": 68293076,
      "user": "darkstormclouds",
      "uid": 9544665,
      "tags": {
        "amenity": "bar"
      }
    },