{
  "version": 0.6,
  "generator": "Overpass API 0.7.62.8 e802775f",
  "osm3s": {
    "timestamp_osm_base": "2025-10-23T19:41:14Z",
    "copyright": "The data included in this document is from www.openstreetmap.org. The data is made available under ODbL."
  },
  "elements": [
    {
      "type": "node",
      "id": 900922602,
      "lat": -16.0999543,
      "lon": 23.2967591,
      "timestamp": "2018-05-13T13:46:01Z",
      "version": 2,
      "changeset": 58924807,
      "user": "ftcat",
      "uid": 4136766,
      "tags": {
        "amenity": "pub"
      }
    },
    {
      "type": "node",
      "id": 901123323,
      "lat": -15.3961393,
      "lon": 28.4507175,
      "timestamp": "2010-09-07T16:40:02Z",
      "version": 1,
      "changeset": 5709657,
      "user": "Biker69",
      "uid": 172099,
      "tags": {
        "amenity": "pub",
        "name": "Pioneer Camp"
      }
    },
    {
      "type": "node",
      "id": 910385731,
      "lat": -18.629146,
      "lon": 25.9866824,
      "timestamp": "2016-01-10T19:11:02Z",
      "version": 4,
      "changeset": 36489524,
      "user": "Geoallrounder",
      "uid": 511945,
      "tags": {
        "amenity": "pub",
        "name": "Robins Camp Bar"
      }
    },
    {
      "type": "node",
      "id": 910790288,
      "lat": -16.5371224,
      "lon": 28.7275822,
      "timestamp": "2010-09-13T15:43:04Z",
      "version": 1,
      "changeset": 5770666,
      "user": "Biker69",
      "uid": 172099,
      "tags": {
        "amenity": "pub",
        "name": "Beach Bar"
      }
    },
    {
      "type": "node",
      "id": 929926978,
      "lat": -17.624208,
      "lon": 27.3398809,
      "timestamp": "2010-10-08T19:59:44Z",
      "version": 2,
      "changeset": 5988946,
      "user": "Binga Tracking",
      "uid": 352735,
      "tags": {
        "amenity": "bar",
        "is_in": "Binga, Binga District, Matabeleland North, Zimbabwe",
        "name": "DA's Bar"
      }
    },
    {
      "type": "node",
      "id": 929927264,
      "lat": -17.6230615,
      "lon": 27.344445,
      "timestamp": "2010-10-08T19:59:35Z",
      "version": 2,
      "changeset": 5988946,
      "user": "Binga Tracking",
      "uid": 352735,
      "tags": {
        "amenity": "bar",
        "is_in": "Binga District, Matabeleland North, Zimbabwe",
        "name": "Mzezwa Coctail Bar"
      }
    },
    {
      "type": "node",
      "id": 939204609,
      "lat": -17.6243995,
      "lon": 27.3442625,
      "timestamp": "2010-10-08T19:59:43Z",
      "version": 3,
      "changeset": 5988946,
      "user": "Binga Tracking",
      "uid": 352735,
      "tags": {
        "amenity": "biergarten",
        "is_in": "Binga, Binga District, Matabeleland North, Zimbabwe",
        "name": "Kulya Bier Garden"
      }
    },
    {
      "type": "node",
      "id": 1105822222,
      "lat": -17.7963741,
      "lon": 25.1544124,
      "timestamp": "2021-10-12T11:23:36Z",
      "version": 4,
      "changeset": 112413742,
      "user": "Litamelo",
      "uid": 11680711,
      "tags": {
        "amenity": "bar",
        "name": "Centre Bar"
      }
    },
    {
      "type": "node",
      "id": 1324201150,
      "lat": -15.4358164,
      "lon": 28.3418165,
      "timestamp": "2022-10-17T08:45:16Z",
      "version": 4,
      "changeset": 127657165,
      "user": "ftcat",
      "uid": 4136766,
      "tags": {
        "amenity": "pub",
        "name": "O'Hagans"
      }
    },
    {
      "type": "node",
      "id": 1778703230,
      "lat": -19.9437922,
      "lon": 23.4830406,
      "timestamp": "2012-10-22T21:11:08Z",
      "version": 2,
      "changeset": 13598410,
      "user": "wheelmap_visitor",
      "uid": 290680,
      "tags": {
        "amenity": "bar",
        "name": "Sports Bar",
        "wheelchair": "no"
      }
    },
    {
      "type": "node",
      "id": 2277018204,
      "lat": -17.9245622,
      "lon": 25.838443,
      "timestamp": "2019-10-08T03:54:39Z",
      "version": 3,
      "changeset": 75398927,
      "user": "stephengmatthews",
      "uid": 4339666,
      "tags": {
        "amenity": "bar",
        "internet_access": "wlan",
        "name": "In Da Belly"
      }
    },
    {
      "type": "node",
      "id": 2278242606,
      "lat": -17.9221532,
      "lon": 25.837126,
      "timestamp": "2013-04-23T11:43:40Z",
      "version": 1,
      "changeset": 15835396,
      "user": "mafushwa",
      "uid": 1214534,
      "tags": {
        "amenity": "pub"
      }
    },
    {
      "type": "node",
      "id": 2278250671,
      "lat": -17.9313403,
      "lon": 25.8295514,
      "timestamp": "2018-08-04T15:32:12Z",
      "version": 2,
      "changeset": 61356249,
      "user": "Loomyer",
      "uid": 7514,
      "tags": {
        "amenity": "bar"
      }
    },
    {
      "type": "node",
      "id": 2278250673,
      "lat": -17.9312791,
      "lon": 25.8291115,
      "timestamp": "2013-04-23T11:53:24Z",
      "version": 1,
      "changeset": 15835396,
      "user": "mafushwa",
      "uid": 1214534,
      "tags": {
        "amenity": "pub"
      }
    },
    {
      "type": "node",
      "id": 2603383864,
      "lat": -11.6452233,
      "lon": 27.4633668,
      "timestamp": "2014-01-21T16:28:24Z",
      "version": 2,
      "changeset": 20125318,
      "user": "ap737",
      "uid": 1862422,
      "tags": {
        "amenity": "pub",
        "name": "Riviera Lake"
      }
    },
    {
      "type": "node",
      "id": 3243602610,
      "lat": -11.2002773,
      "lon": 28.8867591,
      "timestamp": "2014-12-19T22:23:36Z",
      "version": 1,
      "changeset": 27579544,
      "user": "John Mark Esplana",
      "uid": 2517207,
      "tags": {
        "amenity": "bar",
        "name": "Elle et Moi Bar & Restaurant"
      }
    },
    {
      "type": "node",
      "id": 3729880996,
      "lat": -12.9396122,
      "lon": 28.6203194,
      "timestamp": "2015-09-04T21:44:15Z",
      "version": 1,
      "changeset": 33804890,
      "user": "reiser",
      "uid": 265108,
      "tags": {
        "amenity": "pub",
        "internet_access": "no",
        "name": "Fiesta",
        "outdoor_seating": "yes",
        "wheelchair": "yes"
      }
    },
    {
      "type": "node",
      "id": 3906155719,
      "lat": -11.6511139,
      "lon": 27.4723623,
      "timestamp": "2015-12-23T10:00:39Z",
      "version": 1,
      "changeset": 36121843,
      "user": "clairedelune",
      "uid": 190626,
      "tags": {
        "amenity": "bar",
        "name": "La Pelouse"
      }
    },
    {
      "type": "node",
      "id": 3959788781,
      "lat": -11.6551658,
      "lon": 27.4646488,
      "timestamp": "2025-08-28T08:21:41Z",
      "version": 2,
      "changeset": 171120105,
      "user": "PetrusCD",
      "uid": 23225993,
      "tags": {
        "amenity": "bar",
        "name": "Mess des officiers",
        "opening_hours": "9:00 up to 22:00",
        "operator": "luc"
      }
    },
    {
      "type": "node",
      "id": 4165187991,
      "lat": -11.6492941,
      "lon": 27.5488764,
      "timestamp": "2016-05-04T08:42:36Z",
      "version": 1,
      "changeset": 39090781,
      "user": "edvac",
      "uid": 121415,
      "tags": {
        "amenity": "bar",
        "name": "Terrasse 100$ c'est quoi?"
      }
    },
    {
      "type": "node",
      "id": 4269799674,
      "lat": -17.9073387,
      "lon": 27.2819256,
      "timestamp": "2016-06-28T13:05:14Z",
      "version": 1,
      "changeset": 40343340,
      "user": "Giblet",
      "uid": 1815735,
      "tags": {
        "addr:city": "Siachilaba",
        "addr:street": "Binga Road",
        "amenity": "bar",
        "name": "Chitamani Bottle Store"
      }
    },
    {
      "type": "node",
      "id": 4269799677,
      "lat": -17.9072811,
      "lon": 27.281918,
      "timestamp": "2016-06-28T13:05:14Z",
      "version": 1,
      "changeset": 40343340,
      "user": "Giblet",
      "uid": 1815735,
      "tags": {
        "addr:city": "Siachilaba",
        "addr:street": "Binga Road",
        "amenity": "bar",
        "name": "Mujate Anguwe Bottle Store"
      }
    },
    {
      "type": "node",
      "id": 4287964233,
      "lat": -17.7998714,
      "lon": 25.1601048,
      "timestamp": "2016-07-07T12:16:55Z",
      "version": 2,
      "changeset": 40540803,
      "user": "Ido Marom",
      "uid": 2778924,
      "tags": {
        "amenity": "bar",
        "name": "Sevuva Bar"
      }
    },
    {
      "type": "node",
      "id": 4288036185,
      "lat": -17.8000938,
      "lon": 25.1598422,
      "timestamp": "2022-01-17T09:30:08Z",
      "version": 2,
      "changeset": 116245070,
      "user": "Litamelo",
      "uid": 11680711,
      "tags": {
        "amenity": "bar",
        "name": "Bar"
      }
    },
    {
      "type": "node",
      "id": 4468672098,
      "lat": -15.3300196,
      "lon": 28.6767306,
      "timestamp": "2016-10-28T18:42:27Z",
      "version": 1,
      "changeset": 43252294,
      "user": "pierred",
      "uid": 499549,
      "tags": {
        "amenity": "bar",
        "name": "Chongwe Centre Bar",
        "name:en": "Chongwe Centre Bar"
      }
    },
    {
      "type": "node",
      "id": 4468703494,
      "lat": -15.3362001,
      "lon": 28.6701835,
      "timestamp": "2016-10-28T18:42:40Z",
      "version": 1,
      "changeset": 43252294,
      "user": "pierred",
      "uid": 499549,
      "tags": {
        "amenity": "pub",
        "name": "The Cruz",
        "name:en": "The Cruz"
      }
    },
    {
      "type": "node",
      "id": 4468703593,
      "lat": -15.3328111,
      "lon": 28.673854,
      "timestamp": "2023-06-11T07:25:38Z",
      "version": 2,
      "changeset": 137193453,
      "user": "Chabota Munachoonga",
      "uid": 5323285,
      "tags": {
        "amenity": "pub",
        "name": "Lilato Pub & Grill",
        "name:en": "Lilato Pub & Grill"
      }
    },
    {
      "type": "node",
      "id": 4468735090,
      "lat": -15.3590881,
      "lon": 28.44299,
      "timestamp": "2016-10-28T18:42:50Z",
      "version": 1,
      "changeset": 43252294,
      "user": "pierred",
      "uid": 499549,
      "tags": {
        "amenity": "bar",
        "name": "Kuta Bar",
        "name:en": "Kuta Bar"
      }
    },
    {
      "type": "node",
      "id": 4471251993,
      "lat": -15.4404275,
      "lon": 28.3384659,
      "timestamp": "2016-10-30T12:02:34Z",
      "version": 1,
      "changeset": 43282193,
      "user": "pierred",
      "uid": 499549,
      "tags": {
        "amenity": "pub",
        "name": "GBFC (Green Buffaloes FC) Pub & Grill"
      }
    },
    {
      "type": "node",
      "id": 4472852439,
      "lat": -16.7753184,
      "lon": 27.246604,
      "timestamp": "2016-10-31T16:08:53Z",
      "version": 1,
      "changeset": 43307380,
      "user": "pierred",
      "uid": 499549,
      "tags": {
        "amenity": "bar",
        "name": "Come Together Bar",
        "name:en": "Come Together Bar"
      }
    },
    {
      "type": "node",
      "id": 4472852444,
      "lat": -17.3186037,
      "lon": 26.1999806,
      "timestamp": "2016-10-31T16:10:18Z",
      "version": 1,
      "changeset": 43307380,
      "user": "pierred",
      "uid": 499549,
      "tags": {
        "amenity": "bar",
        "name": "Lady C Bar",
        "name:en": "Lady C Bar"
      }
    },
    {
      "type": "node",
      "id": 4473001393,
      "lat": -17.3185485,
      "lon": 26.200159,
      "timestamp": "2016-10-31T16:10:13Z",
      "version": 1,
      "changeset": 43307380,
      "user": "pierred",
      "uid": 499549,
      "tags": {
        "amenity": "bar",
        "name": "Road Side Bar",
        "name:en": "Road Side Bar"
      }
    },
    {
      "type": "node",
      "id": 4473011196,
      "lat": -16.809379,
      "lon": 26.9840888,
      "timestamp": "2016-10-31T16:09:20Z",
      "version": 1,
      "changeset": 43307380,
      "user": "pierred",
      "uid": 499549,
      "tags": {
        "amenity": "bar",
        "name": "Legends Bar",
        "name:en": "Legends Bar"
      }
    },
    {
      "type": "node",
      "id": 4475364891,
      "lat": -19.4611659,
      "lon": 29.7428004,
      "timestamp": "2016-11-01T16:55:23Z",
      "version": 1,
      "changeset": 43330503,
      "user": "Tavonga Ndofa",
      "uid": 4802330,
      "tags": {
        "amenity": "bar",
        "name": "Mazondo bottle store",
        "name:en": "Mazondo bottle store"
      }
    },
    {
      "type": "node",
      "id": 4485063097,
      "lat": -17.4720158,
      "lon": 24.2815917,
      "timestamp": "2016-11-06T08:39:58Z",
      "version": 1,
      "changeset": 43436452,
      "user": "pierred",
      "uid": 499549,
      "tags": {
        "amenity": "bar",
        "name": "One World Beer Garden",
        "name:en": "One World Beer Garden"
      }
    },
    {
      "type": "node",
      "id": 4546175617,
      "lat": -11.663698,
      "lon": 27.4680178,
      "timestamp": "2016-12-09T09:32:26Z",
      "version": 1,
      "changeset": 44277637,
      "user": "patientumba",
      "uid": 4932252,
      "tags": {
        "addr:city": "Lubumbashi",
        "addr:street": "Avenue Ruwe",
        "amenity": "bar",
        "description": "Bar situé sur Ruwé au croisement avec Nefoka",
        "name": "Lido class",
        "opening_hours": "08à22 heures",
        "operator": "Monsieur Nike"
      }
    },
    {
      "type": "node",
      "id": 4547853041,
      "lat": -11.6306273,
      "lon": 27.4816257,
      "timestamp": "2016-12-12T11:56:50Z",
      "version": 2,
      "changeset": 44343774,
      "user": "edvac",
      "uid": 121415,
      "tags": {
        "addr:street": "avenue de l'eglise",
        "amenity": "bar",
        "name": "Terrasse Espace MK",
        "outdoor_seating": "no",
        "smoking": "yes"
      }
    },
    {
      "type": "node",
      "id": 4550866333,
      "lat": -10.2511001,
      "lon": 29.9154428,
      "timestamp": "2016-12-12T13:10:42Z",
      "version": 1,
      "changeset": 44345506,
      "user": "Planner Sy",
      "uid": 4958947,
      "tags": {
        "amenity": "bar",
        "name": "The Dumpsite",
        "operator": "Big Vic",
        "smoking": "outside"
      }
    },
    {
      "type": "node",
      "id": 4552019120,
      "lat": -11.6278109,
      "lon": 27.4860908,
      "timestamp": "2016-12-13T20:28:51Z",
      "version": 2,
      "changeset": 44382335,
      "user": "edvac",
      "uid": 121415,
      "tags": {
        "amenity": "bar",
        "name": "+243 code ya mboka"
      }
    },
    {
      "type": "node",
      "id": 4552019126,
      "lat": -11.6310086,
      "lon": 27.4839481,
      "timestamp": "2016-12-13T09:31:31Z",
      "version": 1,
      "changeset": 44367108,
      "user": "Idjufru",
      "uid": 4931657,
      "tags": {
        "amenity": "pub",
        "name": "Night clun NONO"
      }
    },
    {
      "type": "node",
      "id": 4552021644,
      "lat": -11.6296498,
      "lon": 27.4933225,
      "timestamp": "2016-12-13T09:34:24Z",
      "version": 1,
      "changeset": 44367165,
      "user": "nkulumulamba",
      "uid": 4936510,
      "tags": {
        "amenity": "pub",
        "name": "terrasse tembo"
      }
    },
    {
      "type": "node",
      "id": 4552021656,
      "lat": -11.6287427,
      "lon": 27.4941525,
      "timestamp": "2016-12-13T09:34:28Z",
      "version": 1,
      "changeset": 44367165,
      "user": "nkulumulamba",
      "uid": 4936510,
      "tags": {
        "amenity": "pub",
        "name": "terrasse espace victoire"
      }
    },
    {
      "type": "node",
      "id": 4553480939,
      "lat": -11.6722638,
      "lon": 27.4850331,
      "timestamp": "2016-12-14T07:42:36Z",
      "version": 1,
      "changeset": 44391271,
      "user": "edvac",
      "uid": 121415,
      "tags": {
        "amenity": "bar",
        "name": "Une pour la route"
      }
    },
    {
      "type": "node",
      "id": 4553488245,
      "lat": -11.6726914,
      "lon": 27.484084,
      "timestamp": "2016-12-14T07:46:23Z",
      "version": 1,
      "changeset": 44391335,
      "user": "edvac",
      "uid": 121415,
      "tags": {
        "amenity": "bar",
        "name": "Village N'Tay",
        "source": "Mapillary"
      }
    },
    {
      "type": "node",
      "id": 4563548852,
      "lat": -11.6194885,
      "lon": 27.4799542,
      "timestamp": "2016-12-20T13:54:37Z",
      "version": 1,
      "changeset": 44541822,
      "user": "nkulumulamba",
      "uid": 4936510,
      "tags": {
        "amenity": "bar",
        "internet_access": "no",
        "internet_access:fee": "no",
        "name": "Maison Benie",
        "opening_hours": "08:30-12:30,15:30-20:00",
        "smoking": "outside",
        "wheelchair": "no"
      }
    },
    {
      "type": "node",
      "id": 4571968193,
      "lat": -19.4503789,
      "lon": 29.7415853,
      "timestamp": "2016-12-25T19:01:44Z",
      "version": 1,
      "changeset": 44666655,
      "user": "mikera365",
      "uid": 5021964,
      "tags": {
        "amenity": "bar",
        "name": "Zulu land⚡",
        "name:en": "Zulu land⚡"
      }
    },
    {
      "type": "node",
      "id": 4593718891,
      "lat": -19.4493123,
      "lon": 29.7461103,
      "timestamp": "2017-01-07T02:47:23Z",
      "version": 1,
      "changeset": 44971558,
      "user": "mikera365",
      "uid": 5021964,
      "tags": {
        "amenity": "bar",
        "name": "Toyo shops",
        "name:en": "Toyo shops"
      }
    },
    {
      "type": "node",
      "id": 4620408891,
      "lat": -12.7993938,
      "lon": 28.2126843,
      "timestamp": "2017-01-20T11:01:48Z",
      "version": 1,
      "changeset": 45323950,
      "user": "E-Jay Jonas Mwanapabo",
      "uid": 5158206,
      "tags": {
        "amenity": "pub",
        "name": "Molly's Place",
        "name:en": "Molly's Place"
      }
    },
    {
      "type": "node",
      "id": 4620947289,
      "lat": -12.8147074,
      "lon": 28.2110933,
      "timestamp": "2017-01-20T16:52:09Z",
      "version": 1,
      "changeset": 45331416,
      "user": "E-Jay Jonas Mwanapabo",
      "uid": 5158206,
      "tags": {
        "amenity": "pub",
        "name": "Cosy Jo's Pub",
        "name:en": "Cosy Jo's Pub"
      }
    },
    {
      "type": "node",
      "id": 4620967089,
      "lat": -12.8218259,
      "lon": 28.2179417,
      "timestamp": "2017-01-20T17:09:24Z",
      "version": 1,
      "changeset": 45331837,
      "user": "E-Jay Jonas Mwanapabo",
      "uid": 5158206,
      "tags": {
        "amenity": "pub",
        "name": "Totsi Pub",
        "name:en": "Totsi Pub"
      }
    },
    {
      "type": "node",
      "id": 4621758190,
      "lat": -12.7959249,
      "lon": 28.2068915,
      "timestamp": "2017-01-21T09:43:29Z",
      "version": 1,
      "changeset": 45345893,
      "user": "E-Jay Jonas Mwanapabo",
      "uid": 5158206,
      "tags": {
        "amenity": "bar",
        "name": "Wills",
        "name:en": "Wills"
      }
    },
    {
      "type": "node",
      "id": 4686695337,
      "lat": -15.4387392,
      "lon": 28.2482332,
      "timestamp": "2017-03-17T13:57:00Z",
      "version": 2,
      "changeset": 46928935,
      "user": "mirriam mweetwa",
      "uid": 5283209,
      "tags": {
        "amenity": "bar"
      }
    },
    {
      "type": "node",
      "id": 4723797603,
      "lat": -15.4400261,
      "lon": 28.253217,
      "timestamp": "2017-04-11T13:54:56Z",
      "version": 2,
      "changeset": 47657826,
      "user": "AbrahamKumbana",
      "uid": 5281416,
      "tags": {
        "amenity": "pub",
        "name": "Last Point Pub"
      }
    },
    {
      "type": "node",
      "id": 4726017385,
      "lat": -15.4325726,
      "lon": 28.2556754,
      "timestamp": "2017-03-09T13:44:50Z",
      "version": 1,
      "changeset": 46710073,
      "user": "mambilima1996",
      "uid": 5299053,
      "tags": {
        "amenity": "bar",
        "name": "Bana Sisqo Bar"
      }
    },
    {
      "type": "node",
      "id": 4726017386,
      "lat": -15.4327501,
      "lon": 28.255718,
      "timestamp": "2017-03-09T13:44:50Z",
      "version": 1,
      "changeset": 46710073,
      "user": "mambilima1996",
      "uid": 5299053,
      "tags": {
        "amenity": "bar",
        "name": "Bana Gift"
      }
    },
    {
      "type": "node",
      "id": 4726017387,
      "lat": -15.4327903,
      "lon": 28.2556726,
      "timestamp": "2017-03-09T13:44:50Z",
      "version": 1,
      "changeset": 46710073,
      "user": "mambilima1996",
      "uid": 5299053,
      "tags": {
        "amenity": "bar",
        "name": "Genesis 12 Sport Club"
      }
    },
    {
      "type": "node",
      "id": 4727270057,
      "lat": -15.4354498,
      "lon": 28.2493666,
      "timestamp": "2017-09-09T19:03:58Z",
      "version": 5,
      "changeset": 51888639,
      "user": "naoliv",
      "uid": 463507,
      "tags": {
        "addr:housenumber": "5996",
        "addr:street": "masauko",
        "amenity": "bar",
        "name": "Pa Ba Mai"
      }
    },
    {
      "type": "node",
      "id": 4727787803,
      "lat": -15.4311392,
      "lon": 28.2546703,
      "timestamp": "2017-12-21T20:43:40Z",
      "version": 4,
      "changeset": 54825607,
      "user": "goedegazelle",
      "uid": 192467,
      "tags": {
        "addr:street": "Bus stop",
        "amenity": "bar",
        "name": "Kasama Zone",
        "shop": "alcohol"
      }
    },
    {
      "type": "node",
      "id": 4727903861,
      "lat": -15.4336105,
      "lon": 28.2489703,
      "timestamp": "2017-03-10T15:19:48Z",
      "version": 1,
      "changeset": 46741474,
      "user": "AbrahamKumbana",
      "uid": 5281416,
      "tags": {
        "addr:street": "mutanda bantu",
        "amenity": "bar",
        "name": "Kapolo Sakwiya Bar"
      }
    },
    {
      "type": "node",
      "id": 4727903871,
      "lat": -15.434097,
      "lon": 28.2488245,
      "timestamp": "2018-01-05T22:23:10Z",
      "version": 4,
      "changeset": 55199413,
      "user": "piaco_dk",
      "uid": 3442203,
      "tags": {
        "addr:street": "masauko",
        "amenity": "bar",
        "name": "Nsulako Libe Llandi General Dealer's",
        "shop": "alcohol"
      }
    },
    {
      "type": "node",
      "id": 4732262097,
      "lat": -15.4353731,
      "lon": 28.2586154,
      "timestamp": "2017-03-27T11:06:49Z",
      "version": 3,
      "changeset": 47198536,
      "user": "kumbanamargaret",
      "uid": 5281513,
      "tags": {
        "addr:street": "geoget area",
        "amenity": "bar",
        "name": "Big Brother"
      }
    },
    {
      "type": "node",
      "id": 4732262569,
      "lat": -15.4373465,
      "lon": 28.2568696,
      "timestamp": "2023-06-02T06:09:01Z",
      "version": 4,
      "changeset": 136853599,
      "user": "charles chilufya",
      "uid": 10294659,
      "tags": {
        "amenity": "bar",
        "brewery": "various",
        "check_date": "2023-06-02",
        "internet_access": "no",
        "payment:cards": "no",
        "payment:credit_cards": "no",
        "payment:debit_cards": "no",
        "wheelchair": "no"
      }
    },
    {
      "type": "node",
      "id": 4732369018,
      "lat": -15.4326649,
      "lon": 28.2623439,
      "timestamp": "2023-05-10T22:00:19Z",
      "version": 2,
      "changeset": 135953578,
      "user": "charles chilufya",
      "uid": 10294659,
      "tags": {
        "amenity": "pub",
        "check_date": "2023-05-10",
        "internet_access": "no",
        "name": "Cox5 Pub",
        "payment:cards": "no",
        "payment:credit_cards": "no",
        "payment:debit_cards": "no",
        "wheelchair": "limited"
      }
    },
    {
      "type": "node",
      "id": 4733831742,
      "lat": -15.4460649,
      "lon": 28.2461229,
      "timestamp": "2017-03-14T09:45:29Z",
      "version": 1,
      "changeset": 46834861,
      "user": "johanespeter9",
      "uid": 2780502,
      "tags": {
        "amenity": "pub"
      }
    },
    {
      "type": "node",
      "id": 4734352208,
      "lat": -15.437436,
      "lon": 28.242727,
      "timestamp": "2017-03-14T14:40:28Z",
      "version": 1,
      "changeset": 46842585,
      "user": "AbrahamKumbana",
      "uid": 5281416,
      "tags": {
        "amenity": "bar",
        "name": "Blue Tavern"
      }
    },
    {
      "type": "node",
      "id": 4735617644,
      "lat": -15.4352505,
      "lon": 28.244652,
      "timestamp": "2017-04-14T19:41:47Z",
      "version": 2,
      "changeset": 47793682,
      "user": "kumbanamargaret",
      "uid": 5281513,
      "tags": {
        "amenity": "pub",
        "name": "Figo & Christines Pub"
      }
    },
    {
      "type": "node",
      "id": 4735617645,
      "lat": -15.4359758,
      "lon": 28.2452059,
      "timestamp": "2017-04-14T19:41:48Z",
      "version": 2,
      "changeset": 47793682,
      "user": "kumbanamargaret",
      "uid": 5281513,
      "tags": {
        "amenity": "pub",
        "name": "Kalubemba pub"
      }
    },
    {
      "type": "node",
      "id": 4736255423,
      "lat": -15.422634,
      "lon": 28.2482355,
      "timestamp": "2023-06-13T10:49:48Z",
      "version": 2,
      "changeset": 137280554,
      "user": "charles chilufya",
      "uid": 10294659,
      "tags": {
        "amenity": "bar",
        "brewery": "various;yes",
        "check_date": "2023-06-13",
        "internet_access": "no",
        "name": "Ziba Zako",
        "payment:cards": "no",
        "payment:credit_cards": "no",
        "payment:debit_cards": "no",
        "wheelchair": "no"
      }
    },
    {
      "type": "node",
      "id": 4736308430,
      "lat": -15.4293069,
      "lon": 28.2550542,
      "timestamp": "2017-04-14T19:41:53Z",
      "version": 4,
      "changeset": 47793682,
      "user": "kumbanamargaret",
      "uid": 5281513,
      "tags": {
        "addr:street": "chikulu kulya road",
        "amenity": "bar",
        "name": "com bar"
      }
    },
    {
      "type": "node",
      "id": 4736331718,
      "lat": -15.4284177,
      "lon": 28.2490938,
      "timestamp": "2017-04-14T19:41:54Z",
      "version": 3,
      "changeset": 47793682,
      "user": "kumbanamargaret",
      "uid": 5281513,
      "tags": {
        "addr:street": "old kanyama",
        "amenity": "bar"
      }
    },
    {
      "type": "node",
      "id": 4737937719,
      "lat": -15.4398032,
      "lon": 28.2386634,
      "timestamp": "2017-03-16T12:00:58Z",
      "version": 1,
      "changeset": 46896150,
      "user": "kumbanamargaret",
      "uid": 5281513,
      "tags": {
        "amenity": "bar",
        "name": "Pub"
      }
    },
    {
      "type": "node",
      "id": 4738088805,
      "lat": -15.4372075,
      "lon": 28.2385889,
      "timestamp": "2017-03-16T13:45:56Z",
      "version": 1,
      "changeset": 46898702,
      "user": "mirriam mweetwa",
      "uid": 5283209,
      "tags": {
        "amenity": "bar"
      }
    },
    {
      "type": "node",
      "id": 4738155064,
      "lat": -15.4373727,
      "lon": 28.241673,
      "timestamp": "2017-03-16T14:37:54Z",
      "version": 1,
      "changeset": 46899795,
      "user": "shellyshamz",
      "uid": 5282073,
      "tags": {
        "amenity": "pub"
      }
    },
    {
      "type": "node",
      "id": 4739780018,
      "lat": -15.4374303,
      "lon": 28.2415975,
      "timestamp": "2017-04-14T19:41:54Z",
      "version": 3,
      "changeset": 47793682,
      "user": "kumbanamargaret",
      "uid": 5281513,
      "tags": {
        "addr:street": "Mr Jones bar",
        "amenity": "bar"
      }
    },
    {
      "type": "node",
      "id": 4739781051,
      "lat": -15.4388577,
      "lon": 28.2415144,
      "timestamp": "2017-04-14T19:41:50Z",
      "version": 3,
      "changeset": 47793682,
      "user": "kumbanamargaret",
      "uid": 5281513,
      "tags": {
        "addr:street": "Banda masauku",
        "amenity": "bar",
        "name": "Queen land pub"
      }
    },
    {
      "type": "node",
      "id": 4739820022,
      "lat": -15.4408695,
      "lon": 28.2412075,
      "timestamp": "2017-03-17T13:54:19Z",
      "version": 1,
      "changeset": 46928848,
      "user": "AbrahamKumbana",
      "uid": 5281416,
      "tags": {
        "amenity": "bar"
      }
    },
    {
      "type": "node",
      "id": 4739820023,
      "lat": -15.4408022,
      "lon": 28.2405958,
      "timestamp": "2017-03-17T13:54:19Z",
      "version": 1,
      "changeset": 46928848,
      "user": "AbrahamKumbana",
      "uid": 5281416,
      "tags": {
        "amenity": "bar"
      }
    },
    {
      "type": "node",
      "id": 4739827836,
      "lat": -15.4222748,
      "lon": 28.24794,
      "timestamp": "2023-04-24T11:18:41Z",
      "version": 2,
      "changeset": 135297314,
      "user": "charles chilufya",
      "uid": 10294659,
      "tags": {
        "amenity": "bar",
        "brewery": "various",
        "check_date": "2023-04-24",
        "internet_access": "no",
        "min_age": "18",
        "payment:cards": "no",
        "payment:credit_cards": "no",
        "payment:debit_cards": "no",
        "wheelchair": "yes"
      }
    },
    {
      "type": "node",
      "id": 4744495546,
      "lat": -15.4325756,
      "lon": 28.2623193,
      "timestamp": "2023-05-10T22:00:19Z",
      "version": 3,
      "changeset": 135953578,
      "user": "charles chilufya",
      "uid": 10294659,
      "tags": {
        "addr:street": "Lady Diana",
        "amenity": "pub",
        "brewery": "various;yes",
        "check_date": "2023-05-11",
        "internet_access": "no",
        "name": "Cox5 Pub",
        "payment:cards": "no",
        "payment:credit_cards": "no",
        "payment:debit_cards": "no",
        "smoking": "no",
        "wheelchair": "no"
      }
    },
    {
      "type": "node",
      "id": 4745158144,
      "lat": -15.4287847,
      "lon": 28.2397915,
      "timestamp": "2017-03-20T14:39:50Z",
      "version": 1,
      "changeset": 47014810,
      "user": "seline1",
      "uid": 5294181,
      "tags": {
        "amenity": "bar",
        "name": "One Stop"
      }
    },
    {
      "type": "node",
      "id": 4745253021,
      "lat": -15.4287777,
      "lon": 28.2398415,
      "timestamp": "2017-04-14T19:41:53Z",
      "version": 3,
      "changeset": 47793682,
      "user": "kumbanamargaret",
      "uid": 5281513,
      "tags": {
        "addr:street": "mbesala",
        "amenity": "pub",
        "name": "one stop"
      }
    },
    {
      "type": "node",
      "id": 4745253086,
      "lat": -15.4306322,
      "lon": 28.2414965,
      "timestamp": "2017-04-14T19:41:48Z",
      "version": 3,
      "changeset": 47793682,
      "user": "kumbanamargaret",
      "uid": 5281513,
      "tags": {
        "addr:street": "old kanyama",
        "amenity": "bar",
        "name": "Kanongaebo"
      }
    },
    {
      "type": "node",
      "id": 4745253091,
      "lat": -15.4307646,
      "lon": 28.2416339,
      "timestamp": "2017-04-14T19:41:48Z",
      "version": 3,
      "changeset": 47793682,
      "user": "kumbanamargaret",
      "uid": 5281513,
      "tags": {
        "addr:street": "old kanyama",
        "amenity": "bar",
        "name": "Kubo imangas tavern"
      }
    },
    {
      "type": "node",
      "id": 4746316554,
      "lat": -15.4284587,
      "lon": 28.2438443,
      "timestamp": "2017-04-17T11:03:37Z",
      "version": 2,
      "changeset": 47866579,
      "user": "johanespeter9",
      "uid": 2780502,
      "tags": {
        "amenity": "bar",
        "name": "Chamukweni Tarven",
        "toilets:position": "outside"
      }
    },
    {
      "type": "node",
      "id": 4746882869,
      "lat": -15.43181,
      "lon": 28.247193,
      "timestamp": "2023-06-19T10:33:54Z",
      "version": 3,
      "changeset": 137512066,
      "user": "charles chilufya",
      "uid": 10294659,
      "tags": {
        "addr:housenumber": "6312",
        "addr:street": "mutanda",
        "amenity": "pub",
        "brewery": "various",
        "check_date": "2023-06-19",
        "internet_access": "no",
        "name": "Kings Pub",
        "payment:cards": "no",
        "payment:credit_cards": "no",
        "payment:debit_cards": "no",
        "smoking": "isolated",
        "wheelchair": "no"
      }
    },
    {
      "type": "node",
      "id": 4747092266,
      "lat": -15.4259966,
      "lon": 28.2406392,
      "timestamp": "2017-03-21T14:34:12Z",
      "version": 1,
      "changeset": 47042073,
      "user": "AbrahamKumbana",
      "uid": 5281416,
      "tags": {
        "amenity": "bar",
        "name": "Keep Time"
      }
    },
    {
      "type": "node",
      "id": 4747150999,
      "lat": -15.4234471,
      "lon": 28.2455059,
      "timestamp": "2017-04-14T12:34:06Z",
      "version": 2,
      "changeset": 47778815,
      "user": "seline1",
      "uid": 5294181,
      "tags": {
        "amenity": "bar"
      }
    },
    {
      "type": "node",
      "id": 4747286665,
      "lat": -15.4215866,
      "lon": 28.2445557,
      "timestamp": "2023-05-30T05:53:01Z",
      "version": 4,
      "changeset": 136726022,
      "user": "charles chilufya",
      "uid": 10294659,
      "tags": {
        "addr:street": "First Road",
        "amenity": "bar",
        "brewery": "yes;various",
        "check_date": "2023-05-30",
        "internet_access": "no",
        "payment:cards": "no",
        "payment:credit_cards": "no",
        "payment:debit_cards": "no",
        "wheelchair": "no"
      }
    },
    {
      "type": "node",
      "id": 4747286667,
      "lat": -15.4214663,
      "lon": 28.2446057,
      "timestamp": "2023-04-24T11:18:41Z",
      "version": 4,
      "changeset": 135297314,
      "user": "charles chilufya",
      "uid": 10294659,
      "tags": {
        "addr:street": "First Road",
        "amenity": "bar",
        "brewery": "yes;various",
        "check_date": "2023-04-24",
        "internet_access": "no",
        "payment:mastercard": "yes",
        "payment:visa": "yes",
        "wheelchair": "yes"
      }
    },
    {
      "type": "node",
      "id": 4747286668,
      "lat": -15.4214422,
      "lon": 28.2445058,
      "timestamp": "2023-04-24T11:18:41Z",
      "version": 4,
      "changeset": 135297314,
      "user": "charles chilufya",
      "uid": 10294659,
      "tags": {
        "addr:street": "First Road",
        "amenity": "bar",
        "brewery": "yes;various",
        "check_date": "2023-04-24",
        "internet_access": "no",
        "name": "R.C Complex",
        "payment:mastercard": "yes",
        "payment:visa": "yes",
        "wheelchair": "no"
      }
    },
    {
      "type": "node",
      "id": 4749081061,
      "lat": -15.4319254,
      "lon": 28.235492,
      "timestamp": "2017-12-20T15:53:59Z",
      "version": 3,
      "changeset": 54790487,
      "user": "goedegazelle",
      "uid": 192467,
      "tags": {
        "amenity": "bar",
        "name": "Dalitso Shop",
        "shop": "alcohol"
      }
    },
    {
      "type": "node",
      "id": 4750931827,
      "lat": -15.4267089,
      "lon": 28.2401114,
      "timestamp": "2017-04-14T19:41:53Z",
      "version": 3,
      "changeset": 47793682,
      "user": "kumbanamargaret",
      "uid": 5281513,
      "tags": {
        "addr:street": "basila",
        "amenity": "bar",
        "name": "dophins cafe"
      }
    },
    {
      "type": "node",
      "id": 4751069982,
      "lat": -15.4249297,
      "lon": 28.2351349,
      "timestamp": "2023-04-24T11:27:45Z",
      "version": 5,
      "changeset": 135297660,
      "user": "charles chilufya",
      "uid": 10294659,
      "tags": {
        "addr:housenumber": "30/89",
        "addr:street": "Police road",
        "amenity": "bar",
        "brewery": "yes;various",
        "check_date": "2023-04-24",
        "internet_access": "no",
        "payment:cards": "no",
        "payment:credit_cards": "no",
        "payment:debit_cards": "no",
        "wheelchair": "no"
      }
    },
    {
      "type": "node",
      "id": 4752867105,
      "lat": -15.4250559,
      "lon": 28.229048,
      "timestamp": "2017-03-24T13:15:58Z",
      "version": 1,
      "changeset": 47124535,
      "user": "mambilima1996",
      "uid": 5299053,
      "tags": {
        "amenity": "pub",
        "delivery": "no",
        "internet_access": "no",
        "name": "Big Mama Pub",
        "outdoor_seating": "yes",
        "smoking": "yes",
        "takeaway": "yes",
        "wheelchair": "yes"
      }
    },
    {
      "type": "node",
      "id": 4752867679,
      "lat": -15.4247425,
      "lon": 28.2306778,
      "timestamp": "2017-03-24T13:16:15Z",
      "version": 1,
      "changeset": 47124535,
      "user": "mambilima1996",
      "uid": 5299053,
      "tags": {
        "amenity": "pub",
        "delivery": "no",
        "internet_access": "no",
        "name": "Sido Pub",
        "outdoor_seating": "yes",
        "smoking": "yes",
        "takeaway": "yes",
        "wheelchair": "yes"
      }
    },
    {
      "type": "node",
      "id": 4753065718,
      "lat": -15.4220837,
      "lon": 28.2354458,
      "timestamp": "2017-04-14T19:41:48Z",
      "version": 3,
      "changeset": 47793682,
      "user": "kumbanamargaret",
      "uid": 5281513,
      "tags": {
        "addr:street": "Garden House",
        "amenity": "pub",
        "name": "Luzi Tavern"
      }
    },
    {
      "type": "node",
      "id": 4753065719,
      "lat": -15.4219082,
      "lon": 28.2353184,
      "timestamp": "2023-04-24T11:27:45Z",
      "version": 4,
      "changeset": 135297660,
      "user": "charles chilufya",
      "uid": 10294659,
      "tags": {
        "addr:street": "Garden House",
        "amenity": "pub",
        "brewery": "various",
        "check_date": "2023-04-24",
        "internet_access": "no",
        "name": "Luzi Tavern",
        "payment:cards": "no",
        "payment:credit_cards": "no",
        "payment:debit_cards": "no",
        "wheelchair": "no"
      }
    },
    {
      "type": "node",
      "id": 4753095033,
      "lat": -15.4212735,
      "lon": 28.230108,
      "timestamp": "2023-05-18T06:33:38Z",
      "version": 2,
      "changeset": 136238426,
      "user": "charles chilufya",
      "uid": 10294659,
      "tags": {
        "amenity": "bar",
        "brewery": "yes;various",
        "check_date": "2023-05-18",
        "internet_access": "no",
        "name": "Seli Bar",
        "payment:cards": "no",
        "payment:credit_cards": "no",
        "payment:debit_cards": "no",
        "wheelchair": "limited"
      }
    },
    {
      "type": "node",
      "id": 4757433938,
      "lat": -15.4219856,
      "lon": 28.2154795,
      "timestamp": "2017-04-09T19:07:49Z",
      "version": 2,
      "changeset": 47601512,
      "user": "kumbanamargaret",
      "uid": 5281513,
      "tags": {
        "amenity": "bar",
        "name": "jealous people"
      }
    },
    {
      "type": "node",
      "id": 4757433956,
      "lat": -15.4214936,
      "lon": 28.2153712,
      "timestamp": "2017-12-20T15:48:15Z",
      "version": 2,
      "changeset": 54790282,
      "user": "goedegazelle",
      "uid": 192467,
      "tags": {
        "amenity": "bar",
        "shop": "alcohol"
      }
    },
    {
      "type": "node",
      "id": 4757905598,
      "lat": -15.4460781,
      "lon": 28.2361899,
      "timestamp": "2017-04-14T19:41:55Z",
      "version": 3,
      "changeset": 47793682,
      "user": "kumbanamargaret",
      "uid": 5281513,
      "tags": {
        "addr:street": "makeni simson",
        "amenity": "bar"
      }
    },
    {
      "type": "node",
      "id": 4757905600,
      "lat": -15.4458941,
      "lon": 28.2361314,
      "timestamp": "2017-03-27T12:45:45Z",
      "version": 1,
      "changeset": 47200642,
      "user": "shellyshamz",
      "uid": 5282073,
      "tags": {
        "amenity": "pub"
      }
    },
    {
      "type": "node",
      "id": 4758099281,
      "lat": -15.4207116,
      "lon": 28.2219044,
      "timestamp": "2017-03-27T14:58:25Z",
      "version": 1,
      "changeset": 47203809,
      "user": "elias banda",
      "uid": 5299074,
      "tags": {
        "amenity": "pub"
      }
    },
    {
      "type": "node",
      "id": 4758099282,
      "lat": -15.4204831,
      "lon": 28.2199073,
      "timestamp": "2017-04-14T19:41:47Z",
      "version": 3,
      "changeset": 47793682,
      "user": "kumbanamargaret",
      "uid": 5281513,
      "tags": {
        "addr:street": "GARDEN HOUSE",
        "amenity": "pub",
        "name": "GAMBINO"
      }
    },
    {
      "type": "node",
      "id": 4758135451,
      "lat": -15.4221969,
      "lon": 28.2269582,
      "timestamp": "2023-07-11T20:37:16Z",
      "version": 4,
      "changeset": 138395099,
      "user": "VLD302",
      "uid": 16226557,
      "tags": {
        "amenity": "pub",
        "brewery": "yes;various",
        "check_date": "2023-05-02",
        "internet_access": "no",
        "payment:cards": "no",
        "payment:credit_cards": "no",
        "payment:debit_cards": "no",
        "shop": "alcohol",
        "smoking": "isolated",
        "wheelchair": "yes"
      }
    },
    {
      "type": "node",
      "id": 4758135452,
      "lat": -15.4224126,
      "lon": 28.2269055,
      "timestamp": "2023-05-02T11:26:00Z",
      "version": 3,
      "changeset": 135611837,
      "user": "charles chilufya",
      "uid": 10294659,
      "tags": {
        "amenity": "bar",
        "brewery": "yes;various",
        "check_date": "2023-05-02",
        "internet_access": "no",
        "min_age": "18",
        "payment:cards": "no",
        "payment:credit_cards": "no",
        "payment:debit_cards": "no",
        "toilets:num_chambers": "2",
        "toilets:position": "outside",
        "wheelchair": "yes"
      }
    },
    {
      "type": "node",
      "id": 4758135485,
      "lat": -15.4209835,
      "lon": 28.2250251,
      "timestamp": "2023-05-02T11:26:00Z",
      "version": 4,
      "changeset": 135611837,
      "user": "charles chilufya",
      "uid": 10294659,
      "tags": {
        "amenity": "pub",
        "brewery": "various;yes",
        "check_date": "2023-05-02",
        "internet_access": "no",
        "name": "Don't Worry Pub",
        "payment:cards": "no",
        "payment:credit_cards": "no",
        "payment:debit_cards": "no",
        "shop": "alcohol",
        "smoking": "isolated",
        "wheelchair": "yes"
      }
    },
    {
      "type": "node",
      "id": 4758135486,
      "lat": -15.4209679,
      "lon": 28.2250088,
      "timestamp": "2023-05-02T11:22:32Z",
      "version": 4,
      "changeset": 135611683,
      "user": "charles chilufya",
      "uid": 10294659,
      "tags": {
        "amenity": "pub",
        "brewery": "various;yes",
        "check_date": "2023-05-02",
        "internet_access": "no",
        "name": "One Legal Pub",
        "payment:cards": "no",
        "payment:credit_cards": "no",
        "payment:debit_cards": "no",
        "shop": "alcohol",
        "smoking": "isolated",
        "wheelchair": "yes"
      }
    },
    {
      "type": "node",
      "id": 4758135488,
      "lat": -15.4209522,
      "lon": 28.2249926,
      "timestamp": "2017-12-20T15:48:16Z",
      "version": 3,
      "changeset": 54790282,
      "user": "goedegazelle",
      "uid": 192467,
      "tags": {
        "amenity": "pub",
        "name": "Derick Small Entertainment #JED",
        "shop": "alcohol"
      }
    },
    {
      "type": "node",
      "id": 4758140873,
      "lat": -15.4232322,
      "lon": 28.2246012,
      "timestamp": "2017-12-20T15:48:16Z",
      "version": 3,
      "changeset": 54790282,
      "user": "goedegazelle",
      "uid": 192467,
      "tags": {
        "amenity": "biergarten",
        "name": "Pa Mulenga",
        "shop": "alcohol"
      }
    },
    {
      "type": "node",
      "id": 4759584317,
      "lat": -15.4516442,
      "lon": 28.2285133,
      "timestamp": "2023-05-18T06:45:28Z",
      "version": 4,
      "changeset": 136238813,
      "user": "charles chilufya",
      "uid": 10294659,
      "tags": {
        "addr:street": "Makeni vella",
        "amenity": "bar",
        "brewery": "yes;various",
        "check_date": "2023-05-18",
        "internet_access": "no",
        "payment:cards": "no",
        "payment:credit_cards": "no",
        "payment:debit_cards": "no",
        "wheelchair": "limited"
      }
    },
    {
      "type": "node",
      "id": 4759584319,
      "lat": -15.4517224,
      "lon": 28.2285336,
      "timestamp": "2023-05-18T06:45:28Z",
      "version": 4,
      "changeset": 136238813,
      "user": "charles chilufya",
      "uid": 10294659,
      "tags": {
        "addr:street": "Makeni vella",
        "amenity": "bar",
        "brewery": "yes;various",
        "check_date": "2023-05-18",
        "internet_access": "no",
        "name": "Golden Park",
        "payment:cards": "no",
        "payment:credit_cards": "no",
        "payment:debit_cards": "no",
        "wheelchair": "yes"
      }
    },
    {
      "type": "node",
      "id": 4759610116,
      "lat": -15.4482646,
      "lon": 28.2392292,
      "timestamp": "2017-03-28T12:10:12Z",
      "version": 1,
      "changeset": 47227976,
      "user": "AbrahamKumbana",
      "uid": 5281416,
      "tags": {
        "amenity": "bar",
        "name": "Zambia -Zaire"
      }
    },
    {
      "type": "node",
      "id": 4759635462,
      "lat": -15.4477209,
      "lon": 28.2307009,
      "timestamp": "2017-03-28T12:22:35Z",
      "version": 1,
      "changeset": 47228299,
      "user": "johanespeter9",
      "uid": 2780502,
      "tags": {
        "amenity": "bar"
      }
    },
    {
      "type": "node",
      "id": 4759655400,
      "lat": -15.4500872,
      "lon": 28.233674,
      "timestamp": "2017-04-14T19:41:46Z",
      "version": 3,
      "changeset": 47793682,
      "user": "kumbanamargaret",
      "uid": 5281513,
      "tags": {
        "addr:street": "Saint Mornica",
        "amenity": "bar",
        "name": "CKs one time bar",
        "shop": "alcohol"
      }
    },
    {
      "type": "node",
      "id": 4759771527,
      "lat": -15.4507298,
      "lon": 28.2316904,
      "timestamp": "2017-03-28T13:34:12Z",
      "version": 1,
      "changeset": 47230188,
      "user": "johanespeter9",
      "uid": 2780502,
      "tags": {
        "amenity": "bar",
        "name": "villa park",
        "toilets:position": "inside"
      }
    },
    {
      "type": "node",
      "id": 4761582418,
      "lat": -15.4394155,
      "lon": 28.2229093,
      "timestamp": "2017-03-29T10:19:55Z",
      "version": 1,
      "changeset": 47255468,
      "user": "AbrahamKumbana",
      "uid": 5281416,
      "tags": {
        "amenity": "bar",
        "name": "Bar"
      }
    },
    {
      "type": "node",
      "id": 4761586971,
      "lat": -15.4406013,
      "lon": 28.2231818,
      "timestamp": "2017-03-29T10:19:57Z",
      "version": 1,
      "changeset": 47255468,
      "user": "AbrahamKumbana",
      "uid": 5281416,
      "tags": {
        "amenity": "bar",
        "name": "Musa`s Bar"
      }
    },
    {
      "type": "node",
      "id": 4762024016,
      "lat": -15.4494719,
      "lon": 28.223914,
      "timestamp": "2023-05-18T06:45:28Z",
      "version": 4,
      "changeset": 136238813,
      "user": "charles chilufya",
      "uid": 10294659,
      "tags": {
        "amenity": "pub",
        "brewery": "various",
        "check_date": "2023-05-18",
        "internet_access": "no",
        "name": "Cross Roads Pub",
        "payment:cards": "no",
        "payment:credit_cards": "no",
        "payment:debit_cards": "no",
        "shop": "alcohol",
        "smoking": "isolated",
        "wheelchair": "limited"
      }
    },
    {
      "type": "node",
      "id": 4763994963,
      "lat": -15.4401131,
      "lon": 28.2290136,
      "timestamp": "2017-03-30T11:52:51Z",
      "version": 1,
      "changeset": 47289808,
      "user": "elias banda",
      "uid": 5299074,
      "tags": {
        "amenity": "pub"
      }
    },
    {
      "type": "node",
      "id": 4764113139,
      "lat": -15.4386788,
      "lon": 28.2348202,
      "timestamp": "2017-04-17T11:03:37Z",
      "version": 5,
      "changeset": 47866579,
      "user": "johanespeter9",
      "uid": 2780502,
      "tags": {
        "amenity": "bar",
        "name": "Bm Pub"
      }
    },
    {
      "type": "node",
      "id": 4764199971,
      "lat": -15.4393325,
      "lon": 28.2302644,
      "timestamp": "2017-03-30T13:46:09Z",
      "version": 1,
      "changeset": 47292865,
      "user": "thaza",
      "uid": 5283118,
      "tags": {
        "amenity": "bar"
      }
    },
    {
      "type": "node",
      "id": 4764200003,
      "lat": -15.4394104,
      "lon": 28.2304143,
      "timestamp": "2017-12-20T15:53:58Z",
      "version": 2,
      "changeset": 54790487,
      "user": "goedegazelle",
      "uid": 192467,
      "tags": {
        "amenity": "bar",
        "name": "Nana's Dj Choice",
        "shop": "alcohol"
      }
    },
    {
      "type": "node",
      "id": 4764200005,
      "lat": -15.4395957,
      "lon": 28.2304454,
      "timestamp": "2017-12-20T15:53:58Z",
      "version": 2,
      "changeset": 54790487,
      "user": "goedegazelle",
      "uid": 192467,
      "tags": {
        "amenity": "bar",
        "name": "Vuvuzela Sport's Club Stephen In",
        "shop": "alcohol"
      }
    },
    {
      "type": "node",
      "id": 4764200007,
      "lat": -15.4395606,
      "lon": 28.2301723,
      "timestamp": "2017-04-14T19:41:52Z",
      "version": 3,
      "changeset": 47793682,
      "user": "kumbanamargaret",
      "uid": 5281513,
      "tags": {
        "amenity": "bar",
        "name": "Sport Pub"
      }
    },
    {
      "type": "node",
      "id": 4766228927,
      "lat": -15.4404006,
      "lon": 28.2362973,
      "timestamp": "2017-03-31T06:53:47Z",
      "version": 1,
      "changeset": 47314729,
      "user": "johanespeter9",
      "uid": 2780502,
      "tags": {
        "amenity": "bar"
      }
    },
    {
      "type": "node",
      "id": 4767214237,
      "lat": -15.4362258,
      "lon": 28.2228018,
      "timestamp": "2023-05-18T22:47:02Z",
      "version": 2,
      "changeset": 136275617,
      "user": "charles chilufya",
      "uid": 10294659,
      "tags": {
        "amenity": "pub",
        "brewery": "various",
        "check_date": "2023-05-19",
        "internet_access": "no",
        "name": "Faith Trading",
        "payment:cards": "no",
        "payment:credit_cards": "no",
        "payment:debit_cards": "no",
        "smoking": "isolated",
        "wheelchair": "limited"
      }
    },
    {
      "type": "node",
      "id": 4767313361,
      "lat": -15.440207,
      "lon": 28.2284902,
      "timestamp": "2017-04-14T19:41:55Z",
      "version": 3,
      "changeset": 47793682,
      "user": "kumbanamargaret",
      "uid": 5281513,
      "tags": {
        "addr:street": "Makeni villa",
        "amenity": "bar"
      }
    },
    {
      "type": "node",
      "id": 4767493007,
      "lat": -15.4365941,
      "lon": 28.2252449,
      "timestamp": "2023-05-18T22:47:02Z",
      "version": 6,
      "changeset": 136275617,
      "user": "charles chilufya",
      "uid": 10294659,
      "tags": {
        "addr:housenumber": "143/03",
        "addr:street": "Makeni Vila",
        "amenity": "bar",
        "brewery": "yes;various",
        "check_date": "2023-05-19",
        "internet_access": "no",
        "min_age": "18",
        "name": "Fathers club",
        "payment:cards": "no",
        "payment:credit_cards": "no",
        "payment:debit_cards": "no",
        "toilets:position": "outside",
        "wheelchair": "limited"
      }
    },
    {
      "type": "node",
      "id": 4771135713,
      "lat": -15.4350179,
      "lon": 28.224288,
      "timestamp": "2017-04-02T14:31:28Z",
      "version": 1,
      "changeset": 47383439,
      "user": "johanespeter9",
      "uid": 2780502,
      "tags": {
        "amenity": "bar"
      }
    },
    {
      "type": "node",
      "id": 4772964175,
      "lat": -15.4349621,
      "lon": 28.2328678,
      "timestamp": "2017-04-03T13:21:39Z",
      "version": 1,
      "changeset": 47411957,
      "user": "elias banda",
      "uid": 5299074,
      "tags": {
        "amenity": "pub"
      }
    },
    {
      "type": "node",
      "id": 4772964181,
      "lat": -15.4353221,
      "lon": 28.2327871,
      "timestamp": "2017-04-03T13:21:39Z",
      "version": 1,
      "changeset": 47411957,
      "user": "elias banda",
      "uid": 5299074,
      "tags": {
        "amenity": "pub",
        "name": "one lovemore pub",
        "smoking": "yes",
        "takeaway": "yes"
      }
    },
    {
      "type": "node",
      "id": 4772964188,
      "lat": -15.4349515,
      "lon": 28.2329658,
      "timestamp": "2017-04-03T13:21:40Z",
      "version": 1,
      "changeset": 47411957,
      "user": "elias banda",
      "uid": 5299074,
      "tags": {
        "amenity": "bar"
      }
    },
    {
      "type": "node",
      "id": 4772978611,
      "lat": -15.4367835,
      "lon": 28.2361475,
      "timestamp": "2017-04-14T19:41:47Z",
      "version": 3,
      "changeset": 47793682,
      "user": "kumbanamargaret",
      "uid": 5281513,
      "tags": {
        "addr:street": "magwaba Bombaz",
        "amenity": "bar",
        "name": "Exclusive Mr Breeze"
      }
    },
    {
      "type": "node",
      "id": 4772978699,
      "lat": -15.4367281,
      "lon": 28.2360057,
      "timestamp": "2017-04-14T19:41:49Z",
      "version": 3,
      "changeset": 47793682,
      "user": "kumbanamargaret",
      "uid": 5281513,
      "tags": {
        "addr:street": "magwaba Bombaz",
        "amenity": "bar",
        "name": "Man Stevo Papaula Club",
        "shop": "hairdresser"
      }
    },
    {
      "type": "node",
      "id": 4773051589,
      "lat": -15.4288862,
      "lon": 28.2349984,
      "timestamp": "2017-12-20T15:53:59Z",
      "version": 2,
      "changeset": 54790487,
      "user": "goedegazelle",
      "uid": 192467,
      "tags": {
        "amenity": "bar",
        "shop": "alcohol"
      }
    },
    {
      "type": "node",
      "id": 4773051590,
      "lat": -15.4288499,
      "lon": 28.2350172,
      "timestamp": "2017-04-14T19:41:50Z",
      "version": 4,
      "changeset": 47793682,
      "user": "kumbanamargaret",
      "uid": 5281513,
      "tags": {
        "addr:street": "Transmitter road",
        "amenity": "bar",
        "name": "Mwilas Mone Mart"
      }
    },
    {
      "type": "node",
      "id": 4773179841,
      "lat": -15.4311166,
      "lon": 28.2356023,
      "timestamp": "2017-12-20T15:53:59Z",
      "version": 2,
      "changeset": 54790487,
      "user": "goedegazelle",
      "uid": 192467,
      "tags": {
        "amenity": "bar",
        "name": "Gunner club",
        "shop": "alcohol"
      }
    },
    {
      "type": "node",
      "id": 4773208020,
      "lat": -15.4278755,
      "lon": 28.2391014,
      "timestamp": "2017-04-14T19:41:56Z",
      "version": 2,
      "changeset": 47793682,
      "user": "kumbanamargaret",
      "uid": 5281513,
      "tags": {
        "amenity": "bar"
      }
    },
    {
      "type": "node",
      "id": 4773212048,
      "lat": -15.427869,
      "lon": 28.2392768,
      "timestamp": "2017-04-14T19:41:56Z",
      "version": 2,
      "changeset": 47793682,
      "user": "kumbanamargaret",
      "uid": 5281513,
      "tags": {
        "amenity": "bar"
      }
    },
    {
      "type": "node",
      "id": 4773212060,
      "lat": -15.4287874,
      "lon": 28.2396992,
      "timestamp": "2017-04-03T16:09:38Z",
      "version": 1,
      "changeset": 47417119,
      "user": "mambilima1996",
      "uid": 5299053,
      "tags": {
        "amenity": "bar",
        "name": "M.Nyambe"
      }
    },
    {
      "type": "node",
      "id": 4773212065,
      "lat": -15.4295667,
      "lon": 28.2392801,
      "timestamp": "2017-04-03T16:09:38Z",
      "version": 1,
      "changeset": 47417119,
      "user": "mambilima1996",
      "uid": 5299053,
      "tags": {
        "amenity": "pub",
        "name": "Daily Pub",
        "outdoor_seating": "yes"
      }
    },
    {
      "type": "node",
      "id": 4774948488,
      "lat": -15.4331028,
      "lon": 28.2307049,
      "timestamp": "2017-04-04T14:57:58Z",
      "version": 1,
      "changeset": 47445281,
      "user": "mirriam mweetwa",
      "uid": 5283209,
      "tags": {
        "addr:street": "Makeni Villa",
        "amenity": "pub",
        "name": "One Chiwawa pub"
      }
    },
    {
      "type": "node",
      "id": 4774948489,
      "lat": -15.4331219,
      "lon": 28.2306368,
      "timestamp": "2017-04-04T14:57:59Z",
      "version": 1,
      "changeset": 47445281,
      "user": "mirriam mweetwa",
      "uid": 5283209,
      "tags": {
        "addr:street": "Makeni Villa",
        "amenity": "pub",
        "name": "Sturio pub"
      }
    },
    {
      "type": "node",
      "id": 4774948492,
      "lat": -15.4331118,
      "lon": 28.2306865,
      "timestamp": "2017-04-04T14:57:59Z",
      "version": 1,
      "changeset": 47445281,
      "user": "mirriam mweetwa",
      "uid": 5283209,
      "tags": {
        "addr:street": "Makeni Villa",
        "amenity": "pub",
        "name": "comesa pub"
      }
    },
    {
      "type": "node",
      "id": 4774957264,
      "lat": -15.4278473,
      "lon": 28.2347975,
      "timestamp": "2017-04-14T19:41:56Z",
      "version": 3,
      "changeset": 47793682,
      "user": "kumbanamargaret",
      "uid": 5281513,
      "tags": {
        "addr:street": "Transmitter road",
        "amenity": "bar"
      }
    },
    {
      "type": "node",
      "id": 4774957267,
      "lat": -15.4278799,
      "lon": 28.2347586,
      "timestamp": "2017-04-14T19:41:49Z",
      "version": 3,
      "changeset": 47793682,
      "user": "kumbanamargaret",
      "uid": 5281513,
      "tags": {
        "addr:street": "Transmitter road",
        "amenity": "bar",
        "name": "Mr berrington.m"
      }
    },
    {
      "type": "node",
      "id": 4774957268,
      "lat": -15.4279224,
      "lon": 28.2348687,
      "timestamp": "2017-12-20T15:53:59Z",
      "version": 2,
      "changeset": 54790487,
      "user": "goedegazelle",
      "uid": 192467,
      "tags": {
        "amenity": "bar",
        "name": "Sobbo",
        "shop": "alcohol"
      }
    },
    {
      "type": "node",
      "id": 4774957271,
      "lat": -15.4282705,
      "lon": 28.235101,
      "timestamp": "2017-12-20T15:53:59Z",
      "version": 2,
      "changeset": 54790487,
      "user": "goedegazelle",
      "uid": 192467,
      "tags": {
        "amenity": "bar",
        "shop": "alcohol"
      }
    },
    {
      "type": "node",
      "id": 4774957272,
      "lat": -15.4282895,
      "lon": 28.2350898,
      "timestamp": "2017-12-20T15:53:59Z",
      "version": 2,
      "changeset": 54790487,
      "user": "goedegazelle",
      "uid": 192467,
      "tags": {
        "amenity": "bar",
        "name": "Pressure zero",
        "shop": "alcohol"
      }
    },
    {
      "type": "node",
      "id": 4774957274,
      "lat": -15.4283628,
      "lon": 28.2350544,
      "timestamp": "2017-12-20T15:53:59Z",
      "version": 2,
      "changeset": 54790487,
      "user": "goedegazelle",
      "uid": 192467,
      "tags": {
        "amenity": "bar",
        "shop": "alcohol"
      }
    },
    {
      "type": "node",
      "id": 4774957275,
      "lat": -15.4284012,
      "lon": 28.2350325,
      "timestamp": "2017-12-20T15:53:59Z",
      "version": 2,
      "changeset": 54790487,
      "user": "goedegazelle",
      "uid": 192467,
      "tags": {
        "amenity": "bar",
        "name": "Blessed Bar",
        "shop": "alcohol"
      }
    },
    {
      "type": "node",
      "id": 4775003916,
      "lat": -15.4289728,
      "lon": 28.2348431,
      "timestamp": "2017-04-04T15:31:25Z",
      "version": 1,
      "changeset": 47446041,
      "user": "shellyshamz",
      "uid": 5282073,
      "tags": {
        "amenity": "bar"
      }
    },
    {
      "type": "node",
      "id": 4775004437,
      "lat": -15.4289107,
      "lon": 28.2348587,
      "timestamp": "2017-04-04T15:31:27Z",
      "version": 1,
      "changeset": 47446041,
      "user": "shellyshamz",
      "uid": 5282073,
      "tags": {
        "amenity": "bar"
      }
    },
    {
      "type": "node",
      "id": 4775010907,
      "lat": -15.4275686,
      "lon": 28.2270667,
      "timestamp": "2017-04-14T19:41:56Z",
      "version": 3,
      "changeset": 47793682,
      "user": "kumbanamargaret",
      "uid": 5281513,
      "tags": {
        "amenity": "bar"
      }
    },
    {
      "type": "node",
      "id": 4775011076,
      "lat": -15.4277879,
      "lon": 28.2305152,
      "timestamp": "2017-04-04T15:38:22Z",
      "version": 1,
      "changeset": 47446212,
      "user": "mambilima1996",
      "uid": 5299053,
      "tags": {
        "amenity": "pub",
        "name": "Chelsea Pub"
      }
    },
    {
      "type": "node",
      "id": 4775011080,
      "lat": -15.4281365,
      "lon": 28.2305288,
      "timestamp": "2017-04-04T15:38:22Z",
      "version": 1,
      "changeset": 47446212,
      "user": "mambilima1996",
      "uid": 5299053,
      "tags": {
        "amenity": "pub",
        "name": "Kabwe Warriors"
      }
    },
    {
      "type": "node",
      "id": 4775011095,
      "lat": -15.4286334,
      "lon": 28.2300422,
      "timestamp": "2017-04-14T19:41:56Z",
      "version": 3,
      "changeset": 47793682,
      "user": "kumbanamargaret",
      "uid": 5281513,
      "tags": {
        "addr:street": "Garden House",
        "amenity": "pub"
      }
    },
    {
      "type": "node",
      "id": 4777038350,
      "lat": -15.4315075,
      "lon": 28.2297757,
      "timestamp": "2017-04-05T15:18:29Z",
      "version": 1,
      "changeset": 47479703,
      "user": "shellyshamz",
      "uid": 5282073,
      "tags": {
        "amenity": "bar"
      }
    },
    {
      "type": "node",
      "id": 4778920183,
      "lat": -15.429376,
      "lon": 28.2197179,
      "timestamp": "2017-04-06T13:23:47Z",
      "version": 1,
      "changeset": 47507382,
      "user": "shellyshamz",
      "uid": 5282073,
      "tags": {
        "amenity": "bar"
      }
    },
    {
      "type": "node",
      "id": 4779120672,
      "lat": -15.429038,
      "lon": 28.2125441,
      "timestamp": "2017-04-06T15:01:21Z",
      "version": 1,
      "changeset": 47510229,
      "user": "AbrahamKumbana",
      "uid": 5281416,
      "tags": {
        "amenity": "bar"
      }
    },
    {
      "type": "node",
      "id": 4781374534,
      "lat": -15.4263473,
      "lon": 28.2156511,
      "timestamp": "2017-04-07T15:29:21Z",
      "version": 1,
      "changeset": 47543533,
      "user": "AbrahamKumbana",
      "uid": 5281416,
      "tags": {
        "amenity": "bar",
        "name": "Man B's Bottle Store"
      }
    },
    {
      "type": "node",
      "id": 4781403230,
      "lat": -15.4246562,
      "lon": 28.2152801,
      "timestamp": "2017-04-07T15:44:39Z",
      "version": 1,
      "changeset": 47543918,
      "user": "brianchanda",
      "uid": 5289191,
      "tags": {
        "amenity": "bar",
        "name": "PUb"
      }
    },
    {
      "type": "node",
      "id": 4786081551,
      "lat": -15.4517953,
      "lon": 28.2283419,
      "timestamp": "2023-05-18T06:45:28Z",
      "version": 2,
      "changeset": 136238813,
      "user": "charles chilufya",
      "uid": 10294659,
      "tags": {
        "amenity": "bar",
        "brewery": "yes;various",
        "check_date": "2023-05-18",
        "internet_access": "no",
        "payment:cards": "no",
        "payment:credit_cards": "no",
        "payment:debit_cards": "no",
        "wheelchair": "limited"
      }
    },
    {
      "type": "node",
      "id": 4786081575,
      "lat": -15.4515691,
      "lon": 28.2290665,
      "timestamp": "2017-04-10T11:49:16Z",
      "version": 1,
      "changeset": 47619885,
      "user": "mirriam mweetwa",
      "uid": 5283209,
      "tags": {
        "amenity": "bar",
        "name": "Aisa club"
      }
    },
    {
      "type": "node",
      "id": 4786111676,
      "lat": -15.44551,
      "lon": 28.2362931,
      "timestamp": "2017-04-10T12:09:38Z",
      "version": 1,
      "changeset": 47620435,
      "user": "seline1",
      "uid": 5294181,
      "tags": {
        "amenity": "pub"
      }
    },
    {
      "type": "node",
      "id": 4786111678,
      "lat": -15.4455545,
      "lon": 28.2362007,
      "timestamp": "2017-04-10T12:09:38Z",
      "version": 1,
      "changeset": 47620435,
      "user": "seline1",
      "uid": 5294181,
      "tags": {
        "amenity": "pub"
      }
    },
    {
      "type": "node",
      "id": 4786111683,
      "lat": -15.4454194,
      "lon": 28.2364397,
      "timestamp": "2017-04-10T12:09:38Z",
      "version": 1,
      "changeset": 47620435,
      "user": "seline1",
      "uid": 5294181,
      "tags": {
        "amenity": "pub"
      }
    },
    {
      "type": "node",
      "id": 4786446980,
      "lat": -15.429265,
      "lon": 28.22364,
      "timestamp": "2017-12-20T15:48:16Z",
      "version": 2,
      "changeset": 54790282,
      "user": "goedegazelle",
      "uid": 192467,
      "tags": {
        "amenity": "bar",
        "shop": "alcohol"
      }
    },
    {
      "type": "node",
      "id": 4786462346,
      "lat": -15.4462666,
      "lon": 28.2298136,
      "timestamp": "2017-04-10T15:03:03Z",
      "version": 1,
      "changeset": 47626627,
      "user": "AbrahamKumbana",
      "uid": 5281416,
      "tags": {
        "amenity": "bar",
        "name": "S.M Bar"
      }
    },
    {
      "type": "node",
      "id": 4786467938,
      "lat": -15.426536,
      "lon": 28.2260174,
      "timestamp": "2023-06-12T10:41:20Z",
      "version": 2,
      "changeset": 137238829,
      "user": "charles chilufya",
      "uid": 10294659,
      "tags": {
        "amenity": "bar",
        "brewery": "yes;various",
        "check_date": "2023-06-12",
        "internet_access": "no",
        "payment:cards": "no",
        "payment:credit_cards": "no",
        "payment:debit_cards": "no",
        "wheelchair": "no"
      }
    },
    {
      "type": "node",
      "id": 4786467939,
      "lat": -15.4263921,
      "lon": 28.2260187,
      "timestamp": "2023-06-12T10:41:20Z",
      "version": 2,
      "changeset": 137238829,
      "user": "charles chilufya",
      "uid": 10294659,
      "tags": {
        "amenity": "bar",
        "brewery": "yes;various",
        "check_date": "2023-06-12",
        "internet_access": "no",
        "name": "Officer's Mess",
        "payment:cards": "no",
        "payment:credit_cards": "no",
        "payment:debit_cards": "no",
        "wheelchair": "no"
      }
    },
    {
      "type": "node",
      "id": 4786467941,
      "lat": -15.4264021,
      "lon": 28.2257589,
      "timestamp": "2017-04-10T15:04:27Z",
      "version": 1,
      "changeset": 47626638,
      "user": "shellyshamz",
      "uid": 5282073,
      "tags": {
        "amenity": "bar"
      }
    },
    {
      "type": "node",
      "id": 4786467942,
      "lat": -15.4264657,
      "lon": 28.2257442,
      "timestamp": "2017-04-10T15:04:27Z",
      "version": 1,
      "changeset": 47626638,
      "user": "shellyshamz",
      "uid": 5282073,
      "tags": {
        "amenity": "bar"
      }
    },
    {
      "type": "node",
      "id": 4788148294,
      "lat": -15.436973,
      "lon": 28.2544713,
      "timestamp": "2023-06-02T06:09:01Z",
      "version": 4,
      "changeset": 136853599,
      "user": "charles chilufya",
      "uid": 10294659,
      "tags": {
        "addr:housenumber": "80/59",
        "addr:street": "Kanyama",
        "amenity": "bar",
        "brewery": "various;yes",
        "check_date": "2023-06-02",
        "internet_access": "no",
        "name": "Second swala",
        "payment:cards": "no",
        "payment:credit_cards": "no",
        "payment:debit_cards": "no",
        "wheelchair": "no"
      }
    },
    {
      "type": "node",
      "id": 4788358035,
      "lat": -15.4396114,
      "lon": 28.254087,
      "timestamp": "2017-04-11T13:41:21Z",
      "version": 1,
      "changeset": 47657720,
      "user": "mirriam mweetwa",
      "uid": 5283209,
      "tags": {
        "amenity": "bar",
        "name": "California 1 Entertainment"
      }
    },
    {
      "type": "node",
      "id": 4788380472,
      "lat": -15.4399886,
      "lon": 28.2531333,
      "timestamp": "2017-04-11T13:54:49Z",
      "version": 1,
      "changeset": 47657826,
      "user": "AbrahamKumbana",
      "uid": 5281416,
      "tags": {
        "amenity": "pub",
        "name": "Blessings Pub"
      }
    },
    {
      "type": "node",
      "id": 4788380491,
      "lat": -15.4397252,
      "lon": 28.2526241,
      "timestamp": "2017-04-11T13:54:50Z",
      "version": 1,
      "changeset": 47657826,
      "user": "AbrahamKumbana",
      "uid": 5281416,
      "tags": {
        "amenity": "bar",
        "name": "Adams Bar"
      }
    },
    {
      "type": "node",
      "id": 4788420380,
      "lat": -15.4349247,
      "lon": 28.2576565,
      "timestamp": "2023-06-23T15:37:27Z",
      "version": 2,
      "changeset": 137694104,
      "user": "charles chilufya",
      "uid": 10294659,
      "tags": {
        "addr:housenumber": "78/20",
        "addr:street": "bus stop",
        "amenity": "bar",
        "brewery": "yes;various",
        "check_date": "2023-06-23",
        "payment:cards": "no",
        "payment:credit_cards": "no",
        "payment:debit_cards": "no",
        "wheelchair": "no"
      }
    },
    {
      "type": "node",
      "id": 4788421239,
      "lat": -15.4348699,
      "lon": 28.2573709,
      "timestamp": "2023-05-10T21:56:58Z",
      "version": 3,
      "changeset": 135953520,
      "user": "charles chilufya",
      "uid": 10294659,
      "tags": {
        "amenity": "bar",
        "brewery": "yes;various",
        "check_date": "2023-05-10",
        "internet_access": "no",
        "name": "Ziba Zako Bar",
        "payment:cards": "no",
        "payment:credit_cards": "no",
        "payment:debit_cards": "no",
        "wheelchair": "limited"
      }
    },
    {
      "type": "node",
      "id": 4788421250,
      "lat": -15.4352307,
      "lon": 28.2579783,
      "timestamp": "2017-04-11T14:20:19Z",
      "version": 1,
      "changeset": 47658930,
      "user": "shellyshamz",
      "uid": 5282073,
      "tags": {
        "amenity": "bar"
      }
    },
    {
      "type": "node",
      "id": 4788421256,
      "lat": -15.4353096,
      "lon": 28.2578739,
      "timestamp": "2023-06-23T15:37:27Z",
      "version": 2,
      "changeset": 137694104,
      "user": "charles chilufya",
      "uid": 10294659,
      "tags": {
        "addr:housenumber": "78/24",
        "addr:street": "Los Angeles Road",
        "amenity": "bar",
        "brewery": "yes;various",
        "check_date": "2023-06-23",
        "internet_access": "no",
        "name": "Sokoloku Bar",
        "payment:cards": "no",
        "payment:credit_cards": "no",
        "payment:debit_cards": "no",
        "wheelchair": "no"
      }
    },
    {
      "type": "node",
      "id": 4788421286,
      "lat": -15.4372346,
      "lon": 28.2570138,
      "timestamp": "2023-06-02T06:09:01Z",
      "version": 2,
      "changeset": 136853599,
      "user": "charles chilufya",
      "uid": 10294659,
      "tags": {
        "amenity": "bar",
        "brewery": "various",
        "check_date": "2023-06-02",
        "internet_access": "no",
        "name": "Ziba Zako",
        "payment:cards": "no",
        "payment:credit_cards": "no",
        "payment:debit_cards": "no",
        "wheelchair": "no"
      }
    },
    {
      "type": "node",
      "id": 4788520681,
      "lat": -15.4366446,
      "lon": 28.2555873,
      "timestamp": "2017-04-11T15:26:10Z",
      "version": 1,
      "changeset": 47660945,
      "user": "mambilima1996",
      "uid": 5299053,
      "tags": {
        "amenity": "pub",
        "name": "One Banda Pub"
      }
    },
    {
      "type": "node",
      "id": 4789964525,
      "lat": -15.4333553,
      "lon": 28.2558835,
      "timestamp": "2023-05-10T21:49:35Z",
      "version": 3,
      "changeset": 135953386,
      "user": "charles chilufya",
      "uid": 10294659,
      "tags": {
        "amenity": "bar",
        "brewery": "yes;various",
        "check_date": "2023-05-10",
        "internet_access": "no",
        "name": "Joe 2000 Tevern",
        "payment:cards": "no",
        "payment:credit_cards": "no",
        "payment:debit_cards": "no",
        "shop": "alcohol",
        "wheelchair": "limited"
      }
    },
    {
      "type": "node",
      "id": 4789964526,
      "lat": -15.4332799,
      "lon": 28.2559617,
      "timestamp": "2017-12-21T20:47:41Z",
      "version": 2,
      "changeset": 54825707,
      "user": "goedegazelle",
      "uid": 192467,
      "tags": {
        "amenity": "bar",
        "name": "Kachepa Madala's",
        "shop": "alcohol"
      }
    },
    {
      "type": "node",
      "id": 4789964527,
      "lat": -15.4332498,
      "lon": 28.255993,
      "timestamp": "2017-12-21T20:47:41Z",
      "version": 2,
      "changeset": 54825707,
      "user": "goedegazelle",
      "uid": 192467,
      "tags": {
        "amenity": "bar",
        "shop": "alcohol"
      }
    },
    {
      "type": "node",
      "id": 4789964528,
      "lat": -15.4332183,
      "lon": 28.2560292,
      "timestamp": "2017-12-21T20:47:41Z",
      "version": 2,
      "changeset": 54825707,
      "user": "goedegazelle",
      "uid": 192467,
      "tags": {
        "amenity": "bar",
        "name": "Ichalo Lifupa",
        "shop": "alcohol"
      }
    },
    {
      "type": "node",
      "id": 4789964532,
      "lat": -15.4329747,
      "lon": 28.2559322,
      "timestamp": "2017-12-21T20:43:40Z",
      "version": 2,
      "changeset": 54825607,
      "user": "goedegazelle",
      "uid": 192467,
      "tags": {
        "amenity": "pub",
        "name": "Kafasi Pub",
        "shop": "alcohol"
      }
    },
    {
      "type": "node",
      "id": 4789964599,
      "lat": -15.4354801,
      "lon": 28.2541166,
      "timestamp": "2017-12-21T20:47:41Z",
      "version": 2,
      "changeset": 54825707,
      "user": "goedegazelle",
      "uid": 192467,
      "tags": {
        "amenity": "bar",
        "shop": "alcohol"
      }
    },
    {
      "type": "node",
      "id": 4789968879,
      "lat": -15.4346443,
      "lon": 28.2556678,
      "timestamp": "2023-05-10T21:49:35Z",
      "version": 2,
      "changeset": 135953386,
      "user": "charles chilufya",
      "uid": 10294659,
      "tags": {
        "amenity": "bar",
        "brewery": "yes;various",
        "check_date": "2023-05-10",
        "payment:cards": "no",
        "payment:credit_cards": "no",
        "payment:debit_cards": "no",
        "wheelchair": "yes"
      }
    },
    {
      "type": "node",
      "id": 4789969573,
      "lat": -15.4337891,
      "lon": 28.2563442,
      "timestamp": "2017-04-12T13:05:55Z",
      "version": 1,
      "changeset": 47693702,
      "user": "AbrahamKumbana",
      "uid": 5281416,
      "tags": {
        "amenity": "bar",
        "name": "Los Angeles Bar"
      }
    },
    {
      "type": "node",
      "id": 4789969620,
      "lat": -15.433599,
      "lon": 28.2562023,
      "timestamp": "2017-04-12T13:05:58Z",
      "version": 1,
      "changeset": 47693702,
      "user": "AbrahamKumbana",
      "uid": 5281416,
      "tags": {
        "amenity": "bar",
        "name": "Tionge Bar"
      }
    },
    {
      "type": "node",
      "id": 4789974210,
      "lat": -15.4365035,
      "lon": 28.251276,
      "timestamp": "2017-04-12T13:13:37Z",
      "version": 1,
      "changeset": 47693890,
      "user": "shellyshamz",
      "uid": 5282073,
      "tags": {
        "amenity": "bar",
        "name": "The Papa's Pub"
      }
    },
    {
      "type": "node",
      "id": 4789974214,
      "lat": -15.4362697,
      "lon": 28.2514884,
      "timestamp": "2018-01-06T04:04:43Z",
      "version": 2,
      "changeset": 55202836,
      "user": "Libor Bednarik",
      "uid": 4355439,
      "tags": {
        "amenity": "bar",
        "name": "Tilinkezi"
      }
    },
    {
      "type": "node",
      "id": 4789974217,
      "lat": -15.4361812,
      "lon": 28.2519915,
      "timestamp": "2017-04-12T13:13:38Z",
      "version": 1,
      "changeset": 47693890,
      "user": "shellyshamz",
      "uid": 5282073,
      "tags": {
        "amenity": "bar"
      }
    },
    {
      "type": "node",
      "id": 4789974218,
      "lat": -15.4361121,
      "lon": 28.2519226,
      "timestamp": "2017-04-12T13:13:38Z",
      "version": 1,
      "changeset": 47693890,
      "user": "shellyshamz",
      "uid": 5282073,
      "tags": {
        "amenity": "bar"
      }
    },
    {
      "type": "node",
      "id": 4790039420,
      "lat": -15.4316839,
      "lon": 28.2501279,
      "timestamp": "2017-04-12T13:47:40Z",
      "version": 1,
      "changeset": 47694885,
      "user": "brianchanda",
      "uid": 5289191,
      "tags": {
        "amenity": "bar",
        "name": "Mutanda Bantu Bar"
      }
    },
    {
      "type": "node",
      "id": 4790040621,
      "lat": -15.4316946,
      "lon": 28.2499913,
      "timestamp": "2017-04-12T13:47:40Z",
      "version": 1,
      "changeset": 47694885,
      "user": "brianchanda",
      "uid": 5289191,
      "tags": {
        "amenity": "bar",
        "name": "Mama Africa Bar"
      }
    },
    {
      "type": "node",
      "id": 4790040626,
      "lat": -15.4316962,
      "lon": 28.2518477,
      "timestamp": "2017-04-12T13:47:41Z",
      "version": 1,
      "changeset": 47694885,
      "user": "brianchanda",
      "uid": 5289191,
      "tags": {
        "amenity": "bar",
        "name": "True Colours Bar"
      }
    },
    {
      "type": "node",
      "id": 4790040629,
      "lat": -15.4315178,
      "lon": 28.250721,
      "timestamp": "2023-05-17T21:56:22Z",
      "version": 2,
      "changeset": 136230615,
      "user": "charles chilufya",
      "uid": 10294659,
      "tags": {
        "addr:housenumber": "53/17",
        "addr:street": "mutanda bantu",
        "amenity": "bar",
        "brewery": "yes",
        "check_date": "2023-05-17",
        "internet_access": "no",
        "name": "Crub DY",
        "payment:cards": "no",
        "payment:credit_cards": "no",
        "payment:debit_cards": "no",
        "wheelchair": "no"
      }
    },
    {
      "type": "node",
      "id": 4790040662,
      "lat": -15.432592,
      "lon": 28.2478727,
      "timestamp": "2017-04-12T13:47:43Z",
      "version": 1,
      "changeset": 47694885,
      "user": "brianchanda",
      "uid": 5289191,
      "tags": {
        "amenity": "bar",
        "name": "Kanono Tarven 2"
      }
    },
    {
      "type": "node",
      "id": 4790059672,
      "lat": -15.4352985,
      "lon": 28.2537023,
      "timestamp": "2017-04-14T19:41:57Z",
      "version": 3,
      "changeset": 47793682,
      "user": "kumbanamargaret",
      "uid": 5281513,
      "tags": {
        "addr:street": "masuako road",
        "amenity": "bar"
      }
    },
    {
      "type": "node",
      "id": 4790059696,
      "lat": -15.4351297,
      "lon": 28.2538385,
      "timestamp": "2017-04-14T19:41:57Z",
      "version": 3,
      "changeset": 47793682,
      "user": "kumbanamargaret",
      "uid": 5281513,
      "tags": {
        "addr:street": "masuako road",
        "amenity": "bar"
      }
    },
    {
      "type": "node",
      "id": 4790146878,
      "lat": -15.4360482,
      "lon": 28.2497039,
      "timestamp": "2017-04-12T15:16:15Z",
      "version": 1,
      "changeset": 47697874,
      "user": "mirriam mweetwa",
      "uid": 5283209,
      "tags": {
        "amenity": "bar",
        "name": "Big Sadam"
      }
    },
    {
      "type": "node",
      "id": 4790146893,
      "lat": -15.4366593,
      "lon": 28.2487306,
      "timestamp": "2017-04-12T15:16:16Z",
      "version": 1,
      "changeset": 47697874,
      "user": "mirriam mweetwa",
      "uid": 5283209,
      "tags": {
        "amenity": "bar",
        "name": "Funtaz Club"
      }
    },
    {
      "type": "node",
      "id": 4790146895,
      "lat": -15.4368512,
      "lon": 28.2487383,
      "timestamp": "2017-04-12T15:16:16Z",
      "version": 1,
      "changeset": 47697874,
      "user": "mirriam mweetwa",
      "uid": 5283209,
      "tags": {
        "amenity": "bar",
        "name": "De bar"
      }
    },
    {
      "type": "node",
      "id": 4790146897,
      "lat": -15.4369206,
      "lon": 28.2488366,
      "timestamp": "2017-04-12T15:16:16Z",
      "version": 1,
      "changeset": 47697874,
      "user": "mirriam mweetwa",
      "uid": 5283209,
      "tags": {
        "amenity": "bar",
        "name": "Mama G"
      }
    },
    {
      "type": "node",
      "id": 4790146916,
      "lat": -15.437139,
      "lon": 28.2503692,
      "timestamp": "2017-04-12T15:16:17Z",
      "version": 1,
      "changeset": 47697874,
      "user": "mirriam mweetwa",
      "uid": 5283209,
      "tags": {
        "amenity": "bar",
        "name": "Rennox Beer Palolir"
      }
    },
    {
      "type": "node",
      "id": 4790146918,
      "lat": -15.4372707,
      "lon": 28.2502609,
      "timestamp": "2017-04-12T15:16:17Z",
      "version": 1,
      "changeset": 47697874,
      "user": "mirriam mweetwa",
      "uid": 5283209,
      "tags": {
        "amenity": "pub",
        "name": "Channel 5 Pleasure Spot Pub"
      }
    },
    {
      "type": "node",
      "id": 4790156900,
      "lat": -15.4311202,
      "lon": 28.254499,
      "timestamp": "2017-04-12T15:22:28Z",
      "version": 1,
      "changeset": 47698107,
      "user": "mambilima1996",
      "uid": 5299053,
      "tags": {
        "amenity": "bar"
      }
    },
    {
      "type": "node",
      "id": 4790156987,
      "lat": -15.4321765,
      "lon": 28.2552836,
      "timestamp": "2017-04-12T15:22:30Z",
      "version": 1,
      "changeset": 47698107,
      "user": "mambilima1996",
      "uid": 5299053,
      "tags": {
        "amenity": "bar",
        "name": "queen kadashan"
      }
    },
    {
      "type": "node",
      "id": 4790157141,
      "lat": -15.430865,
      "lon": 28.2541811,
      "timestamp": "2017-04-12T15:22:36Z",
      "version": 1,
      "changeset": 47698107,
      "user": "mambilima1996",
      "uid": 5299053,
      "tags": {
        "amenity": "bar",
        "name": "Mwanjan Pool Club"
      }
    },
    {
      "type": "node",
      "id": 4790157142,
      "lat": -15.431126,
      "lon": 28.2545052,
      "timestamp": "2017-12-21T20:43:40Z",
      "version": 2,
      "changeset": 54825607,
      "user": "goedegazelle",
      "uid": 192467,
      "tags": {
        "amenity": "bar",
        "name": "Respect Pub",
        "shop": "alcohol"
      }
    },
    {
      "type": "node",
      "id": 4790157160,
      "lat": -15.4324594,
      "lon": 28.2548215,
      "timestamp": "2017-04-12T15:22:38Z",
      "version": 1,
      "changeset": 47698107,
      "user": "mambilima1996",
      "uid": 5299053,
      "tags": {
        "amenity": "bar",
        "name": "Mark X DMX Bar"
      }
    },
    {
      "type": "node",
      "id": 4790157179,
      "lat": -15.4322473,
      "lon": 28.2540626,
      "timestamp": "2017-04-12T15:22:41Z",
      "version": 1,
      "changeset": 47698107,
      "user": "mambilima1996",
      "uid": 5299053,
      "tags": {
        "amenity": "bar",
        "name": "Kumbocho"
      }
    },
    {
      "type": "node",
      "id": 4790157195,
      "lat": -15.4320567,
      "lon": 28.2543637,
      "timestamp": "2023-05-17T21:53:28Z",
      "version": 3,
      "changeset": 136230518,
      "user": "charles chilufya",
      "uid": 10294659,
      "tags": {
        "addr:housenumber": "55/66",
        "addr:street": "Kanyama Bus Stop",
        "amenity": "bar",
        "brewery": "yes;various",
        "check_date": "2023-05-17",
        "internet_access": "no",
        "payment:cards": "no",
        "payment:credit_cards": "no",
        "payment:debit_cards": "no",
        "wheelchair": "no"
      }
    },
    {
      "type": "node",
      "id": 4791838453,
      "lat": -15.4232696,
      "lon": 28.253593,
      "timestamp": "2023-05-23T11:06:20Z",
      "version": 4,
      "changeset": 136451403,
      "user": "charles chilufya",
      "uid": 10294659,
      "tags": {
        "addr:housenumber": "22/74",
        "addr:street": "Chinika",
        "amenity": "bar",
        "brewery": "various;yes",
        "check_date": "2023-05-23",
        "internet_access": "no",
        "name": "Club Manchester UTD",
        "payment:cards": "no",
        "payment:credit_cards": "no",
        "payment:debit_cards": "no",
        "shop": "alcohol",
        "wheelchair": "limited"
      }
    },
    {
      "type": "node",
      "id": 4791838454,
      "lat": -15.4232833,
      "lon": 28.2536145,
      "timestamp": "2023-05-23T11:06:20Z",
      "version": 4,
      "changeset": 136451403,
      "user": "charles chilufya",
      "uid": 10294659,
      "tags": {
        "addr:housenumber": "22/74",
        "addr:street": "Chinika",
        "amenity": "bar",
        "brewery": "yes;various",
        "check_date": "2023-05-23",
        "internet_access": "no",
        "wheelchair": "limited"
      }
    },
    {
      "type": "node",
      "id": 4791838455,
      "lat": -15.4232537,
      "lon": 28.2535639,
      "timestamp": "2023-05-23T11:06:20Z",
      "version": 4,
      "changeset": 136451403,
      "user": "charles chilufya",
      "uid": 10294659,
      "tags": {
        "addr:street": "Chinika",
        "amenity": "bar",
        "brewery": "yes;various",
        "check_date": "2023-05-23",
        "internet_access": "no",
        "name": "Mwanza Lay By Pub",
        "payment:cards": "no",
        "payment:credit_cards": "no",
        "payment:debit_cards": "no",
        "wheelchair": "limited"
      }
    },
    {
      "type": "node",
      "id": 4791858391,
      "lat": -15.4286395,
      "lon": 28.2484109,
      "timestamp": "2017-04-13T15:45:07Z",
      "version": 1,
      "changeset": 47746982,
      "user": "damianomwakapila",
      "uid": 5281535,
      "tags": {
        "amenity": "bar",
        "name": "Club Joze Bottle Store"
      }
    },
    {
      "type": "node",
      "id": 4791868855,
      "lat": -15.4283605,
      "lon": 28.2492395,
      "timestamp": "2017-04-13T16:01:29Z",
      "version": 1,
      "changeset": 47747393,
      "user": "kumbanamargaret",
      "uid": 5281513,
      "tags": {
        "amenity": "bar",
        "name": "Gift"
      }
    },
    {
      "type": "node",
      "id": 4791882112,
      "lat": -15.4295869,
      "lon": 28.2513754,
      "timestamp": "2023-05-02T05:51:05Z",
      "version": 2,
      "changeset": 135599961,
      "user": "charles chilufya",
      "uid": 10294659,
      "tags": {
        "amenity": "bar",
        "brewery": "yes;various",
        "check_date": "2023-05-02",
        "internet_access": "no",
        "name": "Mozegetor Bar Bakalalila",
        "payment:cards": "no",
        "payment:credit_cards": "no",
        "payment:debit_cards": "no",
        "wheelchair": "no"
      }
    },
    {
      "type": "node",
      "id": 4791882115,
      "lat": -15.4298266,
      "lon": 28.2512194,
      "timestamp": "2017-04-13T15:56:37Z",
      "version": 1,
      "changeset": 47747311,
      "user": "shellyshamz",
      "uid": 5282073,
      "tags": {
        "amenity": "bar",
        "name": "Musonda Tarven"
      }
    },
    {
      "type": "node",
      "id": 4791882116,
      "lat": -15.4297412,
      "lon": 28.2513058,
      "timestamp": "2017-04-13T15:56:37Z",
      "version": 1,
      "changeset": 47747311,
      "user": "shellyshamz",
      "uid": 5282073,
      "tags": {
        "amenity": "bar",
        "name": "Musonda Tarven"
      }
    },
    {
      "type": "node",
      "id": 4791882136,
      "lat": -15.4286781,
      "lon": 28.2491146,
      "timestamp": "2017-04-13T15:56:39Z",
      "version": 1,
      "changeset": 47747311,
      "user": "shellyshamz",
      "uid": 5282073,
      "tags": {
        "amenity": "bar"
      }
    },
    {
      "type": "node",
      "id": 4793222010,
      "lat": -15.4366349,
      "lon": 28.2474252,
      "timestamp": "2017-12-21T20:38:46Z",
      "version": 2,
      "changeset": 54825489,
      "user": "goedegazelle",
      "uid": 192467,
      "tags": {
        "amenity": "bar",
        "name": "Jubilee Lay",
        "shop": "alcohol"
      }
    },
    {
      "type": "node",
      "id": 4793234116,
      "lat": -15.4279739,
      "lon": 28.2456597,
      "timestamp": "2017-04-14T11:22:34Z",
      "version": 1,
      "changeset": 47776894,
      "user": "AbrahamKumbana",
      "uid": 5281416,
      "tags": {
        "amenity": "bar"
      }
    },
    {
      "type": "node",
      "id": 4793234117,
      "lat": -15.4279455,
      "lon": 28.2456624,
      "timestamp": "2017-04-14T11:22:34Z",
      "version": 1,
      "changeset": 47776894,
      "user": "AbrahamKumbana",
      "uid": 5281416,
      "tags": {
        "amenity": "bar"
      }
    },
    {
      "type": "node",
      "id": 4793235101,
      "lat": -15.4270413,
      "lon": 28.2457536,
      "timestamp": "2017-04-14T11:22:40Z",
      "version": 1,
      "changeset": 47776894,
      "user": "AbrahamKumbana",
      "uid": 5281416,
      "tags": {
        "amenity": "bar"
      }
    },
    {
      "type": "node",
      "id": 4793235107,
      "lat": -15.4268598,
      "lon": 28.2457548,
      "timestamp": "2017-04-14T11:22:40Z",
      "version": 1,
      "changeset": 47776894,
      "user": "AbrahamKumbana",
      "uid": 5281416,
      "tags": {
        "amenity": "bar"
      }
    },
    {
      "type": "node",
      "id": 4793235115,
      "lat": -15.4267754,
      "lon": 28.2456209,
      "timestamp": "2017-04-14T11:22:41Z",
      "version": 1,
      "changeset": 47776894,
      "user": "AbrahamKumbana",
      "uid": 5281416,
      "tags": {
        "amenity": "bar"
      }
    },
    {
      "type": "node",
      "id": 4793326481,
      "lat": -15.4227713,
      "lon": 28.2468556,
      "timestamp": "2017-04-14T12:34:01Z",
      "version": 1,
      "changeset": 47778815,
      "user": "seline1",
      "uid": 5294181,
      "tags": {
        "amenity": "bar",
        "name": "Blue House Bar"
      }
    },
    {
      "type": "node",
      "id": 4793334824,
      "lat": -15.4234458,
      "lon": 28.2455056,
      "timestamp": "2017-04-18T20:22:07Z",
      "version": 2,
      "changeset": 47918000,
      "user": "johanespeter9",
      "uid": 2780502,
      "tags": {
        "amenity": "bar",
        "name": "bar"
      }
    },
    {
      "type": "node",
      "id": 4793464827,
      "lat": -15.4235455,
      "lon": 28.2516503,
      "timestamp": "2017-04-14T14:08:52Z",
      "version": 1,
      "changeset": 47781428,
      "user": "shellyshamz",
      "uid": 5282073,
      "tags": {
        "amenity": "bar",
        "name": "Luena"
      }
    },
    {
      "type": "node",
      "id": 4793558005,
      "lat": -15.4346386,
      "lon": 28.2391273,
      "timestamp": "2017-04-14T15:04:31Z",
      "version": 1,
      "changeset": 47781910,
      "user": "mirriam mweetwa",
      "uid": 5283209,
      "tags": {
        "amenity": "bar",
        "name": "The Blues Club"
      }
    },
    {
      "type": "node",
      "id": 4793558964,
      "lat": -15.4340527,
      "lon": 28.2397543,
      "timestamp": "2017-04-14T15:04:34Z",
      "version": 1,
      "changeset": 47781910,
      "user": "mirriam mweetwa",
      "uid": 5283209,
      "tags": {
        "amenity": "bar",
        "name": "Masangano Junction Bar"
      }
    },
    {
      "type": "node",
      "id": 4801214348,
      "lat": -15.434451,
      "lon": 28.2430385,
      "timestamp": "2017-04-18T11:20:54Z",
      "version": 1,
      "changeset": 47902557,
      "user": "kumbanamargaret",
      "uid": 5281513,
      "tags": {
        "amenity": "bar",
        "name": "Uncle D Sonwemo"
      }
    },
    {
      "type": "node",
      "id": 4801594417,
      "lat": -15.4248028,
      "lon": 28.2223977,
      "timestamp": "2017-04-18T14:02:59Z",
      "version": 1,
      "changeset": 47907365,
      "user": "AbrahamKumbana",
      "uid": 5281416,
      "tags": {
        "amenity": "bar",
        "name": "R Rennox Bar"
      }
    },
    {
      "type": "node",
      "id": 4809786532,
      "lat": -14.3962427,
      "lon": 28.5344237,
      "timestamp": "2017-04-22T14:16:39Z",
      "version": 1,
      "changeset": 48034531,
      "user": "Abraham Mande Bweupe",
      "uid": 5714039,
      "tags": {
        "addr:postcode": "10101",
        "addr:street": "Mukonchi Road",
        "amenity": "pub",
        "name": "Chabuka Farm",
        "name:en": "Chabuka Farm"
      }
    },
    {
      "type": "node",
      "id": 4944760781,
      "lat": -19.9288328,
      "lon": 23.5123605,
      "timestamp": "2020-04-30T10:19:56Z",
      "version": 3,
      "changeset": 84403804,
      "user": "EduardoGB",
      "uid": 7539749,
      "tags": {
        "amenity": "bar",
        "name": "Okavango River Lodge",
        "outdoor_seating": "yes"
      }
    },
    {
      "type": "node",
      "id": 4951209127,
      "lat": -18.3505722,
      "lon": 29.9054415,
      "timestamp": "2017-07-04T16:01:40Z",
      "version": 1,
      "changeset": 50037886,
      "user": "DomOBOW",
      "uid": 3756359,
      "tags": {
        "amenity": "bar"
      }
    },
    {
      "type": "node",
      "id": 4954574686,
      "lat": -19.7775343,
      "lon": 29.3651466,
      "timestamp": "2017-07-22T13:54:05Z",
      "version": 2,
      "changeset": 50481936,
      "user": "TUGUME DAN",
      "uid": 3381374,
      "tags": {
        "amenity": "bar",
        "name": "Shangani Cocktail Bar"
      }
    },
    {
      "type": "node",
      "id": 4957217477,
      "lat": -11.6730358,
      "lon": 27.4810787,
      "timestamp": "2017-07-07T17:45:46Z",
      "version": 1,
      "changeset": 50114646,
      "user": "edvac",
      "uid": 121415,
      "tags": {
        "amenity": "bar",
        "description": "terrasse",
        "name": "King Center",
        "outdoor_seating": "yes",
        "smoking": "yes"
      }
    },
    {
      "type": "node",
      "id": 4957233475,
      "lat": -11.6727882,
      "lon": 27.4814378,
      "timestamp": "2017-07-07T18:02:55Z",
      "version": 1,
      "changeset": 50114987,
      "user": "edvac",
      "uid": 121415,
      "tags": {
        "amenity": "bar",
        "description": "terrasse",
        "name": "Chez Francine",
        "outdoor_seating": "yes",
        "smoking": "yes"
      }
    },
    {
      "type": "node",
      "id": 4961789017,
      "lat": -17.9394909,
      "lon": 25.8186637,
      "timestamp": "2022-05-19T10:06:22Z",
      "version": 2,
      "changeset": 121187130,
      "user": "otji73",
      "uid": 9617528,
      "tags": {
        "amenity": "bar",
        "name": "Sports Bar and Butchery"
      }
    },
    {
      "type": "node",
      "id": 4964191703,
      "lat": -17.9270599,
      "lon": 25.838033,
      "timestamp": "2017-07-11T16:17:10Z",
      "version": 1,
      "changeset": 50205661,
      "user": "DomOBOW",
      "uid": 3756359,
      "tags": {
        "amenity": "bar",
        "name": "Invuvu Bar"
      }
    },
    {
      "type": "node",
      "id": 4972587955,
      "lat": -15.3714116,
      "lon": 28.3178367,
      "timestamp": "2024-02-23T08:45:38Z",
      "version": 4,
      "changeset": 147802127,
      "user": "Erik Schoute",
      "uid": 824324,
      "tags": {
        "amenity": "bar",
        "brewery": "yes;various",
        "check_date": "2023-04-13",
        "internet_access": "no",
        "name": "Skybar",
        "payment:mastercard": "yes",
        "payment:visa": "yes",
        "wheelchair": "limited"
      }
    },
    {
      "type": "node",
      "id": 5034189722,
      "lat": -17.7846068,
      "lon": 25.1711896,
      "timestamp": "2022-05-17T15:34:19Z",
      "version": 2,
      "changeset": 121106566,
      "user": "otji73",
      "uid": 9617528,
      "tags": {
        "amenity": "bar",
        "name": "Savannah Bar",
        "name:en": "Savannah Bar"
      }
    },
    {
      "type": "node",
      "id": 5046439426,
      "lat": -15.746887,
      "lon": 28.1852512,
      "timestamp": "2017-08-20T14:57:33Z",
      "version": 1,
      "changeset": 51278945,
      "user": "Eugenio Cardinale Mwila",
      "uid": 4112416,
      "tags": {
        "amenity": "bar",
        "name": "Mr Blocks",
        "name:en": "Mr Blocks"
      }
    },
    {
      "type": "node",
      "id": 5055943921,
      "lat": -12.3770066,
      "lon": 27.8409053,
      "timestamp": "2022-10-20T14:00:58Z",
      "version": 2,
      "changeset": 127841197,
      "user": "ftcat",
      "uid": 4136766,
      "tags": {
        "amenity": "bar",
        "name": "Bowling Club Chililabombwe",
        "name:en": "Bowling Club Chililabombwe"
      }
    },
    {
      "type": "node",
      "id": 5058180980,
      "lat": -19.5928678,
      "lon": 20.5035649,
      "timestamp": "2020-03-27T13:56:42Z",
      "version": 2,
      "changeset": 82717976,
      "user": "otji73",
      "uid": 9617528,
      "tags": {
        "amenity": "bar"
      }
    },
    {
      "type": "node",
      "id": 5087935725,
      "lat": -14.445802,
      "lon": 28.4578906,
      "timestamp": "2017-09-08T07:32:14Z",
      "version": 1,
      "changeset": 51834473,
      "user": "Sean1391",
      "uid": 6582161,
      "tags": {
        "addr:street": "Munkoyo Street",
        "amenity": "bar",
        "name": "Cashill Park",
        "name:en": "Cashill Park"
      }
    },
    {
      "type": "node",
      "id": 5087935822,
      "lat": -14.4333298,
      "lon": 28.4404359,
      "timestamp": "2017-09-08T07:31:19Z",
      "version": 1,
      "changeset": 51834473,
      "user": "Sean1391",
      "uid": 6582161,
      "tags": {
        "amenity": "bar",
        "name": "Kifco Sports Club",
        "name:en": "Kifco Sports Club"
      }
    },
    {
      "type": "node",
      "id": 5106849929,
      "lat": -14.4380229,
      "lon": 28.4381359,
      "timestamp": "2017-09-15T07:18:51Z",
      "version": 1,
      "changeset": 52059726,
      "user": "Sean1391",
      "uid": 6582161,
      "tags": {
        "addr:postcode": "10101",
        "addr:street": "Ghana Avenue",
        "amenity": "bar",
        "cuisine": "barbecue",
        "name": "Zoz Are Zoz"
      }
    },
    {
      "type": "node",
      "id": 5153794358,
      "lat": -11.6434223,
      "lon": 27.5385887,
      "timestamp": "2017-10-07T15:53:24Z",
      "version": 1,
      "changeset": 52711444,
      "user": "edvac",
      "uid": 121415,
      "tags": {
        "amenity": "bar",
        "name": "Arche de Noê"
      }
    },
    {
      "type": "node",
      "id": 5201305128,
      "lat": -16.3155973,
      "lon": 29.2521641,
      "timestamp": "2018-02-09T16:55:23Z",
      "version": 2,
      "changeset": 56221784,
      "user": "ilf",
      "uid": 261437,
      "tags": {
        "amenity": "bar",
        "name": "Pa-Ja"
      }
    },
    {
      "type": "node",
      "id": 5201305129,
      "lat": -16.3112649,
      "lon": 29.2447797,
      "timestamp": "2017-10-31T05:01:45Z",
      "version": 1,
      "changeset": 53384349,
      "user": "Obey_T",
      "uid": 6824001,
      "tags": {
        "amenity": "bar",
        "name": "Jumbo Bar"
      }
    },