{
  "version": 0.6,
  "generator": "Overpass API 0.7.62.8 e802775f",
  "osm3s": {
    "timestamp_osm_base": "2025-10-23T19:29:55Z",
    "copyright": "The data included in this document is from www.openstreetmap.org. The data is made available under ODbL."
  },
  "elements": [
    {
      "type": "node",
      "id": 513423746,
      "lat": -38.7077751,
      "lon": -62.2555658,
      "timestamp": "2009-09-29T13:52:52Z",
      "version": 1,
      "changeset": 2676785,
      "user": "IgnacioLopez",
      "uid": 68850,
      "tags": {
        "amenity": "bar"
      }
    },
    {
      "type": "node",
      "id": 513423747,
      "lat": -38.7076546,
      "lon": -62.2550423,
      "timestamp": "2009-09-29T13:52:52Z",
      "version": 1,
      "changeset": 2676785,
      "user": "IgnacioLopez",
      "uid": 68850,
      "tags": {
        "amenity": "bar"
      }
    },
    {
      "type": "node",
      "id": 716005818,
      "lat": -31.4227851,
      "lon": -64.1843845,
      "timestamp": "2011-09-04T15:32:53Z",
      "version": 4,
      "changeset": 9210021,
      "user": "fagervan",
      "uid": 133572,
      "tags": {
        "amenity": "bar",
        "is_in": "Córdoba",
        "name": "Saint Andrews"
      }
    },
    {
      "type": "node",
      "id": 716005828,
      "lat": -31.422657,
      "lon": -64.1847547,
      "timestamp": "2011-09-04T15:32:50Z",
      "version": 4,
      "changeset": 9210021,
      "user": "fagervan",
      "uid": 133572,
      "tags": {
        "amenity": "bar",
        "is_in": "Córdoba",
        "name": "Bonanza"
      }
    },
    {
      "type": "node",
      "id": 773272791,
      "lat": -31.4245119,
      "lon": -64.1863839,
      "timestamp": "2012-03-10T03:48:41Z",
      "version": 2,
      "changeset": 10927043,
      "user": "oktavio",
      "uid": 364366,
      "tags": {
        "amenity": "bar"
      }
    },
    {
      "type": "node",
      "id": 872969554,
      "lat": -38.7050079,
      "lon": -62.2608194,
      "timestamp": "2010-08-22T00:35:03Z",
      "version": 1,
      "changeset": 5557103,
      "user": "pablopareja",
      "uid": 211657,
      "tags": {
        "amenity": "bar"
      }
    },
    {
      "type": "node",
      "id": 872969561,
      "lat": -38.7049102,
      "lon": -62.2606941,
      "timestamp": "2010-08-22T00:35:03Z",
      "version": 1,
      "changeset": 5557103,
      "user": "pablopareja",
      "uid": 211657,
      "tags": {
        "amenity": "bar"
      }
    },
    {
      "type": "node",
      "id": 872969563,
      "lat": -38.7053601,
      "lon": -62.2607246,
      "timestamp": "2016-02-05T21:18:34Z",
      "version": 3,
      "changeset": 37029084,
      "user": "Nico D",
      "uid": 1509697,
      "tags": {
        "amenity": "bar"
      }
    },
    {
      "type": "node",
      "id": 959807973,
      "lat": -31.4184512,
      "lon": -64.1912636,
      "timestamp": "2010-10-21T21:06:37Z",
      "version": 1,
      "changeset": 6131711,
      "user": "frapell",
      "uid": 118350,
      "tags": {
        "amenity": "pub",
        "name": "Influencias"
      }
    },
    {
      "type": "node",
      "id": 971058623,
      "lat": -31.3071929,
      "lon": -64.3113584,
      "timestamp": "2016-04-06T00:15:57Z",
      "version": 2,
      "changeset": 38335729,
      "user": "HERRERA MARTIN DARIO",
      "uid": 3783783,
      "tags": {
        "amenity": "pub",
        "is_in": "Saldan, Cordoba",
        "name": "Bongó Club Saldan"
      }
    },
    {
      "type": "node",
      "id": 986555890,
      "lat": -31.3499063,
      "lon": -64.2514263,
      "timestamp": "2016-01-29T19:31:33Z",
      "version": 2,
      "changeset": 36886103,
      "user": "Sefer",
      "uid": 657892,
      "tags": {
        "amenity": "pub"
      }
    },
    {
      "type": "node",
      "id": 1082386582,
      "lat": -37.1795225,
      "lon": -62.7580737,
      "timestamp": "2011-04-03T21:48:30Z",
      "version": 2,
      "changeset": 7759570,
      "user": "pablopareja",
      "uid": 211657,
      "tags": {
        "amenity": "pub",
        "name": "Tele Pub Z"
      }
    },
    {
      "type": "node",
      "id": 1093633702,
      "lat": -35.4777121,
      "lon": -69.584049,
      "timestamp": "2024-04-04T23:55:04Z",
      "version": 3,
      "changeset": 149592213,
      "user": "X25",
      "uid": 20860281,
      "tags": {
        "amenity": "bar",
        "check_date": "2024-04-04",
        "name": "L' Martina"
      }
    },
    {
      "type": "node",
      "id": 1104917005,
      "lat": -35.164442,
      "lon": -60.0784417,
      "timestamp": "2022-10-29T22:21:08Z",
      "version": 2,
      "changeset": 128228699,
      "user": "Coralin",
      "uid": 17257048,
      "tags": {
        "amenity": "pub"
      }
    },
    {
      "type": "node",
      "id": 1255222293,
      "lat": -33.1232755,
      "lon": -64.350549,
      "timestamp": "2016-07-22T04:01:51Z",
      "version": 7,
      "changeset": 40940780,
      "user": "José Alaniz",
      "uid": 4299831,
      "tags": {
        "addr:housenumber": "740",
        "addr:postcode": "5800",
        "addr:street": "Alvear",
        "amenity": "pub",
        "internet_access": "wlan",
        "name": "Zvlu Bar"
      }
    },
    {
      "type": "node",
      "id": 1255581872,
      "lat": -31.6502464,
      "lon": -63.9100014,
      "timestamp": "2019-05-01T13:10:09Z",
      "version": 2,
      "changeset": 69765299,
      "user": "RuSo Repka",
      "uid": 9756334,
      "tags": {
        "amenity": "pub",
        "name": "EL´A"
      }
    },
    {
      "type": "node",
      "id": 1255581873,
      "lat": -31.6525388,
      "lon": -63.9097761,
      "timestamp": "2011-04-22T16:52:04Z",
      "version": 1,
      "changeset": 7935948,
      "user": "Mauro Romero",
      "uid": 442446,
      "tags": {
        "amenity": "pub"
      }
    },
    {
      "type": "node",
      "id": 1255581885,
      "lat": -31.6522853,
      "lon": -63.9100561,
      "timestamp": "2019-05-01T13:39:44Z",
      "version": 2,
      "changeset": 69766153,
      "user": "RuSo Repka",
      "uid": 9756334,
      "tags": {
        "amenity": "pub",
        "name": "ONDA 22"
      }
    },
    {
      "type": "node",
      "id": 1255581891,
      "lat": -31.6515798,
      "lon": -63.9107417,
      "timestamp": "2011-04-22T16:52:04Z",
      "version": 1,
      "changeset": 7935948,
      "user": "Mauro Romero",
      "uid": 442446,
      "tags": {
        "amenity": "bar"
      }
    },
    {
      "type": "node",
      "id": 1256358216,
      "lat": -33.1188878,
      "lon": -64.3503101,
      "timestamp": "2013-11-02T12:19:59Z",
      "version": 2,
      "changeset": 18674101,
      "user": "pablopareja",
      "uid": 211657,
      "tags": {
        "amenity": "bar"
      }
    },
    {
      "type": "node",
      "id": 1262265825,
      "lat": -31.416547,
      "lon": -64.1858508,
      "timestamp": "2011-04-27T16:43:37Z",
      "version": 1,
      "changeset": 7986765,
      "user": "argenos",
      "uid": 302384,
      "tags": {
        "amenity": "bar",
        "name": "El Ruedo"
      }
    },
    {
      "type": "node",
      "id": 1321111622,
      "lat": -30.9593222,
      "lon": -64.2786886,
      "timestamp": "2025-07-06T22:00:31Z",
      "version": 2,
      "changeset": 168580063,
      "user": "Bastian Greshake Tzovaras",
      "uid": 20617622,
      "tags": {
        "amenity": "bar",
        "name": "Bar Serrano",
        "panoramax": "b0dedf41-ef2b-4c99-a5e2-1e4e522026ee"
      }
    },
    {
      "type": "node",
      "id": 1373777953,
      "lat": -34.6136631,
      "lon": -68.3386044,
      "timestamp": "2012-05-25T10:17:51Z",
      "version": 2,
      "changeset": 11697076,
      "user": "cquest",
      "uid": 158826,
      "tags": {
        "amenity": "bar"
      }
    },
    {
      "type": "node",
      "id": 1373782334,
      "lat": -34.6092106,
      "lon": -68.3498528,
      "timestamp": "2022-03-14T00:35:35Z",
      "version": 2,
      "changeset": 118449551,
      "user": "laflormaria",
      "uid": 10854013,
      "tags": {
        "amenity": "pub",
        "name": "Guantánamo"
      }
    },
    {
      "type": "node",
      "id": 1373782336,
      "lat": -34.6091068,
      "lon": -68.3501165,
      "timestamp": "2018-01-09T13:30:32Z",
      "version": 2,
      "changeset": 55293151,
      "user": "Lautaro Garcia",
      "uid": 4194686,
      "tags": {
        "amenity": "bar",
        "name": "Stroker"
      }
    },
    {
      "type": "node",
      "id": 1373782337,
      "lat": -34.6090803,
      "lon": -68.350315,
      "timestamp": "2018-01-09T01:17:24Z",
      "version": 2,
      "changeset": 55279652,
      "user": "Lautaro Garcia",
      "uid": 4194686,
      "tags": {
        "amenity": "bar",
        "name": "Peñon"
      }
    },
    {
      "type": "node",
      "id": 1373782339,
      "lat": -34.6083562,
      "lon": -68.3523159,
      "timestamp": "2011-07-25T13:55:56Z",
      "version": 1,
      "changeset": 8826092,
      "user": "estrotococo",
      "uid": 357433,
      "tags": {
        "amenity": "bar"
      }
    },
    {
      "type": "node",
      "id": 1373998136,
      "lat": -34.6029593,
      "lon": -68.3695402,
      "timestamp": "2011-07-25T17:40:30Z",
      "version": 1,
      "changeset": 8828045,
      "user": "estrotococo",
      "uid": 357433,
      "tags": {
        "amenity": "pub"
      }
    },
    {
      "type": "node",
      "id": 1373998142,
      "lat": -34.6056266,
      "lon": -68.3599915,
      "timestamp": "2011-07-25T17:40:30Z",
      "version": 1,
      "changeset": 8828045,
      "user": "estrotococo",
      "uid": 357433,
      "tags": {
        "amenity": "pub"
      }
    },
    {
      "type": "node",
      "id": 1373998154,
      "lat": -34.615587,
      "lon": -68.366858,
      "timestamp": "2011-07-25T17:40:31Z",
      "version": 1,
      "changeset": 8828045,
      "user": "estrotococo",
      "uid": 357433,
      "tags": {
        "amenity": "pub"
      }
    },
    {
      "type": "node",
      "id": 1373998156,
      "lat": -34.6073728,
      "lon": -68.3565315,
      "timestamp": "2018-10-20T22:19:14Z",
      "version": 2,
      "changeset": 63715797,
      "user": "serock",
      "uid": 1810448,
      "tags": {
        "amenity": "pub"
      }
    },
    {
      "type": "node",
      "id": 1374830290,
      "lat": -34.6162134,
      "lon": -68.3434245,
      "timestamp": "2011-07-26T14:58:13Z",
      "version": 1,
      "changeset": 8836558,
      "user": "estrotococo",
      "uid": 357433,
      "tags": {
        "amenity": "bar"
      }
    },
    {
      "type": "node",
      "id": 1416389196,
      "lat": -33.3282444,
      "lon": -60.2166543,
      "timestamp": "2024-07-18T16:47:31Z",
      "version": 3,
      "changeset": 154110290,
      "user": "Gabriel Oldani",
      "uid": 21323456,
      "tags": {
        "addr:city": "San Nicolás de los Arroyos",
        "addr:country": "AR",
        "addr:housenumber": "90",
        "addr:postcode": "2900",
        "addr:province": "Buenos Aires",
        "addr:street": "Bartolomé Mitre",
        "alt_name": "El Poeta",
        "amenity": "bar",
        "int_name": "El Poeta",
        "name": "El Poeta",
        "old_name": "Astul"
      }
    },
    {
      "type": "node",
      "id": 1550941113,
      "lat": -38.8820511,
      "lon": -62.0820136,
      "timestamp": "2023-10-22T17:45:10Z",
      "version": 3,
      "changeset": 142978665,
      "user": "MrPot4to",
      "uid": 18060302,
      "tags": {
        "addr:city": "Punta Alta",
        "addr:postcode": "8109",
        "addr:street": "Bernardo de Irigoyen",
        "amenity": "bar",
        "check_date:opening_hours": "2023-10-22",
        "name": "Bar Central",
        "opening_hours:signed": "no"
      }
    },
    {
      "type": "node",
      "id": 1654796707,
      "lat": -32.8540014,
      "lon": -63.5543606,
      "timestamp": "2012-03-01T19:22:53Z",
      "version": 1,
      "changeset": 10841200,
      "user": "Guaguo",
      "uid": 607799,
      "tags": {
        "amenity": "bar",
        "name": "La Ñatita"
      }
    },
    {
      "type": "node",
      "id": 1659824923,
      "lat": -32.6112152,
      "lon": -62.6967493,
      "timestamp": "2021-03-28T19:25:56Z",
      "version": 6,
      "changeset": 101886845,
      "user": "lferreyra",
      "uid": 4020269,
      "tags": {
        "amenity": "bar",
        "name": "Bar Estilos"
      }
    },
    {
      "type": "node",
      "id": 1671386432,
      "lat": -35.3293458,
      "lon": -61.6125299,
      "timestamp": "2013-07-13T15:01:14Z",
      "version": 4,
      "changeset": 16937773,
      "user": "alpertron",
      "uid": 466854,
      "tags": {
        "amenity": "pub"
      }
    },
    {
      "type": "node",
      "id": 1671402565,
      "lat": -35.3287157,
      "lon": -61.614021,
      "timestamp": "2013-07-13T14:56:17Z",
      "version": 5,
      "changeset": 16937773,
      "user": "alpertron",
      "uid": 466854,
      "tags": {
        "amenity": "bar",
        "name": "Bar de Moe"
      }
    },
    {
      "type": "node",
      "id": 1671402570,
      "lat": -35.3315735,
      "lon": -61.6161669,
      "timestamp": "2013-07-13T14:56:15Z",
      "version": 4,
      "changeset": 16937773,
      "user": "alpertron",
      "uid": 466854,
      "tags": {
        "amenity": "pub"
      }
    },
    {
      "type": "node",
      "id": 1695051699,
      "lat": -35.9744156,
      "lon": -62.732959,
      "timestamp": "2020-11-24T17:05:51Z",
      "version": 5,
      "changeset": 94719565,
      "user": "CM_TL",
      "uid": 11792903,
      "tags": {
        "addr:city": "Trenque Lauquen",
        "addr:country": "AR",
        "addr:postcode": "6400",
        "addr:province": "Buenos Aires",
        "addr:state": "Buenos Aires",
        "amenity": "bar",
        "name": "LCDV"
      }
    },
    {
      "type": "node",
      "id": 1695072058,
      "lat": -35.9739728,
      "lon": -62.7332057,
      "timestamp": "2024-12-03T13:18:51Z",
      "version": 5,
      "changeset": 159880888,
      "user": "wheelmap_visitor",
      "uid": 290680,
      "tags": {
        "addr:city": "Trenque Lauquen",
        "addr:country": "AR",
        "addr:postcode": "6400",
        "addr:province": "Buenos Aires",
        "addr:state": "Buenos Aires",
        "amenity": "bar",
        "name": "Trezzo Cafe Bar",
        "toilets:wheelchair": "no",
        "wheelchair": "limited"
      }
    },
    {
      "type": "node",
      "id": 1703838231,
      "lat": -33.3237151,
      "lon": -62.0382805,
      "timestamp": "2022-01-17T21:35:04Z",
      "version": 4,
      "changeset": 116272775,
      "user": "CorazonDelator",
      "uid": 8127216,
      "tags": {
        "amenity": "pub"
      }
    },
    {
      "type": "node",
      "id": 1705297138,
      "lat": -32.9309891,
      "lon": -68.849648,
      "timestamp": "2024-10-09T05:25:07Z",
      "version": 5,
      "changeset": 157654921,
      "user": "Pich14",
      "uid": 20877334,
      "tags": {
        "addr:city": "Godoy Cruz",
        "addr:street": "Avenida General San Martín Sur",
        "amenity": "bar",
        "name": "Martin Sur Bar & Restó"
      }
    },
    {
      "type": "node",
      "id": 1741070655,
      "lat": -35.9680684,
      "lon": -62.7377444,
      "timestamp": "2020-11-24T17:05:51Z",
      "version": 5,
      "changeset": 94719565,
      "user": "CM_TL",
      "uid": 11792903,
      "tags": {
        "addr:city": "Trenque Lauquen",
        "addr:country": "AR",
        "addr:postcode": "6400",
        "addr:state": "Buenos Aires",
        "amenity": "bar",
        "name": "Riel & Co. Bar o Bar"
      }
    },
    {
      "type": "node",
      "id": 1741070656,
      "lat": -35.9710156,
      "lon": -62.7353702,
      "timestamp": "2020-11-24T17:05:51Z",
      "version": 5,
      "changeset": 94719565,
      "user": "CM_TL",
      "uid": 11792903,
      "tags": {
        "addr:city": "Trenque Lauquen",
        "addr:country": "AR",
        "addr:postcode": "6400",
        "addr:province": "Buenos Aires",
        "addr:state": "Buenos Aires",
        "amenity": "bar",
        "cuisine": "pizza",
        "name": "Buin Bar"
      }
    },
    {
      "type": "node",
      "id": 1756124867,
      "lat": -32.8916533,
      "lon": -68.8398574,
      "timestamp": "2012-06-27T17:32:33Z",
      "version": 3,
      "changeset": 12038999,
      "user": "Sefer",
      "uid": 657892,
      "tags": {
        "amenity": "pub",
        "name": "Liverpool Pub"
      }
    },
    {
      "type": "node",
      "id": 1770410195,
      "lat": -32.8995902,
      "lon": -68.841934,
      "timestamp": "2012-06-28T14:03:50Z",
      "version": 2,
      "changeset": 12047144,
      "user": "Sefer",
      "uid": 657892,
      "tags": {
        "amenity": "bar",
        "name": "Lobby Bar"
      }
    },
    {
      "type": "node",
      "id": 1814822400,
      "lat": -32.9084072,
      "lon": -68.8505948,
      "timestamp": "2024-11-09T02:10:20Z",
      "version": 2,
      "changeset": 158917481,
      "user": "Pich14",
      "uid": 20877334,
      "tags": {
        "addr:city": "Godoy Cruz",
        "addr:country": "AR",
        "addr:street": "Arizu",
        "amenity": "bar",
        "name": "Juguete Rabioso"
      }
    },
    {
      "type": "node",
      "id": 1814822406,
      "lat": -32.8876758,
      "lon": -68.8441395,
      "timestamp": "2024-04-07T00:34:49Z",
      "version": 6,
      "changeset": 149675150,
      "user": "X25",
      "uid": 20860281,
      "tags": {
        "addr:city": "Mendoza",
        "addr:country": "AR",
        "addr:housenumber": "406",
        "addr:street": "Avenida Bartolomé Mitre",
        "amenity": "bar",
        "check_date": "2024-04-06",
        "name": "Tacobar"
      }
    },
    {
      "type": "node",
      "id": 1850065636,
      "lat": -32.8992317,
      "lon": -68.840606,
      "timestamp": "2023-11-10T22:09:51Z",
      "version": 5,
      "changeset": 143881225,
      "user": "AndresDuhour",
      "uid": 2985830,
      "tags": {
        "addr:city": "Mendoza",
        "addr:housenumber": "80",
        "addr:street": "Bruno Morón",
        "amenity": "bar",
        "name": "Bar Banana Rana",
        "phone": "54 261 4295993"
      }
    },
    {
      "type": "node",
      "id": 1850065637,
      "lat": -32.8987346,
      "lon": -68.8398232,
      "timestamp": "2023-11-10T22:09:51Z",
      "version": 5,
      "changeset": 143881225,
      "user": "AndresDuhour",
      "uid": 2985830,
      "tags": {
        "addr:housenumber": "453",
        "addr:street": "San Juan",
        "amenity": "bar",
        "description:es": "Bar, restorán, musica en vivo",
        "name": "Café San Juan"
      }
    },
    {
      "type": "node",
      "id": 1854274169,
      "lat": -32.8932446,
      "lon": -68.8384021,
      "timestamp": "2018-07-02T02:03:11Z",
      "version": 6,
      "changeset": 60333168,
      "user": "Sefer",
      "uid": 657892,
      "tags": {
        "amenity": "bar",
        "disused:shop": "outdoor",
        "name": "Beirut Cafe & Bar"
      }
    },
    {
      "type": "node",
      "id": 1877489505,
      "lat": -33.0461512,
      "lon": -61.1674466,
      "timestamp": "2024-04-22T13:57:24Z",
      "version": 5,
      "changeset": 150348642,
      "user": "HABmaps",
      "uid": 560942,
      "tags": {
        "amenity": "bar",
        "name": "Del Pueblo"
      }
    },
    {
      "type": "node",
      "id": 1877489508,
      "lat": -33.0357814,
      "lon": -61.1712742,
      "timestamp": "2024-04-22T13:57:24Z",
      "version": 3,
      "changeset": 150348642,
      "user": "HABmaps",
      "uid": 560942,
      "tags": {
        "amenity": "bar",
        "name": "Bar Avenida"
      }
    },
    {
      "type": "node",
      "id": 1877489519,
      "lat": -33.0444288,
      "lon": -61.1664248,
      "timestamp": "2025-07-09T04:13:29Z",
      "version": 4,
      "changeset": 168675600,
      "user": "jlparnisari",
      "uid": 22892535,
      "tags": {
        "amenity": "pub",
        "name": "Azafran"
      }
    },
    {
      "type": "node",
      "id": 1877489527,
      "lat": -33.0454046,
      "lon": -61.1653597,
      "timestamp": "2024-04-22T13:57:24Z",
      "version": 11,
      "changeset": 150348642,
      "user": "HABmaps",
      "uid": 560942,
      "tags": {
        "addr:city": "Casilda",
        "addr:country": "AR",
        "addr:housenumber": "2105",
        "addr:postcode": "S2170",
        "addr:province": "Santa Fe",
        "addr:street": "Bulevar Lisandro de la Torre",
        "amenity": "bar",
        "internet_access": "wlan",
        "name": "Bar Sarmiento",
        "smoking": "outside"
      }
    },
    {
      "type": "node",
      "id": 1877489556,
      "lat": -33.0470896,
      "lon": -61.1661887,
      "timestamp": "2024-04-22T13:57:24Z",
      "version": 3,
      "changeset": 150348642,
      "user": "HABmaps",
      "uid": 560942,
      "tags": {
        "amenity": "pub",
        "name": "Club Alumni"
      }
    },
    {
      "type": "node",
      "id": 1877489998,
      "lat": -33.1227791,
      "lon": -64.3501129,
      "timestamp": "2025-09-17T20:20:05Z",
      "version": 6,
      "changeset": 172084166,
      "user": "Bastian Greshake Tzovaras",
      "uid": 20617622,
      "tags": {
        "amenity": "pub",
        "check_date": "2025-09-17",
        "name": "pilca",
        "outdoor_seating": "yes",
        "smoking": "isolated"
      }
    },
    {
      "type": "node",
      "id": 1877874816,
      "lat": -32.0306594,
      "lon": -61.2202889,
      "timestamp": "2016-08-28T23:28:37Z",
      "version": 3,
      "changeset": 41766257,
      "user": "juanblas09",
      "uid": 3662234,
      "tags": {
        "amenity": "bar",
        "name": "Prus"
      }
    },
    {
      "type": "node",
      "id": 1877874828,
      "lat": -32.0307381,
      "lon": -61.2204833,
      "timestamp": "2016-08-28T23:28:38Z",
      "version": 3,
      "changeset": 41766257,
      "user": "juanblas09",
      "uid": 3662234,
      "tags": {
        "amenity": "bar",
        "name": "Vittorino"
      }
    },
    {
      "type": "node",
      "id": 1877875003,
      "lat": -32.0308542,
      "lon": -61.2235665,
      "timestamp": "2015-10-20T22:51:55Z",
      "version": 3,
      "changeset": 34767135,
      "user": "Santiago Pestarini",
      "uid": 1821145,
      "tags": {
        "amenity": "bar",
        "name": "La Estación"
      }
    },
    {
      "type": "node",
      "id": 1877875019,
      "lat": -32.0306692,
      "lon": -61.2203707,
      "timestamp": "2016-08-28T23:28:37Z",
      "version": 3,
      "changeset": 41766257,
      "user": "juanblas09",
      "uid": 3662234,
      "tags": {
        "amenity": "bar",
        "name": "Salvia"
      }
    },
    {
      "type": "node",
      "id": 1886269488,
      "lat": -32.6812856,
      "lon": -61.5182664,
      "timestamp": "2012-08-28T04:59:01Z",
      "version": 1,
      "changeset": 12887445,
      "user": "flotron",
      "uid": 13155,
      "tags": {
        "amenity": "pub",
        "name": "Lola"
      }
    },
    {
      "type": "node",
      "id": 1886269489,
      "lat": -32.6812766,
      "lon": -61.5178211,
      "timestamp": "2012-08-28T04:59:01Z",
      "version": 1,
      "changeset": 12887445,
      "user": "flotron",
      "uid": 13155,
      "tags": {
        "amenity": "pub",
        "name": "Gitana"
      }
    },
    {
      "type": "node",
      "id": 1892914027,
      "lat": -33.7094083,
      "lon": -61.3126028,
      "timestamp": "2019-11-13T00:14:21Z",
      "version": 2,
      "changeset": 76986174,
      "user": "CorazonDelator",
      "uid": 8127216,
      "tags": {
        "amenity": "pub",
        "name": "Club Juventud Unida"
      }
    },
    {
      "type": "node",
      "id": 1903130226,
      "lat": -30.924614,
      "lon": -64.5041106,
      "timestamp": "2020-04-12T03:58:40Z",
      "version": 2,
      "changeset": 83415986,
      "user": "patodiez",
      "uid": 1856060,
      "tags": {
        "amenity": "pub"
      }
    },
    {
      "type": "node",
      "id": 1903145492,
      "lat": -30.936394,
      "lon": -64.4932477,
      "timestamp": "2012-09-06T21:45:40Z",
      "version": 1,
      "changeset": 13014977,
      "user": "Nenufar",
      "uid": 563805,
      "tags": {
        "amenity": "bar",
        "name": "Tragos"
      }
    },
    {
      "type": "node",
      "id": 1917489606,
      "lat": -30.7753742,
      "lon": -64.5443582,
      "timestamp": "2021-09-21T17:51:02Z",
      "version": 2,
      "changeset": 111508135,
      "user": "serock",
      "uid": 1810448,
      "tags": {
        "amenity": "pub",
        "name": "La 12"
      }
    },
    {
      "type": "node",
      "id": 1917739525,
      "lat": -33.316309,
      "lon": -60.6022462,
      "timestamp": "2012-09-16T20:45:49Z",
      "version": 1,
      "changeset": 13136186,
      "user": "NicolasDR",
      "uid": 889099,
      "tags": {
        "amenity": "pub",
        "name": "Ozono"
      }
    },
    {
      "type": "node",
      "id": 1917740016,
      "lat": -33.3165511,
      "lon": -60.6029387,
      "timestamp": "2012-09-16T20:46:10Z",
      "version": 1,
      "changeset": 13136186,
      "user": "NicolasDR",
      "uid": 889099,
      "tags": {
        "amenity": "bar",
        "name": "Bar Furlán"
      }
    },
    {
      "type": "node",
      "id": 1917745071,
      "lat": -33.317349,
      "lon": -60.6028636,
      "timestamp": "2012-09-16T20:50:43Z",
      "version": 1,
      "changeset": 13136186,
      "user": "NicolasDR",
      "uid": 889099,
      "tags": {
        "amenity": "bar",
        "name": "Bar Dalpoggetto"
      }
    },
    {
      "type": "node",
      "id": 1945235406,
      "lat": -31.717296,
      "lon": -61.0895414,
      "timestamp": "2012-10-03T23:32:23Z",
      "version": 1,
      "changeset": 13353314,
      "user": "Damiancho",
      "uid": 942608,
      "tags": {
        "amenity": "pub"
      }
    },
    {
      "type": "node",
      "id": 1945235414,
      "lat": -31.7255369,
      "lon": -61.0941575,
      "timestamp": "2012-10-03T23:32:23Z",
      "version": 1,
      "changeset": 13353314,
      "user": "Damiancho",
      "uid": 942608,
      "tags": {
        "amenity": "bar"
      }
    },
    {
      "type": "node",
      "id": 1945235457,
      "lat": -31.7264515,
      "lon": -61.0915958,
      "timestamp": "2025-06-22T14:04:31Z",
      "version": 4,
      "changeset": 167960076,
      "user": "Luis Uriarte",
      "uid": 496123,
      "tags": {
        "addr:city": "San Carlos Centro",
        "addr:housenumber": "466",
        "addr:postcode": "3013",
        "addr:street": "Belgrano",
        "amenity": "bar",
        "name": "Argentino Resto Bar",
        "opening_hours": "tue-sat 07-03pm 06-04am"
      }
    },
    {
      "type": "node",
      "id": 1963821469,
      "lat": -32.9037757,
      "lon": -60.6616097,
      "timestamp": "2012-11-25T17:08:25Z",
      "version": 2,
      "changeset": 14032675,
      "user": "HABmaps",
      "uid": 560942,
      "tags": {
        "amenity": "pub",
        "name": "Pipi Cucu"
      }
    },
    {
      "type": "node",
      "id": 1966823096,
      "lat": -33.4573799,
      "lon": -61.4879276,
      "timestamp": "2012-10-15T14:32:59Z",
      "version": 1,
      "changeset": 13506704,
      "user": "Federico Ciliberti",
      "uid": 969974,
      "tags": {
        "amenity": "bar",
        "name": "UMA Bar"
      }
    },
    {
      "type": "node",
      "id": 1978713628,
      "lat": -32.8809401,
      "lon": -60.6870579,
      "timestamp": "2024-04-09T05:31:46Z",
      "version": 3,
      "changeset": 149759913,
      "user": "HABmaps",
      "uid": 560942,
      "tags": {
        "addr:city": "Rosario",
        "addr:country": "AR",
        "addr:housenumber": "3610",
        "addr:state": "Santa Fe",
        "addr:street": "Avenida Eudoro Carrasco",
        "amenity": "bar",
        "name": "Mapu Rosario"
      }
    },
    {
      "type": "node",
      "id": 1984737665,
      "lat": -38.1020046,
      "lon": -62.2268549,
      "timestamp": "2014-02-16T04:34:37Z",
      "version": 2,
      "changeset": 20588673,
      "user": "Souchong",
      "uid": 255141,
      "tags": {
        "addr:city": "Tornquist",
        "addr:country": "AR",
        "addr:housenumber": "31",
        "addr:postcode": "8160",
        "addr:street": "Rawson",
        "amenity": "bar",
        "name": "Bar Kupinski"
      }
    },
    {
      "type": "node",
      "id": 1990596384,
      "lat": -32.9497721,
      "lon": -60.6258027,
      "timestamp": "2012-10-31T03:35:51Z",
      "version": 1,
      "changeset": 13694061,
      "user": "HABmaps",
      "uid": 560942,
      "tags": {
        "amenity": "bar",
        "name": "Sr. Ming"
      }
    },
    {
      "type": "node",
      "id": 1992235792,
      "lat": -32.9371363,
      "lon": -60.639506,
      "timestamp": "2012-11-01T12:59:40Z",
      "version": 1,
      "changeset": 13710188,
      "user": "HABmaps",
      "uid": 560942,
      "tags": {
        "amenity": "bar",
        "name": "Quita Pena"
      }
    },
    {
      "type": "node",
      "id": 1992271344,
      "lat": -32.8894946,
      "lon": -60.6871878,
      "timestamp": "2012-11-01T13:28:44Z",
      "version": 1,
      "changeset": 13710605,
      "user": "HABmaps",
      "uid": 560942,
      "tags": {
        "amenity": "bar",
        "name": "LongBoard"
      }
    },
    {
      "type": "node",
      "id": 1992721984,
      "lat": -32.8737033,
      "lon": -60.6892473,
      "timestamp": "2021-10-10T16:08:08Z",
      "version": 5,
      "changeset": 112340077,
      "user": "mweper",
      "uid": 1311281,
      "tags": {
        "amenity": "bar",
        "cuisine": "burger;pizza"
      }
    },
    {
      "type": "node",
      "id": 1992731940,
      "lat": -32.8914549,
      "lon": -60.6855806,
      "timestamp": "2012-11-01T18:50:52Z",
      "version": 1,
      "changeset": 13714276,
      "user": "HABmaps",
      "uid": 560942,
      "tags": {
        "amenity": "bar"
      }
    },
    {
      "type": "node",
      "id": 1994184043,
      "lat": -32.9457546,
      "lon": -60.6493964,
      "timestamp": "2012-11-02T18:18:49Z",
      "version": 1,
      "changeset": 13725872,
      "user": "HABmaps",
      "uid": 560942,
      "tags": {
        "amenity": "bar",
        "name": "Queens Bar"
      }
    },
    {
      "type": "node",
      "id": 2004290634,
      "lat": -32.6716985,
      "lon": -64.0632081,
      "timestamp": "2012-11-09T11:36:30Z",
      "version": 1,
      "changeset": 13807448,
      "user": "Guaguo",
      "uid": 607799,
      "tags": {
        "amenity": "bar"
      }
    },
    {
      "type": "node",
      "id": 2005929505,
      "lat": -32.9570015,
      "lon": -60.6435643,
      "timestamp": "2017-01-09T18:26:43Z",
      "version": 3,
      "changeset": 45033019,
      "user": "mweper",
      "uid": 1311281,
      "tags": {
        "amenity": "bar",
        "name": "Club de Pizzas"
      }
    },
    {
      "type": "node",
      "id": 2082549507,
      "lat": -32.8920047,
      "lon": -68.8558194,
      "timestamp": "2025-08-09T00:23:19Z",
      "version": 7,
      "changeset": 170179947,
      "user": "Pich14",
      "uid": 20877334,
      "tags": {
        "addr:street": "Arístides Villanueva",
        "amenity": "bar",
        "food": "yes",
        "internet_access": "wlan",
        "name": "Johnny B Good",
        "outdoor_seating": "yes"
      }
    },
    {
      "type": "node",
      "id": 2101694333,
      "lat": -31.0933045,
      "lon": -64.4821942,
      "timestamp": "2013-01-08T15:43:32Z",
      "version": 1,
      "changeset": 14575916,
      "user": "Nenufar",
      "uid": 563805,
      "tags": {
        "amenity": "bar"
      }
    },
    {
      "type": "node",
      "id": 2117365670,
      "lat": -38.9818786,
      "lon": -67.8310691,
      "timestamp": "2013-01-18T06:56:53Z",
      "version": 1,
      "changeset": 14693090,
      "user": "Conmate",
      "uid": 1201196,
      "tags": {
        "amenity": "pub",
        "name": "King Arthur"
      }
    },
    {
      "type": "node",
      "id": 2145362187,
      "lat": -34.8560405,
      "lon": -61.5486113,
      "timestamp": "2021-08-30T03:18:43Z",
      "version": 3,
      "changeset": 110432575,
      "user": "serock",
      "uid": 1810448,
      "tags": {
        "amenity": "pub",
        "name": "Confitería"
      }
    },
    {
      "type": "node",
      "id": 2156475457,
      "lat": -37.5081235,
      "lon": -61.9214449,
      "timestamp": "2013-02-15T20:04:17Z",
      "version": 1,
      "changeset": 15044009,
      "user": "federicoschroh",
      "uid": 1225581,
      "tags": {
        "amenity": "bar"
      }
    },
    {
      "type": "node",
      "id": 2158216953,
      "lat": -31.639023,
      "lon": -60.702233,
      "timestamp": "2013-02-16T22:41:45Z",
      "version": 2,
      "changeset": 15057527,
      "user": "jlmw78",
      "uid": 800109,
      "tags": {
        "amenity": "bar",
        "name": "Asterisco"
      }
    },
    {
      "type": "node",
      "id": 2158216956,
      "lat": -31.644739,
      "lon": -60.695643,
      "timestamp": "2013-02-16T22:41:45Z",
      "version": 2,
      "changeset": 15057527,
      "user": "jlmw78",
      "uid": 800109,
      "tags": {
        "amenity": "bar",
        "name": "Bajo Candioti"
      }
    },
    {
      "type": "node",
      "id": 2158216971,
      "lat": -31.6367212,
      "lon": -60.7027251,
      "timestamp": "2025-05-27T22:48:49Z",
      "version": 5,
      "changeset": 166846484,
      "user": "jlmw78",
      "uid": 800109,
      "tags": {
        "amenity": "bar",
        "check_date": "2025-05-27",
        "name": "Club 25"
      }
    },
    {
      "type": "node",
      "id": 2158216974,
      "lat": -31.6418413,
      "lon": -60.6677782,
      "timestamp": "2014-05-22T22:32:15Z",
      "version": 4,
      "changeset": 22495359,
      "user": "Otros_arg",
      "uid": 2082322,
      "tags": {
        "amenity": "bar",
        "name": "Complejo Minna"
      }
    },
    {
      "type": "node",
      "id": 2158216977,
      "lat": -31.6370578,
      "lon": -60.7028007,
      "timestamp": "2018-10-02T20:27:18Z",
      "version": 4,
      "changeset": 63137921,
      "user": "paula brem",
      "uid": 8840725,
      "tags": {
        "amenity": "bar",
        "name": "El Marques"
      }
    },
    {
      "type": "node",
      "id": 2158216979,
      "lat": -31.6363787,
      "lon": -60.7026098,
      "timestamp": "2025-05-27T22:48:48Z",
      "version": 5,
      "changeset": 166846484,
      "user": "jlmw78",
      "uid": 800109,
      "tags": {
        "amenity": "bar",
        "check_date": "2025-05-27",
        "name": "El Sheik"
      }
    },
    {
      "type": "node",
      "id": 2158216980,
      "lat": -31.638013,
      "lon": -60.703436,
      "timestamp": "2013-02-16T22:41:46Z",
      "version": 2,
      "changeset": 15057527,
      "user": "jlmw78",
      "uid": 800109,
      "tags": {
        "amenity": "bar",
        "name": "Fiji"
      }
    },
    {
      "type": "node",
      "id": 2158216981,
      "lat": -31.634704,
      "lon": -60.702443,
      "timestamp": "2022-08-19T19:32:16Z",
      "version": 4,
      "changeset": 125123299,
      "user": "juanblas09",
      "uid": 3662234,
      "tags": {
        "amenity": "bar",
        "name": "Antro",
        "wheelchair": "no"
      }
    },
    {
      "type": "node",
      "id": 2158216983,
      "lat": -31.638488,
      "lon": -60.699055,
      "timestamp": "2013-02-16T22:41:46Z",
      "version": 2,
      "changeset": 15057527,
      "user": "jlmw78",
      "uid": 800109,
      "tags": {
        "amenity": "bar",
        "name": "La Camorra"
      }
    },
    {
      "type": "node",
      "id": 2158216984,
      "lat": -31.6340883,
      "lon": -60.709394,
      "timestamp": "2015-08-31T17:14:35Z",
      "version": 3,
      "changeset": 33709115,
      "user": "sbenve",
      "uid": 2597997,
      "tags": {
        "amenity": "bar",
        "name": "La Elo"
      }
    },
    {
      "type": "node",
      "id": 2158216993,
      "lat": -31.6380927,
      "lon": -60.7027586,
      "timestamp": "2016-10-25T03:04:57Z",
      "version": 4,
      "changeset": 43147021,
      "user": "cuervof2",
      "uid": 4734931,
      "tags": {
        "amenity": "bar",
        "name": "Queen’s pub"
      }
    },
    {
      "type": "node",
      "id": 2158216995,
      "lat": -31.6423479,
      "lon": -60.7069148,
      "timestamp": "2025-04-28T23:54:18Z",
      "version": 5,
      "changeset": 165569172,
      "user": "jlmw78",
      "uid": 800109,
      "tags": {
        "amenity": "bar",
        "check_date": "2025-04-28",
        "name": "Stroker"
      }
    },
    {
      "type": "node",
      "id": 2158216996,
      "lat": -31.638554,
      "lon": -60.703638,
      "timestamp": "2025-05-27T22:48:52Z",
      "version": 3,
      "changeset": 166846484,
      "user": "jlmw78",
      "uid": 800109,
      "tags": {
        "amenity": "bar",
        "check_date": "2025-05-27",
        "name": "Suite"
      }
    },
    {
      "type": "node",
      "id": 2158216997,
      "lat": -31.6396523,
      "lon": -60.7099187,
      "timestamp": "2015-08-31T17:04:01Z",
      "version": 3,
      "changeset": 33708868,
      "user": "sbenve",
      "uid": 2597997,
      "tags": {
        "amenity": "bar",
        "name": "Winona Pub"
      }
    },
    {
      "type": "node",
      "id": 2158216998,
      "lat": -31.6358627,
      "lon": -60.6929517,
      "timestamp": "2024-04-09T13:46:48Z",
      "version": 6,
      "changeset": 149778354,
      "user": "HABmaps",
      "uid": 560942,
      "tags": {
        "addr:city": "Santa Fe",
        "addr:country": "AR",
        "addr:housenumber": "3683",
        "addr:postcode": "S3000",
        "addr:state": "Santa Fe",
        "addr:street": "Sarmiento",
        "amenity": "bar",
        "name": "Mitos Bar de Amigos",
        "opening_hours": "Tu-Su 18:00-02:00"
      }
    },
    {
      "type": "node",
      "id": 2158342053,
      "lat": -37.507177,
      "lon": -61.9192598,
      "timestamp": "2020-06-03T01:29:09Z",
      "version": 2,
      "changeset": 86102778,
      "user": "CorazonDelator",
      "uid": 8127216,
      "tags": {
        "amenity": "bar"
      }
    },
    {
      "type": "node",
      "id": 2158349044,
      "lat": -37.5052024,
      "lon": -61.9216574,
      "timestamp": "2013-02-17T01:04:25Z",
      "version": 1,
      "changeset": 15058297,
      "user": "federicoschroh",
      "uid": 1225581,
      "tags": {
        "amenity": "bar"
      }
    },
    {
      "type": "node",
      "id": 2164679621,
      "lat": -30.9627772,
      "lon": -64.5983673,
      "timestamp": "2013-02-21T01:00:27Z",
      "version": 1,
      "changeset": 15106822,
      "user": "Nenufar",
      "uid": 563805,
      "tags": {
        "amenity": "bar",
        "name": "Bar Chuña"
      }
    },
    {
      "type": "node",
      "id": 2167455906,
      "lat": -30.977084,
      "lon": -64.4830587,
      "timestamp": "2013-02-22T19:11:17Z",
      "version": 1,
      "changeset": 15127204,
      "user": "Miguel Alberto Cuello",
      "uid": 1236106,
      "tags": {
        "amenity": "bar",
        "name": "Bar El Cristo"
      }
    },
    {
      "type": "node",
      "id": 2244084079,
      "lat": -31.7636598,
      "lon": -61.318509,
      "timestamp": "2021-05-30T13:48:01Z",
      "version": 3,
      "changeset": 105568836,
      "user": "CorazonDelator",
      "uid": 8127216,
      "tags": {
        "amenity": "pub",
        "name": "Cuatro14",
        "wifi": "no"
      }
    },
    {
      "type": "node",
      "id": 2244084118,
      "lat": -31.7639836,
      "lon": -61.3200459,
      "timestamp": "2021-05-30T13:48:01Z",
      "version": 3,
      "changeset": 105568836,
      "user": "CorazonDelator",
      "uid": 8127216,
      "tags": {
        "amenity": "pub",
        "name": "Bok2 Resto Pub"
      }
    },
    {
      "type": "node",
      "id": 2244097112,
      "lat": -31.7641451,
      "lon": -61.3209579,
      "timestamp": "2021-05-30T13:48:01Z",
      "version": 2,
      "changeset": 105568836,
      "user": "CorazonDelator",
      "uid": 8127216,
      "tags": {
        "amenity": "bar",
        "name": "Bar Banchi"
      }
    },
    {
      "type": "node",
      "id": 2271550734,
      "lat": -36.8929131,
      "lon": -60.3214431,
      "timestamp": "2019-06-23T11:24:47Z",
      "version": 2,
      "changeset": 71529604,
      "user": "CorazonDelator",
      "uid": 8127216,
      "tags": {
        "addr:postcode": "7400",
        "amenity": "bar",
        "internet_access": "wlan",
        "name": "Torcuato Bar"
      }
    },
    {
      "type": "node",
      "id": 2308915882,
      "lat": -32.4146554,
      "lon": -63.2417503,
      "timestamp": "2022-06-14T02:50:53Z",
      "version": 4,
      "changeset": 122348954,
      "user": "lferreyra",
      "uid": 4020269,
      "tags": {
        "amenity": "bar",
        "name": "Rigoletto"
      }
    },
    {
      "type": "node",
      "id": 2308927683,
      "lat": -32.4112194,
      "lon": -63.243616,
      "timestamp": "2020-03-24T05:36:37Z",
      "version": 6,
      "changeset": 82552110,
      "user": "patodiez",
      "uid": 1856060,
      "tags": {
        "amenity": "bar",
        "internet_access": "wlan",
        "internet_access:fee": "no",
        "name": "Bar Argentino"
      }
    },
    {
      "type": "node",
      "id": 2308927698,
      "lat": -32.4113681,
      "lon": -63.2434669,
      "timestamp": "2023-12-15T01:40:38Z",
      "version": 4,
      "changeset": 145132603,
      "user": "lferreyra",
      "uid": 4020269,
      "tags": {
        "amenity": "bar",
        "name": "Isabel de la Cruz"
      }
    },
    {
      "type": "node",
      "id": 2311226216,
      "lat": -33.6648995,
      "lon": -61.4643346,
      "timestamp": "2015-07-31T13:33:24Z",
      "version": 2,
      "changeset": 33006775,
      "user": "serock",
      "uid": 1810448,
      "tags": {
        "amenity": "pub",
        "name": "Casino"
      }
    },
    {
      "type": "node",
      "id": 2313825519,
      "lat": -32.426928,
      "lon": -63.7335655,
      "timestamp": "2015-02-01T15:48:41Z",
      "version": 2,
      "changeset": 28547886,
      "user": "tizzi",
      "uid": 1282411,
      "tags": {
        "amenity": "bar",
        "internet_access": "wlan",
        "internet_access:fee": "no",
        "name": "La Barra",
        "smoking": "no",
        "wheelchair": "yes"
      }
    },
    {
      "type": "node",
      "id": 2321993300,
      "lat": -39.165173,
      "lon": -66.1442055,
      "timestamp": "2013-05-27T14:34:29Z",
      "version": 1,
      "changeset": 16310547,
      "user": "davidfernandolastra",
      "uid": 1474858,
      "tags": {
        "amenity": "pub",
        "name": "Pub 01"
      }
    },
    {
      "type": "node",
      "id": 2328629949,
      "lat": -30.9919193,
      "lon": -64.5384486,
      "timestamp": "2013-06-01T22:48:49Z",
      "version": 1,
      "changeset": 16384536,
      "user": "LU7HQW",
      "uid": 1490249,
      "tags": {
        "amenity": "pub",
        "name": "Ala Pampa"
      }
    },
    {
      "type": "node",
      "id": 2328653483,
      "lat": -30.9747973,
      "lon": -64.4840461,
      "timestamp": "2013-06-01T23:08:10Z",
      "version": 1,
      "changeset": 16384700,
      "user": "LU7HQW",
      "uid": 1490249,
      "tags": {
        "amenity": "pub",
        "name": "Pub El Paso"
      }
    },
    {
      "type": "node",
      "id": 2356536405,
      "lat": -33.3007805,
      "lon": -66.3404749,
      "timestamp": "2013-06-22T21:44:46Z",
      "version": 1,
      "changeset": 16662076,
      "user": "doctork",
      "uid": 1552000,
      "tags": {
        "amenity": "bar"
      }
    },
    {
      "type": "node",
      "id": 2356536411,
      "lat": -33.2999555,
      "lon": -66.3461183,
      "timestamp": "2013-06-22T21:44:46Z",
      "version": 1,
      "changeset": 16662076,
      "user": "doctork",
      "uid": 1552000,
      "tags": {
        "amenity": "bar"
      }
    },
    {
      "type": "node",
      "id": 2356536416,
      "lat": -33.2999017,
      "lon": -66.3439725,
      "timestamp": "2013-06-22T21:44:46Z",
      "version": 1,
      "changeset": 16662076,
      "user": "doctork",
      "uid": 1552000,
      "tags": {
        "amenity": "bar"
      }
    },
    {
      "type": "node",
      "id": 2356536436,
      "lat": -33.3010069,
      "lon": -66.3411561,
      "timestamp": "2018-12-19T00:13:09Z",
      "version": 2,
      "changeset": 65596669,
      "user": "moon_walker",
      "uid": 8392691,
      "tags": {
        "amenity": "bar"
      }
    },
    {
      "type": "node",
      "id": 2375360706,
      "lat": -32.4106868,
      "lon": -63.2423894,
      "timestamp": "2023-09-09T22:45:47Z",
      "version": 4,
      "changeset": 141042254,
      "user": "KaiserOfNone",
      "uid": 20204756,
      "tags": {
        "addr:postcode": "5900",
        "air_conditioning": "yes",
        "amenity": "bar",
        "internet_access:fee": "customers",
        "name": "La Torre",
        "outdoor_seating": "yes",
        "survey:date": "2023-09-09",
        "wheelchair": "limited"
      }
    },
    {
      "type": "node",
      "id": 2376616486,
      "lat": -35.6240609,
      "lon": -61.3655788,
      "timestamp": "2013-07-06T23:16:07Z",
      "version": 1,
      "changeset": 16854613,
      "user": "Santi_Casares",
      "uid": 1618872,
      "tags": {
        "amenity": "pub",
        "name": "Puerto Tabla"
      }
    },
    {
      "type": "node",
      "id": 2376616491,
      "lat": -35.6259119,
      "lon": -61.3643423,
      "timestamp": "2018-11-12T21:55:57Z",
      "version": 2,
      "changeset": 64422661,
      "user": "cesarwal",
      "uid": 3358485,
      "tags": {
        "amenity": "pub",
        "name": "Puppies Video Pub",
        "outdoor_seating": "yes"
      }
    },
    {
      "type": "node",
      "id": 2376616493,
      "lat": -35.6231059,
      "lon": -61.3660267,
      "timestamp": "2013-07-06T23:16:08Z",
      "version": 1,
      "changeset": 16854613,
      "user": "Santi_Casares",
      "uid": 1618872,
      "tags": {
        "amenity": "pub",
        "name": "Guernica"
      }
    },
    {
      "type": "node",
      "id": 2393059801,
      "lat": -32.4266655,
      "lon": -63.2662187,
      "timestamp": "2017-06-27T01:58:58Z",
      "version": 3,
      "changeset": 49850507,
      "user": "lferreyra",
      "uid": 4020269,
      "tags": {
        "amenity": "bar",
        "name": "Meet"
      }
    },
    {
      "type": "node",
      "id": 2403835565,
      "lat": -31.426261,
      "lon": -62.1161721,
      "timestamp": "2013-08-01T15:22:20Z",
      "version": 1,
      "changeset": 17181100,
      "user": "davidzur",
      "uid": 878712,
      "tags": {
        "amenity": "pub",
        "name": "Runa Disco"
      }
    },
    {
      "type": "node",
      "id": 2408394119,
      "lat": -39.0532337,
      "lon": -67.3874337,
      "timestamp": "2013-08-06T02:05:46Z",
      "version": 1,
      "changeset": 17235604,
      "user": "Maxi Paz",
      "uid": 1704896,
      "tags": {
        "amenity": "pub",
        "name": "Keops Disco Bar"
      }
    },
    {
      "type": "node",
      "id": 2408394120,
      "lat": -39.0520923,
      "lon": -67.3934687,
      "timestamp": "2018-02-20T19:48:04Z",
      "version": 3,
      "changeset": 56530919,
      "user": "Diego Krein",
      "uid": 1777006,
      "tags": {
        "addr:city": "Cervantes",
        "addr:postcode": "8326",
        "amenity": "pub",
        "name": "Blasco"
      }
    },
    {
      "type": "node",
      "id": 2412788372,
      "lat": -33.3007495,
      "lon": -66.3407239,
      "timestamp": "2013-08-10T05:34:00Z",
      "version": 1,
      "changeset": 17287443,
      "user": "doctork",
      "uid": 1552000,
      "tags": {
        "amenity": "bar"
      }
    },
    {
      "type": "node",
      "id": 2412788382,
      "lat": -33.3068649,
      "lon": -66.3347909,
      "timestamp": "2013-08-10T05:34:00Z",
      "version": 1,
      "changeset": 17287443,
      "user": "doctork",
      "uid": 1552000,
      "tags": {
        "amenity": "bar"
      }
    },
    {
      "type": "node",
      "id": 2429432921,
      "lat": -31.8720648,
      "lon": -60.0118528,
      "timestamp": "2018-01-15T22:46:34Z",
      "version": 2,
      "changeset": 55477469,
      "user": "Diego Krein",
      "uid": 1777006,
      "tags": {
        "addr:city": "Viale",
        "addr:postcode": "3109",
        "addr:street": "25 de Mayo",
        "amenity": "pub",
        "name": "1906 Bar & Resto"
      }
    },
    {
      "type": "node",
      "id": 2432779265,
      "lat": -34.2680464,
      "lon": -62.7103766,
      "timestamp": "2024-05-18T19:19:01Z",
      "version": 2,
      "changeset": 151508684,
      "user": "HABmaps",
      "uid": 560942,
      "tags": {
        "amenity": "bar"
      }
    },
    {
      "type": "node",
      "id": 2454989479,
      "lat": -34.0575756,
      "lon": -62.5626557,
      "timestamp": "2013-09-12T04:51:45Z",
      "version": 1,
      "changeset": 17793361,
      "user": "nmollo",
      "uid": 1719054,
      "tags": {
        "amenity": "bar",
        "name": "Boliche Cullak"
      }
    },
    {
      "type": "node",
      "id": 2455934469,
      "lat": -37.011523,
      "lon": -62.4196949,
      "timestamp": "2017-06-01T14:12:46Z",
      "version": 2,
      "changeset": 49166372,
      "user": "Hernan",
      "uid": 72347,
      "tags": {
        "addr:city": "Guaminí",
        "addr:postcode": "6435",
        "amenity": "bar",
        "name": "Matute Bar"
      }
    },
    {
      "type": "node",
      "id": 2455936122,
      "lat": -37.0106356,
      "lon": -62.4190825,
      "timestamp": "2017-06-01T14:12:47Z",
      "version": 2,
      "changeset": 49166372,
      "user": "Hernan",
      "uid": 72347,
      "tags": {
        "addr:city": "Guaminí",
        "addr:postcode": "6435",
        "amenity": "bar",
        "name": "Club Social Guaminí"
      }
    },
    {
      "type": "node",
      "id": 2455938481,
      "lat": -37.0111563,
      "lon": -62.4201088,
      "timestamp": "2017-06-01T14:12:47Z",
      "version": 2,
      "changeset": 49166372,
      "user": "Hernan",
      "uid": 72347,
      "tags": {
        "addr:city": "Guaminí",
        "addr:postcode": "6435",
        "amenity": "bar",
        "name": "Club Peñarol Guaminí"
      }
    },
    {
      "type": "node",
      "id": 2455940821,
      "lat": -37.0133205,
      "lon": -62.4171376,
      "timestamp": "2017-06-01T14:12:47Z",
      "version": 2,
      "changeset": 49166372,
      "user": "Hernan",
      "uid": 72347,
      "tags": {
        "addr:city": "Guaminí",
        "addr:postcode": "6435",
        "amenity": "bar",
        "name": "Club Comercio Guaminí"
      }
    },
    {
      "type": "node",
      "id": 2455967903,
      "lat": -37.0098235,
      "lon": -62.4267088,
      "timestamp": "2017-06-01T14:12:47Z",
      "version": 3,
      "changeset": 49166372,
      "user": "Hernan",
      "uid": 72347,
      "tags": {
        "addr:city": "Guaminí",
        "addr:postcode": "6435",
        "addr:street": "La Zanja",
        "amenity": "bar",
        "name": "Club de Pesca"
      }
    },
    {
      "type": "node",
      "id": 2455973759,
      "lat": -37.0112139,
      "lon": -62.4203585,
      "timestamp": "2017-06-01T14:12:48Z",
      "version": 2,
      "changeset": 49166372,
      "user": "Hernan",
      "uid": 72347,
      "tags": {
        "amenity": "bar",
        "name": "Roka Disco"
      }
    },
    {
      "type": "node",
      "id": 2456012330,
      "lat": -37.0378428,
      "lon": -62.386673,
      "timestamp": "2021-08-16T03:24:02Z",
      "version": 4,
      "changeset": 109721294,
      "user": "lferreyra",
      "uid": 4020269,
      "tags": {
        "amenity": "bar",
        "name": "Bailanta Club 30 Bailable"
      }
    },
    {
      "type": "node",
      "id": 2459449125,
      "lat": -30.7632413,
      "lon": -64.7545596,
      "timestamp": "2013-09-15T15:26:47Z",
      "version": 1,
      "changeset": 17852083,
      "user": "Marceletor",
      "uid": 1642355,
      "tags": {
        "amenity": "bar"
      }
    },
    {
      "type": "node",
      "id": 2459981138,
      "lat": -30.4248963,
      "lon": -64.3536027,
      "timestamp": "2013-09-16T00:20:58Z",
      "version": 1,
      "changeset": 17860018,
      "user": "jgustavom",
      "uid": 1736731,
      "tags": {
        "addr:street": "25 de Mayo",
        "amenity": "pub",
        "name": "Kaos Megadisco"
      }
    },
    {
      "type": "node",
      "id": 2465889494,
      "lat": -35.6241848,
      "lon": -61.365151,
      "timestamp": "2014-01-17T18:38:13Z",
      "version": 2,
      "changeset": 20055364,
      "user": "Santi_Casares",
      "uid": 1618872,
      "tags": {
        "amenity": "pub",
        "name": "Seven"
      }
    },
    {
      "type": "node",
      "id": 2480794974,
      "lat": -32.9099959,
      "lon": -68.8473966,
      "timestamp": "2013-10-03T02:30:04Z",
      "version": 1,
      "changeset": 18154027,
      "user": "maurimiranda",
      "uid": 85478,
      "tags": {
        "amenity": "bar",
        "name": "Bombal Soho"
      }
    },
    {
      "type": "node",
      "id": 2491239160,
      "lat": -32.9003321,
      "lon": -68.8005731,
      "timestamp": "2013-10-10T14:30:19Z",
      "version": 1,
      "changeset": 18282218,
      "user": "Sefer",
      "uid": 657892,
      "tags": {
        "amenity": "bar",
        "name": "La Barrica"
      }
    },
    {
      "type": "node",
      "id": 2506666425,
      "lat": -35.6220022,
      "lon": -61.3661544,
      "timestamp": "2013-10-24T01:02:50Z",
      "version": 1,
      "changeset": 18512507,
      "user": "Santi_Casares",
      "uid": 1618872,
      "tags": {
        "amenity": "bar",
        "name": "Club San Martin"
      }
    },
    {
      "type": "node",
      "id": 2522809044,
      "lat": -36.8798308,
      "lon": -60.1795425,
      "timestamp": "2013-11-07T04:08:55Z",
      "version": 1,
      "changeset": 18758746,
      "user": "Souchong",
      "uid": 255141,
      "tags": {
        "amenity": "bar",
        "name": "El Tropezón"
      }
    },
    {
      "type": "node",
      "id": 2565613361,
      "lat": -32.9411331,
      "lon": -60.6374851,
      "timestamp": "2018-05-11T01:44:52Z",
      "version": 3,
      "changeset": 58865219,
      "user": "mweper",
      "uid": 1311281,
      "tags": {
        "amenity": "bar",
        "name": "Bar Berlin"
      }
    },
    {
      "type": "node",
      "id": 2608842285,
      "lat": -31.5384922,
      "lon": -68.5766561,
      "timestamp": "2020-05-26T20:49:44Z",
      "version": 4,
      "changeset": 85791284,
      "user": "guillemmal",
      "uid": 3036252,
      "tags": {
        "amenity": "pub",
        "name": "El Indio"
      }
    },
    {
      "type": "node",
      "id": 2659508668,
      "lat": -32.9409275,
      "lon": -60.6412895,
      "timestamp": "2014-02-07T17:40:55Z",
      "version": 2,
      "changeset": 20434715,
      "user": "mweper",
      "uid": 1311281,
      "tags": {
        "amenity": "bar",
        "name": "El Molino"
      }
    },
    {
      "type": "node",
      "id": 2703903899,
      "lat": -30.3583919,
      "lon": -63.9504736,
      "timestamp": "2022-01-08T22:50:36Z",
      "version": 2,
      "changeset": 115926420,
      "user": "CorazonDelator",
      "uid": 8127216,
      "tags": {
        "addr:city": "San José de la Dormida",
        "addr:postcode": "X5244",
        "addr:street": "Sarmiento",
        "amenity": "bar",
        "name": "La Terminal"
      }
    },
    {
      "type": "node",
      "id": 2711046661,
      "lat": -32.885074,
      "lon": -68.855223,
      "timestamp": "2014-11-30T00:45:22Z",
      "version": 3,
      "changeset": 27123171,
      "user": "Sefer",
      "uid": 657892,
      "tags": {
        "amenity": "pub",
        "name": "Praga"
      }
    },
    {
      "type": "node",
      "id": 2711318427,
      "lat": -32.8926065,
      "lon": -68.8525365,
      "timestamp": "2025-08-09T00:23:19Z",
      "version": 6,
      "changeset": 170179947,
      "user": "Pich14",
      "uid": 20877334,
      "tags": {
        "addr:city": "Mendoza",
        "addr:housenumber": "153",
        "addr:postcode": "5500",
        "addr:street": "Arístides Villanueva",
        "amenity": "bar",
        "name": "Antares",
        "website": "https://www.cervezaantares.com/"
      }
    },
    {
      "type": "node",
      "id": 2719594812,
      "lat": -35.7723528,
      "lon": -60.349098,
      "timestamp": "2014-03-15T18:45:51Z",
      "version": 1,
      "changeset": 21122354,
      "user": "Franklin_",
      "uid": 1838105,
      "tags": {
        "addr:city": "San Enrique",
        "amenity": "bar",
        "name": "Bar San Enrique"
      }
    },
    {
      "type": "node",
      "id": 2721783810,
      "lat": -31.4157152,
      "lon": -64.494817,
      "timestamp": "2018-03-04T20:51:28Z",
      "version": 2,
      "changeset": 56881484,
      "user": "serock",
      "uid": 1810448,
      "tags": {
        "amenity": "pub",
        "name": "Club Dub",
        "smoking": "no",
        "wheelchair": "no"
      }
    },
    {
      "type": "node",
      "id": 2721783814,
      "lat": -31.4160146,
      "lon": -64.4924167,
      "timestamp": "2014-03-16T19:12:01Z",
      "version": 1,
      "changeset": 21142802,
      "user": "tronsoftware",
      "uid": 1982813,
      "tags": {
        "amenity": "pub",
        "name": "Punta Hidalgo"
      }
    },
    {
      "type": "node",
      "id": 2721783815,
      "lat": -31.4176156,
      "lon": -64.4898279,
      "timestamp": "2014-03-16T19:12:01Z",
      "version": 1,
      "changeset": 21142802,
      "user": "tronsoftware",
      "uid": 1982813,
      "tags": {
        "amenity": "pub",
        "name": "Stefany Webber"
      }
    },
    {
      "type": "node",
      "id": 2721783816,
      "lat": -31.4182794,
      "lon": -64.5019457,
      "timestamp": "2018-03-04T20:51:28Z",
      "version": 3,
      "changeset": 56881484,
      "user": "serock",
      "uid": 1810448,
      "tags": {
        "amenity": "pub",
        "name": "Zebra Club",
        "smoking": "separated",
        "wheelchair": "yes"
      }
    },
    {
      "type": "node",
      "id": 2795401315,
      "lat": -31.4233695,
      "lon": -64.1861954,
      "timestamp": "2016-02-03T15:52:32Z",
      "version": 3,
      "changeset": 36979949,
      "user": "muralito",
      "uid": 755114,
      "tags": {
        "addr:city": "Córdoba",
        "addr:housenumber": "79",
        "addr:postcode": "5000",
        "addr:street": "San Lorenzo",
        "amenity": "bar",
        "description": "Happy Hour 18:30-20:30",
        "name": "Antares",
        "opening_hours": "Mo-Su 18:30-04:00",
        "phone": "+54 351 424 5785",
        "source": "http://www.cervezaantares.com/shops.php?iId=63",
        "website": "http://www.cervezaantares.com/shops.php?iId=63"
      }
    },
    {
      "type": "node",
      "id": 2795411530,
      "lat": -31.4213376,
      "lon": -64.1908733,
      "timestamp": "2017-08-01T15:03:01Z",
      "version": 4,
      "changeset": 50755621,
      "user": "Javierpf",
      "uid": 1984879,
      "tags": {
        "addr:city": "Córdoba",
        "addr:housenumber": "545",
        "addr:postcode": "5000",
        "addr:street": "Avenida Marcelo T. de Alvear",
        "amenity": "bar",
        "name": "Jerome Brew Pub Express Córdoba",
        "note": "Happy Hour 18:00-21:00 Cash Only",
        "opening_hours": "Mo-Su 18:00-04:30",
        "phone": "+54-351-(15)518-0354",
        "source": "https://www.facebook.com/JeromeBrewCba/info"
      }
    },
    {
      "type": "node",
      "id": 2806098395,
      "lat": -33.0108046,
      "lon": -69.1199097,
      "timestamp": "2014-04-21T13:25:28Z",
      "version": 1,
      "changeset": 21837829,
      "user": "ALE!",
      "uid": 40023,
      "tags": {
        "amenity": "pub"
      }
    },
    {
      "type": "node",
      "id": 2813483964,
      "lat": -32.9440885,
      "lon": -60.6806611,
      "timestamp": "2014-04-24T15:46:24Z",
      "version": 1,
      "changeset": 21910568,
      "user": "mweper",
      "uid": 1311281,
      "tags": {
        "amenity": "bar",
        "internet_access": "wlan",
        "name": "Roma"
      }
    },
    {
      "type": "node",
      "id": 2813483965,
      "lat": -32.9464857,
      "lon": -60.6670121,
      "timestamp": "2019-04-16T22:09:48Z",
      "version": 3,
      "changeset": 69284792,
      "user": "wheelmap_visitor",
      "uid": 290680,
      "tags": {
        "amenity": "bar",
        "name": "Wilfredo",
        "toilets:wheelchair": "yes",
        "wheelchair": "yes"
      }
    },
    {
      "type": "node",
      "id": 2826936570,
      "lat": -30.9442525,
      "lon": -61.5622252,
      "timestamp": "2016-03-06T03:02:11Z",
      "version": 3,
      "changeset": 37638291,
      "user": "mweper",
      "uid": 1311281,
      "tags": {
        "amenity": "bar",
        "name": "Bar Unión"
      }
    },
    {
      "type": "node",
      "id": 2826936574,
      "lat": -30.9451597,
      "lon": -61.5619263,
      "timestamp": "2015-02-04T14:35:49Z",
      "version": 2,
      "changeset": 28611842,
      "user": "sbenve",
      "uid": 2597997,
      "tags": {
        "amenity": "bar",
        "name": "Bar Coliseo"
      }
    },
    {
      "type": "node",
      "id": 2912626849,
      "lat": -30.0190813,
      "lon": -60.106215,
      "timestamp": "2014-06-12T12:10:03Z",
      "version": 1,
      "changeset": 22887743,
      "user": "VictorPighin",
      "uid": 2108152,
      "tags": {
        "amenity": "pub",
        "name": "Buffet"
      }
    },
    {
      "type": "node",
      "id": 2934666053,
      "lat": -35.9706521,
      "lon": -62.734677,
      "timestamp": "2020-11-24T17:06:10Z",
      "version": 2,
      "changeset": 94719565,
      "user": "CM_TL",
      "uid": 11792903,
      "tags": {
        "addr:city": "Trenque Lauquen",
        "addr:country": "AR",
        "addr:postcode": "6400",
        "addr:province": "Buenos Aires",
        "addr:state": "Buenos Aires",
        "amenity": "bar",
        "name": "Pepe Botella"
      }
    },
    {
      "type": "node",
      "id": 2939872447,
      "lat": -32.9293405,
      "lon": -60.7322816,
      "timestamp": "2014-06-29T22:39:47Z",
      "version": 1,
      "changeset": 23303986,
      "user": "mweper",
      "uid": 1311281,
      "tags": {
        "amenity": "pub",
        "name": "Antártida"
      }
    },
    {
      "type": "node",
      "id": 3005586877,
      "lat": -32.6218512,
      "lon": -60.1572487,
      "timestamp": "2014-11-01T16:04:56Z",
      "version": 2,
      "changeset": 26484878,
      "user": "FabriH",
      "uid": 1853057,
      "tags": {
        "amenity": "pub",
        "name": "El Banco Pub",
        "source": "http://victoria.tur.ar/index.php/el-banco-pub/"
      }
    },
    {
      "type": "node",
      "id": 3005586880,
      "lat": -32.6209928,
      "lon": -60.158107,
      "timestamp": "2014-11-01T16:04:56Z",
      "version": 2,
      "changeset": 26484878,
      "user": "FabriH",
      "uid": 1853057,
      "tags": {
        "amenity": "bar",
        "name": "Plaza Bar",
        "source": "http://victoria.tur.ar/index.php/plaza-bar/"
      }
    },
    {
      "type": "node",
      "id": 3009664278,
      "lat": -32.0683602,
      "lon": -64.538896,
      "timestamp": "2024-06-23T21:54:09Z",
      "version": 4,
      "changeset": 153087063,
      "user": "diegodlh",
      "uid": 70105,
      "tags": {
        "addr:city": "Santa Rosa de Calamuchita",
        "addr:housenumber": "74",
        "addr:postcode": "5196",
        "addr:street": "Güemes",
        "amenity": "bar",
        "check_date": "2024-06-23",
        "email": "kamama_bowling@hotmail.com",
        "name": "Kamama Bowling",
        "opening_hours": "Sa,Su 19:00+; Nov-Apr: Mo-Su 19:00+",
        "smoking": "no"
      }
    },
    {
      "type": "node",
      "id": 3047474738,
      "lat": -32.9291198,
      "lon": -60.8178947,
      "timestamp": "2025-07-27T14:47:01Z",
      "version": 10,
      "changeset": 169563037,
      "user": "mweper",
      "uid": 1311281,
      "tags": {
        "addr:postcode": "S2132",
        "addr:street": "Avenida Fuerza Aérea",
        "amenity": "bar",
        "indoor_seating": "yes",
        "name": "Beatles & Rolling Bar",
        "outdoor_seating": "no",
        "smoking": "no",
        "source_ref": "http://www.impulsonegocios.com/contenidos/2014/02/24/Editorial_29504.php",
        "wheelchair": "limited"
      }
    },
    {
      "type": "node",
      "id": 3065966925,
      "lat": -30.9813928,
      "lon": -64.0900075,
      "timestamp": "2014-09-07T21:31:48Z",
      "version": 1,
      "changeset": 25296208,
      "user": "mweper",
      "uid": 1311281,
      "tags": {
        "amenity": "bar",
        "name": "Franceschi"
      }
    },
    {
      "type": "node",
      "id": 3066718534,
      "lat": -31.4225364,
      "lon": -64.1925794,
      "timestamp": "2015-11-26T14:44:39Z",
      "version": 2,
      "changeset": 35592418,
      "user": "Javierpf",
      "uid": 1984879,
      "tags": {
        "addr:street": "Avenida Marcelo T. de Alvear",
        "amenity": "bar",
        "name": "La Rambla"
      }
    },
    {
      "type": "node",
      "id": 3088009968,
      "lat": -31.3312156,
      "lon": -63.6228256,
      "timestamp": "2014-09-20T19:07:22Z",
      "version": 1,
      "changeset": 25565993,
      "user": "GustavoGB",
      "uid": 2349368,
      "tags": {
        "amenity": "pub",
        "name": "Il Sonno - Pub Resto-Bar",
        "note": "Viernes Después de 24 Hs, Pub-Boliche"
      }
    },
    {
      "type": "node",
      "id": 3093482370,
      "lat": -32.9506589,
      "lon": -60.6451425,
      "timestamp": "2014-09-24T03:59:10Z",
      "version": 1,
      "changeset": 25637454,
      "user": "mweper",
      "uid": 1311281,
      "tags": {
        "amenity": "bar",
        "name": "La Esquina"
      }
    },
    {
      "type": "node",
      "id": 3101137027,
      "lat": -32.6930567,
      "lon": -62.1050142,
      "timestamp": "2023-03-20T14:21:34Z",
      "version": 3,
      "changeset": 133901498,
      "user": "PulisakZ",
      "uid": 9026132,
      "tags": {
        "amenity": "bar",
        "fixme": "name"
      }
    },
    {
      "type": "node",
      "id": 3101258996,
      "lat": -32.6952048,
      "lon": -62.1055305,
      "timestamp": "2014-09-28T23:18:46Z",
      "version": 1,
      "changeset": 25736550,
      "user": "eliasgauna",
      "uid": 2034112,
      "tags": {
        "amenity": "bar",
        "name": "El Vestidor"
      }
    },
    {
      "type": "node",
      "id": 3102351466,
      "lat": -32.6955024,
      "lon": -62.1042039,
      "timestamp": "2014-09-29T17:26:50Z",
      "version": 1,
      "changeset": 25751338,
      "user": "eliasgauna",
      "uid": 2034112,
      "tags": {
        "amenity": "pub",
        "name": "Wok Pub"
      }
    },
    {
      "type": "node",
      "id": 3116428661,
      "lat": -33.0393257,
      "lon": -68.8804175,
      "timestamp": "2014-10-07T12:05:53Z",
      "version": 1,
      "changeset": 25916035,
      "user": "Sefer",
      "uid": 657892,
      "tags": {
        "amenity": "bar"
      }
    },
    {
      "type": "node",
      "id": 3128565260,
      "lat": -32.9855543,
      "lon": -68.8810572,
      "timestamp": "2014-10-13T23:00:57Z",
      "version": 1,
      "changeset": 26061645,
      "user": "Facundes",
      "uid": 1761345,
      "tags": {
        "addr:housenumber": "5572",
        "addr:street": "Italia",
        "amenity": "pub",
        "name": "Jerome Brew Pub Chacras de Coria"
      }
    },
    {
      "type": "node",
      "id": 3132221714,
      "lat": -31.429339,
      "lon": -64.1853648,
      "timestamp": "2025-06-22T02:33:48Z",
      "version": 6,
      "changeset": 167935940,
      "user": "FRodriguez78741",
      "uid": 22688196,
      "tags": {
        "addr:city": "Córdoba",
        "addr:housenumber": "1028",
        "addr:postcode": "X5000",
        "addr:street": "Boulevard Chacabuco",
        "amenity": "bar",
        "name": "HEISENBERG – BAR & LAB",
        "opening_hours": "Mo-Su 09:30-02:30",
        "phone": "03517318038",
        "smoking": "outside",
        "website": "https://heisenbergbar.ar/"
      }
    },
    {
      "type": "node",
      "id": 3167052074,
      "lat": -30.3949871,
      "lon": -64.1236864,
      "timestamp": "2022-01-09T18:36:20Z",
      "version": 2,
      "changeset": 115953849,
      "user": "CorazonDelator",
      "uid": 8127216,
      "tags": {
        "addr:street": "Sarmiento",
        "amenity": "bar",
        "name": "Piedra Libre Resto Bar"
      }
    },
    {
      "type": "node",
      "id": 3167052078,
      "lat": -30.3941891,
      "lon": -64.1220799,
      "timestamp": "2025-04-09T04:41:31Z",
      "version": 2,
      "changeset": 164705161,
      "user": "serock",
      "uid": 1810448,
      "tags": {
        "amenity": "pub",
        "name": "Mala Espina"
      }
    },
    {
      "type": "node",
      "id": 3170973402,
      "lat": -30.8602565,
      "lon": -64.5253016,
      "timestamp": "2015-01-08T17:55:47Z",
      "version": 2,
      "changeset": 28002024,
      "user": "Humitos",
      "uid": 1609009,
      "tags": {
        "amenity": "bar",
        "name": "Aristo Resto Bar"
      }
    },
    {
      "type": "node",
      "id": 3170974224,
      "lat": -30.8586018,
      "lon": -64.5227332,
      "timestamp": "2014-11-06T20:10:49Z",
      "version": 1,
      "changeset": 26601300,
      "user": "Humitos",
      "uid": 1609009,
      "tags": {
        "amenity": "pub",
        "name": "Resto Pub"
      }
    },
    {
      "type": "node",
      "id": 3198613305,
      "lat": -32.9535826,
      "lon": -60.6356085,
      "timestamp": "2024-04-19T03:49:12Z",
      "version": 11,
      "changeset": 150201286,
      "user": "HABmaps",
      "uid": 560942,
      "tags": {
        "addr:city": "Rosario",
        "addr:country": "AR",
        "addr:housenumber": "1301",
        "addr:postcode": "2000",
        "addr:state": "Santa Fe",
        "addr:street": "Francisco Narciso Laprida",
        "amenity": "bar",
        "contact:facebook": "baryrestosamsara",
        "contact:phone": "+54 341 421-7955",
        "name": "Samsara",
        "smoking": "outside"
      }
    },
    {
      "type": "node",
      "id": 3221722471,
      "lat": -32.1066651,
      "lon": -64.7538246,
      "timestamp": "2014-12-06T14:16:11Z",
      "version": 1,
      "changeset": 27290589,
      "user": "Víctor L",
      "uid": 485898,
      "tags": {
        "amenity": "bar"
      }
    },
    {
      "type": "node",
      "id": 3225036419,
      "lat": -32.9869606,
      "lon": -68.8841899,
      "timestamp": "2014-12-08T15:43:34Z",
      "version": 1,
      "changeset": 27336696,
      "user": "Facundes",
      "uid": 1761345,
      "tags": {
        "addr:housenumber": "1371",
        "addr:street": "Mitre",
        "amenity": "bar",
        "name": "Willis Bar"
      }
    },
    {
      "type": "node",
      "id": 3238175216,
      "lat": -31.6519208,
      "lon": -64.4422293,
      "timestamp": "2014-12-16T16:54:38Z",
      "version": 2,
      "changeset": 27511514,
      "user": "Patricio Del Boca",
      "uid": 2524005,
      "tags": {
        "amenity": "bar",
        "name": "Waxy O'Connors",
        "smoking": "outside"
      }
    },
    {
      "type": "node",
      "id": 3238181965,
      "lat": -31.6563216,
      "lon": -64.437903,
      "timestamp": "2022-07-13T09:26:10Z",
      "version": 3,
      "changeset": 123554421,
      "user": "Patricio Del Boca",
      "uid": 2524005,
      "tags": {
        "amenity": "bar",
        "name": "Pizzeria Popular",
        "smoking": "outside"
      }
    },
    {
      "type": "node",
      "id": 3252032674,
      "lat": -33.1690779,
      "lon": -60.525203,
      "timestamp": "2017-07-24T22:44:05Z",
      "version": 3,
      "changeset": 50541752,
      "user": "mweper",
      "uid": 1311281,
      "tags": {
        "addr:city": "Arroyo Seco",
        "addr:postcode": "S2128",
        "addr:street": "Colectora Este Autopista",
        "amenity": "bar",
        "name": "Mikha Summer Dance Club",
        "opening_hours": "Sa 01:00-07:00",
        "smoking": "yes"
      }
    },
    {
      "type": "node",
      "id": 3253384292,
      "lat": -31.3646534,
      "lon": -64.2044815,
      "timestamp": "2014-12-26T11:44:58Z",
      "version": 1,
      "changeset": 27706555,
      "user": "nicolasefs",
      "uid": 2537550,
      "tags": {
        "amenity": "bar"
      }
    },
    {
      "type": "node",
      "id": 3254709314,
      "lat": -30.867138,
      "lon": -61.3540949,
      "timestamp": "2019-05-19T09:34:58Z",
      "version": 5,
      "changeset": 70405291,
      "user": "facucaldo",
      "uid": 2532177,
      "tags": {
        "addr:city": "Humberto Primo",
        "addr:postcode": "S2309",
        "addr:street": "Bulevar San Martín",
        "amenity": "pub",
        "name": "Ernestina",
        "smoking": "outside"
      }
    },
    {
      "type": "node",
      "id": 3269904093,
      "lat": -33.6321938,
      "lon": -64.0243753,
      "timestamp": "2015-01-05T04:51:43Z",
      "version": 1,
      "changeset": 27925390,
      "user": "Martin Muszio",
      "uid": 1925337,
      "tags": {
        "amenity": "bar",
        "name": "Tarkus Bar"
      }
    },
    {
      "type": "node",
      "id": 3271079961,
      "lat": -33.6160872,
      "lon": -69.0206532,
      "timestamp": "2020-10-26T04:19:25Z",
      "version": 2,
      "changeset": 93036698,
      "user": "patodiez",
      "uid": 1856060,
      "tags": {
        "amenity": "bar"
      }
    },
    {
      "type": "node",
      "id": 3291249153,
      "lat": -32.9156935,
      "lon": -62.4560311,
      "timestamp": "2015-01-15T22:25:06Z",
      "version": 1,
      "changeset": 28174976,
      "user": "Oli A",
      "uid": 2112050,
      "tags": {
        "amenity": "bar"
      }
    },
    {
      "type": "node",
      "id": 3291249154,
      "lat": -32.9156215,
      "lon": -62.4540355,
      "timestamp": "2015-01-15T22:25:06Z",
      "version": 1,
      "changeset": 28174976,
      "user": "Oli A",
      "uid": 2112050,
      "tags": {
        "amenity": "bar"
      }
    },
    {
      "type": "node",
      "id": 3292345097,
      "lat": -38.9530028,
      "lon": -68.0603169,
      "timestamp": "2015-01-16T13:36:48Z",
      "version": 1,
      "changeset": 28186934,
      "user": "Sefer",
      "uid": 657892,
      "tags": {
        "amenity": "pub",
        "name": "Bar Pool Bolacero"
      }
    },
    {
      "type": "node",
      "id": 3292538848,
      "lat": -38.9515821,
      "lon": -68.2295788,
      "timestamp": "2015-01-16T15:21:48Z",
      "version": 1,
      "changeset": 28189802,
      "user": "Sefer",
      "uid": 657892,
      "tags": {
        "amenity": "bar",
        "name": "Chaly Brown"
      }
    },
    {
      "type": "node",
      "id": 3309787334,
      "lat": -31.6356973,
      "lon": -60.6994419,
      "timestamp": "2024-04-09T13:46:48Z",
      "version": 4,
      "changeset": 149778354,
      "user": "HABmaps",
      "uid": 560942,
      "tags": {
        "addr:city": "Santa Fe",
        "addr:country": "AR",
        "addr:housenumber": "3572",
        "addr:state": "Santa Fe",
        "addr:street": "República de Siria",
        "amenity": "bar",
        "name": "Tribus",
        "wheelchair": "no"
      }
    },
    {
      "type": "node",
      "id": 3309806693,
      "lat": -31.6350896,
      "lon": -60.6981089,
      "timestamp": "2018-10-02T19:38:52Z",
      "version": 2,
      "changeset": 63123106,
      "user": "wheelmap_visitor",
      "uid": 290680,
      "tags": {
        "amenity": "bar",
        "name": "Bar Belgrano",
        "wheelchair": "yes"
      }
    },
    {
      "type": "node",
      "id": 3309806694,
      "lat": -31.6320583,
      "lon": -60.6971885,
      "timestamp": "2024-04-09T13:49:10Z",
      "version": 3,
      "changeset": 149778493,
      "user": "HABmaps",
      "uid": 560942,
      "tags": {
        "addr:city": "Santa Fe",
        "addr:country": "AR",
        "addr:housenumber": "3998",
        "addr:postcode": "S3000",
        "addr:state": "Santa Fe",
        "addr:street": "Belgrano",
        "amenity": "bar",
        "name": "Oliver Restó & Cocktail Bar"
      }
    },
    {
      "type": "node",
      "id": 3312727461,
      "lat": -33.8451863,
      "lon": -65.1658013,
      "timestamp": "2015-07-19T16:36:49Z",
      "version": 2,
      "changeset": 32736259,
      "user": "pablopareja",
      "uid": 211657,
      "tags": {
        "amenity": "bar",
        "name": "Bar Pool"
      }
    },
    {
      "type": "node",
      "id": 3312801409,
      "lat": -32.7547237,
      "lon": -63.7912977,
      "timestamp": "2015-01-26T20:40:06Z",
      "version": 1,
      "changeset": 28427626,
      "user": "Sebamalatini",
      "uid": 2605201,
      "tags": {
        "amenity": "bar",
        "name": "Sociedad Italiana"
      }
    },
    {
      "type": "node",
      "id": 3328512463,
      "lat": -31.7230989,
      "lon": -65.0067793,
      "timestamp": "2017-02-25T15:32:51Z",
      "version": 3,
      "changeset": 46395811,
      "user": "serock",
      "uid": 1810448,
      "tags": {
        "amenity": "bar",
        "name": "Lash Bar"
      }
    },
    {
      "type": "node",
      "id": 3328512476,
      "lat": -31.7219409,
      "lon": -65.0039177,
      "timestamp": "2017-02-26T17:11:36Z",
      "version": 4,
      "changeset": 46420689,
      "user": "serock",
      "uid": 1810448,
      "tags": {
        "amenity": "bar",
        "name": "Wanted"
      }
    },
    {
      "type": "node",
      "id": 3329841496,
      "lat": -31.7123449,
      "lon": -65.0073314,
      "timestamp": "2018-03-04T20:51:29Z",
      "version": 3,
      "changeset": 56881484,
      "user": "serock",
      "uid": 1810448,
      "tags": {
        "amenity": "biergarten",
        "name": "Parador Brochero"
      }
    },
    {
      "type": "node",
      "id": 3331355817,
      "lat": -34.5849211,
      "lon": -60.9385293,
      "timestamp": "2015-02-05T05:51:07Z",
      "version": 1,
      "changeset": 28624287,
      "user": "Teso89",
      "uid": 2627653,
      "tags": {
        "amenity": "bar",
        "name": "Lugano"
      }
    },
    {
      "type": "node",
      "id": 3379211756,
      "lat": -31.0007204,
      "lon": -64.4779061,
      "timestamp": "2016-08-19T18:42:30Z",
      "version": 2,
      "changeset": 41559543,
      "user": "Nenufar",
      "uid": 563805,
      "tags": {
        "amenity": "bar",
        "name": "El Pungo"
      }
    },
    {
      "type": "node",
      "id": 3392691426,
      "lat": -32.8890982,
      "lon": -68.8216781,
      "timestamp": "2018-09-20T20:16:46Z",
      "version": 2,
      "changeset": 62776389,
      "user": "Sefer",
      "uid": 657892,
      "tags": {
        "amenity": "bar",
        "name": "Pedro Navajas"
      }
    },
    {
      "type": "node",
      "id": 3415103592,
      "lat": -35.7730223,
      "lon": -61.3341161,
      "timestamp": "2021-01-31T22:14:39Z",
      "version": 2,
      "changeset": 98469084,
      "user": "CorazonDelator",
      "uid": 8127216,
      "tags": {
        "addr:city": "Cadret",
        "addr:postcode": "6535",
        "addr:street": "San Martín",
        "amenity": "bar",
        "name": "La Vieja Esquina"
      }
    },
    {
      "type": "node",
      "id": 3432795098,
      "lat": -31.7349516,
      "lon": -60.5284651,
      "timestamp": "2022-08-27T14:45:30Z",
      "version": 2,
      "changeset": 125445394,
      "user": "Kadubei",
      "uid": 16642036,
      "tags": {
        "amenity": "bar",
        "name": "Bar La Copa"
      }
    },
    {
      "type": "node",
      "id": 3438240911,
      "lat": -32.906012,
      "lon": -60.9071527,
      "timestamp": "2015-04-04T21:57:21Z",
      "version": 1,
      "changeset": 29982161,
      "user": "mweper",
      "uid": 1311281,
      "tags": {
        "amenity": "bar",
        "name": "Troya Bar",
        "note": "Solo Mayores",
        "outdoor_seating": "yes"
      }
    },
    {
      "type": "node",
      "id": 3457704002,
      "lat": -32.8818941,
      "lon": -68.8367365,
      "timestamp": "2024-04-07T16:10:37Z",
      "version": 3,
      "changeset": 149699131,
      "user": "X25",
      "uid": 20860281,
      "tags": {
        "addr:housenumber": "1835",
        "addr:street": "Remedios de Escalada",
        "amenity": "bar"
      }
    },
    {
      "type": "node",
      "id": 3457704008,
      "lat": -32.8821023,
      "lon": -68.8367823,
      "timestamp": "2024-04-07T16:10:05Z",
      "version": 2,
      "changeset": 149699131,
      "user": "X25",
      "uid": 20860281,
      "tags": {
        "addr:street": "Remedios de Escalada",
        "amenity": "bar",
        "check_date": "2024-04-07",
        "name": "Oh Madrid Bar"
      }
    },
    {
      "type": "node",
      "id": 3464201539,
      "lat": -33.1149515,
      "lon": -64.3821705,
      "timestamp": "2015-04-18T21:28:04Z",
      "version": 1,
      "changeset": 30316989,
      "user": "tizzi",
      "uid": 1282411,
      "tags": {
        "amenity": "biergarten",
        "name": "Luis María & Cía"
      }
    },
    {
      "type": "node",
      "id": 3510684300,
      "lat": -32.882259,
      "lon": -68.8353922,
      "timestamp": "2024-02-22T23:41:49Z",
      "version": 3,
      "changeset": 147792980,
      "user": "Sefer",
      "uid": 657892,
      "tags": {
        "amenity": "bar"
      }
    },
    {
      "type": "node",
      "id": 3520912540,
      "lat": -34.765403,
      "lon": -61.8908593,
      "timestamp": "2015-05-16T02:45:31Z",
      "version": 2,
      "changeset": 31192280,
      "user": "Lucas Piriz",
      "uid": 2918544,
      "tags": {
        "amenity": "pub",
        "name": "El Siglo"
      }
    },
    {
      "type": "node",
      "id": 3520950880,
      "lat": -34.7637768,
      "lon": -61.8906617,
      "timestamp": "2015-05-16T02:45:18Z",
      "version": 1,
      "changeset": 31192276,
      "user": "Lucas Piriz",
      "uid": 2918544,
      "tags": {
        "amenity": "pub",
        "name": "Day Dream"
      }
    },
    {
      "type": "node",
      "id": 3520951251,
      "lat": -34.7635078,
      "lon": -61.8906322,
      "timestamp": "2015-05-16T02:44:58Z",
      "version": 1,
      "changeset": 31192273,
      "user": "Lucas Piriz",
      "uid": 2918544,
      "tags": {
        "amenity": "pub",
        "name": "Retro Bar"
      }
    },
    {
      "type": "node",
      "id": 3524703602,
      "lat": -31.5428628,
      "lon": -68.5252955,
      "timestamp": "2025-02-15T22:19:59Z",
      "version": 5,
      "changeset": 162552983,
      "user": "guillemmal",
      "uid": 3036252,
      "tags": {
        "amenity": "bar",
        "name": "La Ramada Bar"
      }
    },
    {
      "type": "node",
      "id": 3542102908,
      "lat": -31.0217069,
      "lon": -64.0615006,
      "timestamp": "2015-05-24T18:11:29Z",
      "version": 1,
      "changeset": 31426038,
      "user": "Federico Conci",
      "uid": 1742842,
      "tags": {
        "amenity": "pub",
        "name": "Il Castello",
        "outdoor_seating": "yes",
        "shop": "coffee"
      }
    },
    {
      "type": "node",
      "id": 3563862204,
      "lat": -31.6573532,
      "lon": -64.4351619,
      "timestamp": "2019-03-04T19:33:04Z",
      "version": 4,
      "changeset": 67779521,
      "user": "serock",
      "uid": 1810448,
      "tags": {
        "amenity": "bar",
        "name": "La Mision"
      }
    },
    {
      "type": "node",
      "id": 3575221959,
      "lat": -32.9842507,
      "lon": -68.8796603,
      "timestamp": "2015-06-05T18:44:01Z",
      "version": 1,
      "changeset": 31753049,
      "user": "Sefer",
      "uid": 657892,
      "tags": {
        "addr:housenumber": "5723",
        "addr:street": "Italia",
        "amenity": "bar",
        "name": "Bar La Piadina"
      }
    },
    {
      "type": "node",
      "id": 3593509712,
      "lat": -34.5853426,
      "lon": -60.9496577,
      "timestamp": "2015-06-13T22:49:18Z",
      "version": 2,
      "changeset": 31952596,
      "user": "Teso89",
      "uid": 2627653,
      "tags": {
        "addr:city": "Junín",
        "addr:housenumber": "449",
        "addr:street": "Avenida Roque Sáenz Peña",
        "amenity": "bar",
        "name": "City Rock"
      }
    },
    {
      "type": "node",
      "id": 3598988650,
      "lat": -34.586263,
      "lon": -60.9492599,
      "timestamp": "2015-06-16T16:49:57Z",
      "version": 1,
      "changeset": 32010600,
      "user": "Teso89",
      "uid": 2627653,
      "tags": {
        "amenity": "bar",
        "name": "Bistró resto-bar"
      }
    },
    {
      "type": "node",
      "id": 3605679879,
      "lat": -32.9435379,
      "lon": -60.6562265,
      "timestamp": "2024-04-19T03:47:07Z",
      "version": 7,
      "changeset": 150201259,
      "user": "HABmaps",
      "uid": 560942,
      "tags": {
        "addr:city": "Rosario",
        "addr:country": "AR",
        "addr:housenumber": "816",
        "addr:postcode": "2000",
        "addr:state": "Santa Fe",
        "addr:street": "Santiago",
        "amenity": "bar",
        "cafe": "yes",
        "description": "Es un espacio que combina venta y servicio integral para bicicletas con cafetería y menúes ejecutivos.",
        "name": "Rondinella",
        "operator": "Leonardo Giménez",
        "shop": "bicycle",
        "source": "http://www.impulsonegocios.com/contenidos/2015/06/19/Editorial_36239.php"
      }
    },
    {
      "type": "node",
      "id": 3610776291,
      "lat": -33.4593059,
      "lon": -61.4858243,
      "timestamp": "2015-06-22T13:53:43Z",
      "version": 1,
      "changeset": 32139359,
      "user": "Richard RC",
      "uid": 3005676,
      "tags": {
        "amenity": "bar",
        "name": "Zippo Bar"
      }
    },
    {
      "type": "node",
      "id": 3610784182,
      "lat": -38.6936631,
      "lon": -62.1993109,
      "timestamp": "2022-02-11T18:06:22Z",
      "version": 3,
      "changeset": 117297756,
      "user": "Pablo Rodriguez",
      "uid": 2400059,
      "tags": {
        "addr:city": "Bahía Blanca",
        "addr:housenumber": "1661",
        "addr:street": "Hernandarias",
        "amenity": "bar",
        "name": "El Peladero"
      }
    },
    {
      "type": "node",
      "id": 3615107789,
      "lat": -31.4238499,
      "lon": -64.1871848,
      "timestamp": "2025-06-02T00:29:30Z",
      "version": 2,
      "changeset": 167071112,
      "user": "PepeDiOro",
      "uid": 3537499,
      "tags": {
        "amenity": "bar",
        "name": "5 elementos"
      }
    },
    {
      "type": "node",
      "id": 3615107790,
      "lat": -31.4264675,
      "lon": -64.1846828,
      "timestamp": "2015-06-24T12:32:26Z",
      "version": 1,
      "changeset": 32182470,
      "user": "Patricio Del Boca",
      "uid": 2524005,
      "tags": {
        "amenity": "pub",
        "name": "Clark's Irish Pub"
      }
    },
    {
      "type": "node",
      "id": 3649840590,
      "lat": -31.6521207,
      "lon": -64.4433387,
      "timestamp": "2015-07-14T01:59:30Z",
      "version": 1,
      "changeset": 32617367,
      "user": "Patricio Del Boca",
      "uid": 2524005,
      "tags": {
        "amenity": "bar",
        "name": "Leyendas"
      }
    },
    {
      "type": "node",
      "id": 3673455719,
      "lat": -31.0931472,
      "lon": -64.4834581,
      "timestamp": "2021-08-30T03:18:43Z",
      "version": 2,
      "changeset": 110432575,
      "user": "serock",
      "uid": 1810448,
      "tags": {
        "amenity": "bar",
        "name": "Confitería Marco Polo"
      }
    },
    {
      "type": "node",
      "id": 3673455721,
      "lat": -31.093211,
      "lon": -64.4839821,
      "timestamp": "2015-07-30T13:38:35Z",
      "version": 1,
      "changeset": 32980534,
      "user": "VictorPighin",
      "uid": 2108152,
      "tags": {
        "amenity": "bar",
        "name": "El merendero"
      }
    },
    {
      "type": "node",
      "id": 3673455780,
      "lat": -31.0931332,
      "lon": -64.482966,
      "timestamp": "2015-07-30T13:38:37Z",
      "version": 1,
      "changeset": 32980534,
      "user": "VictorPighin",
      "uid": 2108152,
      "tags": {
        "amenity": "bar"
      }
    },
    {
      "type": "node",
      "id": 3682575239,
      "lat": -31.2532508,
      "lon": -61.4891291,
      "timestamp": "2020-01-19T04:41:27Z",
      "version": 5,
      "changeset": 79746464,
      "user": "CorazonDelator",
      "uid": 8127216,
      "tags": {
        "addr:city": "Rafaela",
        "addr:housenumber": "356",
        "addr:postcode": "S2300",
        "addr:street": "Santa Fe",
        "amenity": "bar",
        "name": "Tres56 Resto-Bar",
        "phone": "54 (3492) 50-6356",
        "smoking": "outside"
      }
    },
    {
      "type": "node",
      "id": 3717346820,
      "lat": -31.6342871,
      "lon": -60.7083765,
      "timestamp": "2024-04-09T13:46:48Z",
      "version": 5,
      "changeset": 149778354,
      "user": "HABmaps",
      "uid": 560942,
      "tags": {
        "addr:city": "Santa Fe",
        "addr:country": "AR",
        "addr:postcode": "S3000",
        "addr:state": "Santa Fe",
        "addr:street": "Bulevar Pellegrini",
        "amenity": "bar",
        "name": "Morpheus",
        "smoking": "outside",
        "wheelchair": "limited"
      }
    },
    {
      "type": "node",
      "id": 3723517918,
      "lat": -31.643091,
      "lon": -60.7008273,
      "timestamp": "2024-04-09T13:46:48Z",
      "version": 3,
      "changeset": 149778354,
      "user": "HABmaps",
      "uid": 560942,
      "tags": {
        "addr:city": "Santa Fe",
        "addr:country": "AR",
        "addr:postcode": "S3000",
        "addr:state": "Santa Fe",
        "addr:street": "Belgrano",
        "amenity": "bar",
        "name": "Bar Terminal"
      }
    },
    {
      "type": "node",
      "id": 3725536559,
      "lat": -32.9573683,
      "lon": -60.6391882,
      "timestamp": "2024-04-19T03:49:12Z",
      "version": 10,
      "changeset": 150201286,
      "user": "HABmaps",
      "uid": 560942,
      "tags": {
        "addr:city": "Rosario",
        "addr:country": "AR",
        "addr:housenumber": "998",
        "addr:postcode": "2000",
        "addr:state": "Santa Fe",
        "addr:street": "Avenida Carlos Pellegrini",
        "amenity": "pub",
        "microbrewery": "yes",
        "name": "Kuhstall",
        "opening_hours": "18:00-03:00",
        "outdoor_seating": "yes"
      }
    },
    {
      "type": "node",
      "id": 3725539403,
      "lat": -32.9583314,
      "lon": -60.633776,
      "timestamp": "2016-09-26T18:27:43Z",
      "version": 2,
      "changeset": 42452927,
      "user": "mweper",
      "uid": 1311281,
      "tags": {
        "amenity": "bar",
        "name": "Menggano"
      }
    },
    {
      "type": "node",
      "id": 3731652776,
      "lat": -32.9644391,
      "lon": -60.6339718,
      "timestamp": "2015-09-06T14:53:56Z",
      "version": 1,
      "changeset": 33834458,
      "user": "Carlos Brys",
      "uid": 189520,
      "tags": {
        "amenity": "bar"
      }
    },
    {
      "type": "node",
      "id": 3732033451,
      "lat": -30.4205582,
      "lon": -60.9995878,
      "timestamp": "2015-09-06T18:47:14Z",
      "version": 1,
      "changeset": 33839537,
      "user": "Cecilia Morelli",
      "uid": 3218875,
      "tags": {
        "amenity": "bar",
        "name": "Club Defensores de La Lucila"
      }
    },
    {
      "type": "node",
      "id": 3733726822,
      "lat": -31.142828,
      "lon": -61.6050077,
      "timestamp": "2015-09-07T22:00:36Z",
      "version": 1,
      "changeset": 33869149,
      "user": "Paula A",
      "uid": 3216721,
      "tags": {
        "amenity": "bar",
        "name": "Bar, abandonado en la actualidad"
      }
    },
    {
      "type": "node",
      "id": 3733843696,
      "lat": -33.075383,
      "lon": -60.6325679,
      "timestamp": "2015-09-08T13:09:24Z",
      "version": 2,
      "changeset": 33882191,
      "user": "mweper",
      "uid": 1311281,
      "tags": {
        "amenity": "bar",
        "name": "oil"
      }
    },
    {
      "type": "node",
      "id": 3736609260,
      "lat": -30.6972764,
      "lon": -61.0480759,
      "timestamp": "2019-03-12T12:33:34Z",
      "version": 6,
      "changeset": 68060501,
      "user": "mweper",
      "uid": 1311281,
      "tags": {
        "addr:city": "Elisa",
        "addr:postcode": "S3029",
        "addr:street": "Bulevar San Francisco",
        "amenity": "bar",
        "name": "Cryde",
        "opening_hours": "20:00-24:00"
      }
    },
    {
      "type": "node",
      "id": 3738069437,
      "lat": -30.697336,
      "lon": -61.0496058,
      "timestamp": "2017-07-24T23:21:04Z",
      "version": 6,
      "changeset": 50542150,
      "user": "mweper",
      "uid": 1311281,
      "tags": {
        "addr:city": "Elisa",
        "addr:postcode": "S3029",
        "amenity": "biergarten",
        "fixme": "Detallar mejor el horario con la sintaxis correcta",
        "name": "Cryde",
        "opening_hours": "Dec-Feb",
        "smoking": "outside"
      }
    },
    {
      "type": "node",
      "id": 3740299137,
      "lat": -32.8815297,
      "lon": -68.8462349,
      "timestamp": "2017-05-07T17:51:53Z",
      "version": 4,
      "changeset": 48481286,
      "user": "Javier Gutiérrez",
      "uid": 3261834,
      "tags": {
        "addr:housenumber": "1779",
        "addr:postcode": "5500",
        "addr:street": "Perú",
        "amenity": "bar",
        "cuisine": "local",
        "email": "zonatangomza@gmail.com",
        "name": "La Zona Tango",
        "opening_hours": "Mo-Su 11:00-14:00, 20:00-20:45, 22:15-23:00",
        "phone": "+5492615196027"
      }
    },
    {
      "type": "node",
      "id": 3744249525,
      "lat": -31.7453719,
      "lon": -60.5264086,
      "timestamp": "2022-07-12T11:50:29Z",
      "version": 3,
      "changeset": 123517736,
      "user": "AndresDuhour",
      "uid": 2985830,
      "tags": {
        "addr:city": "Parana",
        "addr:postcode": "3100",
        "addr:street": "Maipú",
        "amenity": "bar",
        "name": "Bar Maipú"
      }
    },
    {
      "type": "node",
      "id": 3769958148,
      "lat": -32.2181944,
      "lon": -65.0490096,
      "timestamp": "2020-11-22T02:54:12Z",
      "version": 3,
      "changeset": 94567287,
      "user": "CorazonDelator",
      "uid": 8127216,
      "tags": {
        "amenity": "bar",
        "name": "El Cierbo"
      }
    },
    {
      "type": "node",
      "id": 3779074505,
      "lat": -32.0644862,
      "lon": -64.5399537,
      "timestamp": "2022-01-26T19:32:47Z",
      "version": 5,
      "changeset": 116635885,
      "user": "RafaLopez",
      "uid": 3186364,
      "tags": {
        "addr:city": "Santa Rosa de Calamuchita",
        "addr:street": "Avenida Jose Maria Gómez",
        "amenity": "bar",
        "brand": "Bandera Blanca",
        "name": "Bar La Estación",
        "operator": "RIVERO MARIA ALISIA"
      }
    },
    {
      "type": "node",
      "id": 3788009046,
      "lat": -32.9512927,
      "lon": -60.6488452,
      "timestamp": "2024-04-19T03:49:12Z",
      "version": 7,
      "changeset": 150201286,
      "user": "HABmaps",
      "uid": 560942,
      "tags": {
        "addr:city": "Rosario",
        "addr:country": "AR",
        "addr:housenumber": "1751",
        "addr:postcode": "2000",
        "addr:state": "Santa Fe",
        "addr:street": "3 de Febrero",
        "amenity": "bar",
        "contact:facebook": "https://www.fb.com/UPAR-Bar-1684050301827297/",
        "contact:phone": "+54 341 421-4357",
        "contact:website": "http://www.upar.com.ar/",
        "internet_access": "wlan",
        "name": "Restobar Upar",
        "opening_hours": "Mo-Su 07:00-22:00"
      }
    },
    {
      "type": "node",
      "id": 3790754097,
      "lat": -37.048649,
      "lon": -69.8722072,
      "timestamp": "2015-10-17T21:15:57Z",
      "version": 1,
      "changeset": 34701662,
      "user": "serock",
      "uid": 1810448,
      "tags": {
        "amenity": "bar"
      }
    },
    {
      "type": "node",
      "id": 3815394149,
      "lat": -32.3671351,
      "lon": -62.3076135,
      "timestamp": "2015-11-03T11:33:03Z",
      "version": 1,
      "changeset": 35053923,
      "user": "Griselda Cerisole",
      "uid": 3353377,
      "tags": {
        "amenity": "bar"
      }
    },
    {
      "type": "node",
      "id": 3816374024,
      "lat": -31.3677139,
      "lon": -64.109191,
      "timestamp": "2016-04-08T04:36:44Z",
      "version": 3,
      "changeset": 38396660,
      "user": "dbusse",
      "uid": 149876,
      "tags": {
        "amenity": "bar",
        "name": "CLUB- BAR DE VILLA ESQUIU"
      }
    },
    {
      "type": "node",
      "id": 3819948478,
      "lat": -31.3217196,
      "lon": -63.1877481,
      "timestamp": "2015-11-06T02:07:44Z",
      "version": 1,
      "changeset": 35116476,
      "user": "Norma Vasquez",
      "uid": 3364993,
      "tags": {
        "amenity": "bar",
        "name": "La Quemada"
      }
    },
    {
      "type": "node",
      "id": 3830038664,
      "lat": -30.9361056,
      "lon": -61.1651045,
      "timestamp": "2017-07-24T22:53:36Z",
      "version": 3,
      "changeset": 50541752,
      "user": "mweper",
      "uid": 1311281,
      "tags": {
        "addr:city": "Soutomayor",
        "addr:postcode": "S3025",
        "addr:street": "Ruta Provincial Secundaria 80",
        "amenity": "bar",
        "covered": "yes",
        "name": "Los amigos",
        "smoking": "outside"
      }
    },
    {
      "type": "node",
      "id": 3851814358,
      "lat": -31.7227087,
      "lon": -65.0036738,
      "timestamp": "2018-03-04T20:51:32Z",
      "version": 4,
      "changeset": 56881484,
      "user": "serock",
      "uid": 1810448,
      "tags": {
        "amenity": "bar",
        "name": "Pericles"
      }
    },
    {
      "type": "node",
      "id": 3857936031,
      "lat": -33.1769267,
      "lon": -64.9943438,
      "timestamp": "2015-11-25T00:21:48Z",
      "version": 1,
      "changeset": 35562828,
      "user": "serock",
      "uid": 1810448,
      "tags": {
        "amenity": "pub",
        "name": "Pub Bailable"
      }
    },
    {
      "type": "node",
      "id": 3899199876,
      "lat": -31.1762401,
      "lon": -65.1026061,
      "timestamp": "2021-08-30T03:18:43Z",
      "version": 2,
      "changeset": 110432575,
      "user": "serock",
      "uid": 1810448,
      "tags": {
        "amenity": "bar",
        "name": "Confitería",
        "operator": "San Carlos"
      }
    },
    {
      "type": "node",
      "id": 3899199877,
      "lat": -31.1759463,
      "lon": -65.1025363,
      "timestamp": "2021-08-30T03:18:43Z",
      "version": 2,
      "changeset": 110432575,
      "user": "serock",
      "uid": 1810448,
      "tags": {
        "amenity": "bar",
        "name": "Confitería"
      }
    },