{
  "version": 0.6,
  "generator": "Overpass API 0.7.62.8 e802775f",
  "osm3s": {
    "timestamp_osm_base": "2025-10-23T20:05:36Z",
    "copyright": "The data included in this document is from www.openstreetmap.org. The data is made available under ODbL."
  },
  "elements": [
    {
      "type": "node",
      "id": 811199613,
      "lat": 22.2255432,
      "lon": 114.1115731,
      "timestamp": "2022-04-18T08:10:21Z",
      "version": 7,
      "changeset": 119844566,
      "user": "Dragonhk",
      "uid": 15230995,
      "tags": {
        "addr:city": "南丫島 Lamma Island",
        "addr:housenumber": "54",
        "addr:street": "榕樹灣大街 Yung Shue Wan Main Street",
        "amenity": "pub",
        "name": "Jing Jing Bar",
        "name:en": "Jing Jing Bar"
      }
    },
    {
      "type": "node",
      "id": 857781306,
      "lat": 22.3171237,
      "lon": 114.1907849,
      "timestamp": "2021-03-05T03:26:35Z",
      "version": 2,
      "changeset": 100455174,
      "user": "minghong",
      "uid": 541214,
      "tags": {
        "amenity": "pub"
      }
    },
    {
      "type": "node",
      "id": 1022477187,
      "lat": 22.2877118,
      "lon": 114.1575062,
      "timestamp": "2024-04-27T06:33:42Z",
      "version": 9,
      "changeset": 150565894,
      "user": "Wright One",
      "uid": 261189,
      "tags": {
        "addr:street": "Pier 3",
        "amenity": "bar",
        "brewery": "yes;various",
        "name": "Beer Point",
        "outdoor_seating": "no",
        "wheelchair": "yes"
      }
    },
    {
      "type": "node",
      "id": 1095710459,
      "lat": 22.2822876,
      "lon": 114.155017,
      "timestamp": "2024-04-16T01:23:35Z",
      "version": 9,
      "changeset": 150062536,
      "user": "Wright One",
      "uid": 261189,
      "tags": {
        "addr:housenumber": "74",
        "addr:street": "威靈頓街 Wellington Street",
        "amenity": "pub",
        "name": "Woke"
      }
    },
    {
      "type": "node",
      "id": 1106515969,
      "lat": 22.2963303,
      "lon": 114.1716934,
      "timestamp": "2024-06-10T14:18:14Z",
      "version": 10,
      "changeset": 152500350,
      "user": "Wright One",
      "uid": 261189,
      "tags": {
        "addr:housenumber": "71-77",
        "addr:street": "北京道 Peking Road",
        "amenity": "pub",
        "internet_access": "wlan",
        "level": "-1",
        "name": "Delaney's Irish Pub",
        "name:en": "Delaney's Irish Pub",
        "name:ru": "Гинес ничего!",
        "wheelchair": "limited"
      }
    },
    {
      "type": "node",
      "id": 1106574324,
      "lat": 22.2780656,
      "lon": 114.1707275,
      "timestamp": "2018-04-18T13:27:54Z",
      "version": 6,
      "changeset": 58201296,
      "user": "Wright One",
      "uid": 261189,
      "tags": {
        "addr:street": "駱克道 Lockhart Road",
        "amenity": "pub",
        "name": "The White Stag",
        "name:en": "The White Stag",
        "source": "Kaart Ground Survey 2017"
      }
    },
    {
      "type": "node",
      "id": 1106670852,
      "lat": 22.28164,
      "lon": 114.1530438,
      "timestamp": "2017-08-22T23:57:27Z",
      "version": 5,
      "changeset": 51358956,
      "user": "FlyTy",
      "uid": 6095805,
      "tags": {
        "amenity": "pub",
        "food": "yes",
        "name": "The Yorkshire Pudding",
        "name:en": "The Yorkshire Pudding",
        "note": "Cricket on the TV (at least when England are in the process of winning the Ashes in Australia)"
      }
    },
    {
      "type": "node",
      "id": 1106907865,
      "lat": 22.2759891,
      "lon": 114.1801061,
      "timestamp": "2024-10-13T15:02:14Z",
      "version": 7,
      "changeset": 157839191,
      "user": "Wright One",
      "uid": 261189,
      "tags": {
        "addr:street": "摩理臣山道 Morrison Hill Road",
        "amenity": "pub",
        "food": "yes",
        "name": "The Derby",
        "name:en": "The Derby",
        "ref:openrice": "9421"
      }
    },
    {
      "type": "node",
      "id": 1131818044,
      "lat": 22.321161,
      "lon": 114.1879543,
      "timestamp": "2011-02-02T01:09:39Z",
      "version": 1,
      "changeset": 7161032,
      "user": "MCU",
      "uid": 402370,
      "tags": {
        "amenity": "pub"
      }
    },
    {
      "type": "node",
      "id": 1350927302,
      "lat": 22.297658,
      "lon": 114.1780673,
      "timestamp": "2013-09-01T12:55:25Z",
      "version": 3,
      "changeset": 17616731,
      "user": "hlaw",
      "uid": 169827,
      "tags": {
        "addr:unit": "G6,UG16",
        "amenity": "pub",
        "name": "Brotzeit German Bier Bar & Restaurant",
        "name:en": "Brotzeit German Bier Bar & Restaurant"
      }
    },
    {
      "type": "node",
      "id": 1571059914,
      "lat": 22.2818289,
      "lon": 114.1530253,
      "timestamp": "2023-10-16T19:57:16Z",
      "version": 4,
      "changeset": 142682075,
      "user": "HolloWorld",
      "uid": 6946532,
      "tags": {
        "addr:housenumber": "9",
        "addr:street": "士丹頓街 Staunton Street",
        "amenity": "bar",
        "name": "Bar Bleu"
      }
    },
    {
      "type": "node",
      "id": 1936999125,
      "lat": 24.4462643,
      "lon": 118.0838497,
      "timestamp": "2012-09-28T16:33:50Z",
      "version": 1,
      "changeset": 13286795,
      "user": "Richard2468",
      "uid": 538931,
      "tags": {
        "amenity": "bar",
        "name": "Helen's"
      }
    },
    {
      "type": "node",
      "id": 2113149056,
      "lat": 22.2077577,
      "lon": 114.0333112,
      "timestamp": "2013-01-16T02:36:00Z",
      "version": 1,
      "changeset": 14668161,
      "user": "Elron",
      "uid": 204590,
      "tags": {
        "amenity": "pub"
      }
    },
    {
      "type": "node",
      "id": 2140273112,
      "lat": 22.282449,
      "lon": 114.152852,
      "timestamp": "2018-06-18T14:08:14Z",
      "version": 2,
      "changeset": 59946668,
      "user": "Wright One",
      "uid": 261189,
      "tags": {
        "addr:housename": "Garley Building",
        "addr:housenumber": "45-53",
        "addr:street": "嘉咸街 Graham Street",
        "amenity": "pub",
        "name": "The Globe",
        "ref:openrice": "42291",
        "website": "http://www.theglobe.com.hk",
        "wifi": "no"
      }
    },
    {
      "type": "node",
      "id": 2155652808,
      "lat": 22.5056955,
      "lon": 114.1276366,
      "timestamp": "2019-09-22T09:48:23Z",
      "version": 2,
      "changeset": 74767922,
      "user": "Wright One",
      "uid": 261189,
      "tags": {
        "addr:housenumber": "17",
        "addr:street": "新健街 San Kin Street",
        "amenity": "pub",
        "name": "JJ Pub"
      }
    },
    {
      "type": "node",
      "id": 2155652810,
      "lat": 22.50392,
      "lon": 114.12754,
      "timestamp": "2021-06-04T15:35:39Z",
      "version": 5,
      "changeset": 105847825,
      "user": "Kovoschiz",
      "uid": 6250193,
      "tags": {
        "addr:housenumber": "35-39",
        "addr:plot:ref": "DD91 3901",
        "addr:street": "Fu Hing Street",
        "amenity": "pub",
        "level": "0",
        "name": "適雅餐廳 Better Ole",
        "name:en": "Better Ole",
        "name:zh": "適雅餐廳",
        "ref:openrice": "153"
      }
    },
    {
      "type": "node",
      "id": 2163896071,
      "lat": 22.264292,
      "lon": 114.001883,
      "timestamp": "2018-05-02T15:02:27Z",
      "version": 2,
      "changeset": 58617843,
      "user": "HolloWorld",
      "uid": 6946532,
      "tags": {
        "amenity": "pub",
        "name": "China Bear",
        "name:en": "China Bear"
      }
    },
    {
      "type": "node",
      "id": 2247811359,
      "lat": 22.2856908,
      "lon": 114.1589395,
      "timestamp": "2025-01-22T03:29:37Z",
      "version": 4,
      "changeset": 161621742,
      "user": "cnvery",
      "uid": 3627342,
      "tags": {
        "addr:housename": "Podium Level 3",
        "addr:housenumber": "8",
        "addr:street": "Finance St.",
        "amenity": "bar",
        "name": "Red Bar",
        "name:en": "Red Bar",
        "source": "852-81298882",
        "website": "http://www.pure-red.com/en/hongkong/"
      }
    },
    {
      "type": "node",
      "id": 2247820098,
      "lat": 22.278666,
      "lon": 114.1701437,
      "timestamp": "2025-02-01T14:26:38Z",
      "version": 10,
      "changeset": 162012819,
      "user": "cnvery",
      "uid": 3627342,
      "tags": {
        "addr:housenumber": "54",
        "addr:street": "Jaffe Road",
        "amenity": "bar",
        "name": "The Wanch",
        "name:en": "The Wanch",
        "opening_hours": "Mo-Su,PH 16:00-03:00+",
        "source": "(852)28611621",
        "website": "https://www.reverbnation.com/venue/thewanch"
      }
    },
    {
      "type": "node",
      "id": 2247830957,
      "lat": 22.2954573,
      "lon": 114.1720177,
      "timestamp": "2019-03-30T23:32:05Z",
      "version": 5,
      "changeset": 68712043,
      "user": "b-jazz-bot",
      "uid": 9451067,
      "tags": {
        "addr:housename": "Peninsular Hotel",
        "addr:street": "Salisbury Road, Kowloon",
        "amenity": "bar",
        "name": "Felix Bar",
        "website": "https://www.peninsula.com/Hong_Kong/en/Dining/Felix/default.aspx"
      }
    },
    {
      "type": "node",
      "id": 2247834709,
      "lat": 22.2797029,
      "lon": 114.1552367,
      "timestamp": "2015-01-11T08:27:38Z",
      "version": 2,
      "changeset": 28056754,
      "user": "msdess",
      "uid": 593205,
      "tags": {
        "addr:housename": "G/F",
        "addr:housenumber": "2",
        "addr:street": "Glenealy",
        "amenity": "bar",
        "name": "Hush",
        "source": "852-25372281"
      }
    },
    {
      "type": "node",
      "id": 2247841484,
      "lat": 22.2860562,
      "lon": 114.2159126,
      "timestamp": "2015-05-15T17:53:56Z",
      "version": 4,
      "changeset": 31183277,
      "user": "wheelmap_visitor",
      "uid": 290680,
      "tags": {
        "addr:housenumber": "29",
        "addr:street": "Taikoo Shing Rd",
        "amenity": "bar",
        "name": "Sugar Bar + Deck + Lodge",
        "source": "852-39683738",
        "website": "http://www.sugar-hongkong.com/en/Pages/index.aspx",
        "wheelchair": "yes"
      }
    },
    {
      "type": "node",
      "id": 2247849935,
      "lat": 22.278055,
      "lon": 114.1708616,
      "timestamp": "2023-08-30T11:50:34Z",
      "version": 6,
      "changeset": 140584538,
      "user": "HolloWorld",
      "uid": 6946532,
      "tags": {
        "addr:floor": "5/F",
        "addr:housenumber": "54-62",
        "addr:street": "駱克道 Lockhart Road",
        "amenity": "bar",
        "name": "Trafalgar Bar",
        "source": "(852)21101535",
        "website": "https://trafalgar.com.hk/"
      }
    },
    {
      "type": "node",
      "id": 2249521779,
      "lat": 23.0628809,
      "lon": 113.1413108,
      "timestamp": "2013-04-05T00:31:31Z",
      "version": 1,
      "changeset": 15614562,
      "user": "changchun_1",
      "uid": 131968,
      "tags": {
        "amenity": "pub",
        "name": "Lazy Papa's"
      }
    },
    {
      "type": "node",
      "id": 2249521817,
      "lat": 23.0627418,
      "lon": 113.1411433,
      "timestamp": "2013-04-05T00:31:32Z",
      "version": 1,
      "changeset": 15614562,
      "user": "changchun_1",
      "uid": 131968,
      "tags": {
        "amenity": "bar",
        "name": "Rich Baby"
      }
    },
    {
      "type": "node",
      "id": 2249521818,
      "lat": 23.0622495,
      "lon": 113.1414313,
      "timestamp": "2013-04-05T00:36:20Z",
      "version": 2,
      "changeset": 15614576,
      "user": "changchun_1",
      "uid": 131968,
      "tags": {
        "amenity": "bar",
        "name": "Victoria Fashion Club"
      }
    },
    {
      "type": "node",
      "id": 2363054847,
      "lat": 25.9739142,
      "lon": 117.3541175,
      "timestamp": "2013-06-27T13:23:31Z",
      "version": 1,
      "changeset": 16726711,
      "user": "mrkef",
      "uid": 1519426,
      "tags": {
        "amenity": "pub",
        "name": "Zero Five Bar"
      }
    },
    {
      "type": "node",
      "id": 2363054849,
      "lat": 25.9808127,
      "lon": 117.3592083,
      "timestamp": "2013-06-27T13:23:31Z",
      "version": 1,
      "changeset": 16726711,
      "user": "mrkef",
      "uid": 1519426,
      "tags": {
        "amenity": "bar",
        "name": "Blue Bird Music Bar"
      }
    },
    {
      "type": "node",
      "id": 2380714856,
      "lat": 22.5211213,
      "lon": 113.9333942,
      "timestamp": "2023-08-29T11:21:21Z",
      "version": 3,
      "changeset": 140536369,
      "user": "cEvLGWiQ",
      "uid": 5432507,
      "tags": {
        "amenity": "bar",
        "name": "Suzy's Lounge Bar",
        "name:en": "Suzy's Lounge Bar",
        "website": "https://www.suzy.nu"
      }
    },
    {
      "type": "node",
      "id": 2383786695,
      "lat": 22.2865702,
      "lon": 114.193093,
      "timestamp": "2024-12-01T03:15:58Z",
      "version": 6,
      "changeset": 159793691,
      "user": "cnvery",
      "uid": 3627342,
      "tags": {
        "amenity": "bar",
        "brand": "太平洋酒吧 Bar Pacific",
        "brand:en": "Bar Pacific",
        "brand:wikidata": "Q28445474",
        "brand:zh": "太平洋酒吧",
        "name": "Bar Pacific",
        "name:en": "Bar Pacific",
        "name:zh": "太平洋酒吧",
        "name:zh-Hans": "太平洋酒吧",
        "name:zh-Hant": "太平洋酒吧"
      }
    },
    {
      "type": "node",
      "id": 2441266963,
      "lat": 22.2997714,
      "lon": 114.1783491,
      "timestamp": "2019-08-18T04:27:10Z",
      "version": 2,
      "changeset": 73455479,
      "user": "jonathanchik",
      "uid": 10130685,
      "tags": {
        "amenity": "bar",
        "name": "噴泉咖啡屋 Cafe de Fontaine",
        "name:en": "Cafe de Fontaine",
        "name:zh": "噴泉咖啡屋"
      }
    },
    {
      "type": "node",
      "id": 2466257099,
      "lat": 22.5377109,
      "lon": 114.0484084,
      "timestamp": "2023-07-21T18:29:24Z",
      "version": 5,
      "changeset": 138826205,
      "user": "cEvLGWiQ",
      "uid": 5432507,
      "tags": {
        "addr:city": "深圳市",
        "addr:district": "福田区",
        "addr:housename": "购物公园 Gouwu Gongyuan",
        "addr:housenumber": "151-152",
        "addr:postcode": "518048",
        "addr:province": "广东省",
        "addr:street": "福华路",
        "amenity": "pub",
        "name": "McCawley's Irish Pub",
        "phone": "+86 755 2531 3599",
        "website": "http://www.mccawleys.com/ft/"
      }
    },
    {
      "type": "node",
      "id": 2519454374,
      "lat": 22.4807206,
      "lon": 113.9284041,
      "timestamp": "2013-11-04T05:30:42Z",
      "version": 1,
      "changeset": 18706510,
      "user": "MrBoot",
      "uid": 114770,
      "tags": {
        "amenity": "bar",
        "name": "Captain's Bar"
      }
    },
    {
      "type": "node",
      "id": 2560879529,
      "lat": 22.2996364,
      "lon": 114.1722581,
      "timestamp": "2019-09-06T04:27:17Z",
      "version": 2,
      "changeset": 74156357,
      "user": "jonathanchik",
      "uid": 10130685,
      "tags": {
        "amenity": "bar",
        "name": "Cocky Bar"
      }
    },
    {
      "type": "node",
      "id": 2643938894,
      "lat": 22.5592042,
      "lon": 113.8747465,
      "timestamp": "2021-12-25T11:22:58Z",
      "version": 4,
      "changeset": 115357449,
      "user": "XD346",
      "uid": 4892967,
      "tags": {
        "amenity": "bar",
        "name": "40°",
        "name:en": "40 Degrees",
        "name:zh": "40渡"
      }
    },
    {
      "type": "node",
      "id": 2679755217,
      "lat": 26.0634337,
      "lon": 119.2707719,
      "timestamp": "2014-02-19T02:32:41Z",
      "version": 1,
      "changeset": 20648805,
      "user": "starrysky",
      "uid": 1924888,
      "tags": {
        "amenity": "bar",
        "name": "北纬26度"
      }
    },
    {
      "type": "node",
      "id": 2727973352,
      "lat": 23.077705,
      "lon": 114.3807294,
      "timestamp": "2014-03-20T01:24:27Z",
      "version": 1,
      "changeset": 21203013,
      "user": "zhuxl",
      "uid": 1994022,
      "tags": {
        "amenity": "bar",
        "name": "瑶芳酒吧"
      }
    },
    {
      "type": "node",
      "id": 2760881097,
      "lat": 23.018794,
      "lon": 113.1043,
      "timestamp": "2014-04-02T14:15:21Z",
      "version": 1,
      "changeset": 21459175,
      "user": "Skurch",
      "uid": 2013651,
      "tags": {
        "amenity": "bar",
        "name": "Lazy Mama's"
      }
    },
    {
      "type": "node",
      "id": 2781777528,
      "lat": 28.420372,
      "lon": 117.604909,
      "timestamp": "2014-04-10T16:38:41Z",
      "version": 1,
      "changeset": 21610834,
      "user": "hanchao",
      "uid": 499500,
      "tags": {
        "amenity": "bar",
        "name": "海阔天空KTV"
      }
    },
    {
      "type": "node",
      "id": 2786430892,
      "lat": 28.2054005,
      "lon": 112.9696933,
      "timestamp": "2014-04-12T20:47:05Z",
      "version": 1,
      "changeset": 21653587,
      "user": "j19495403",
      "uid": 1992865,
      "tags": {
        "amenity": "bar"
      }
    },
    {
      "type": "node",
      "id": 2786477872,
      "lat": 28.2008324,
      "lon": 112.9687722,
      "timestamp": "2014-04-12T21:11:12Z",
      "version": 1,
      "changeset": 21654059,
      "user": "j19495403",
      "uid": 1992865,
      "tags": {
        "amenity": "bar"
      }
    },
    {
      "type": "node",
      "id": 2786480725,
      "lat": 28.2003192,
      "lon": 112.970515,
      "timestamp": "2014-04-12T21:12:34Z",
      "version": 1,
      "changeset": 21654082,
      "user": "j19495403",
      "uid": 1992865,
      "tags": {
        "amenity": "bar"
      }
    },
    {
      "type": "node",
      "id": 2841177991,
      "lat": 22.5407034,
      "lon": 114.0910111,
      "timestamp": "2014-05-07T05:46:53Z",
      "version": 1,
      "changeset": 22179828,
      "user": "tartanabroad",
      "uid": 1749066,
      "tags": {
        "addr:city": "Shenzhen",
        "addr:street": "上步路",
        "amenity": "bar",
        "name": "Hawa Cafe"
      }
    },
    {
      "type": "node",
      "id": 2886626241,
      "lat": 22.296516,
      "lon": 114.0161475,
      "timestamp": "2025-08-20T08:01:39Z",
      "version": 4,
      "changeset": 170709461,
      "user": "Kovoschiz",
      "uid": 6250193,
      "tags": {
        "addr:city": "愉景灣 Discovery Bay",
        "addr:door": "Shop G09",
        "addr:street": "Block A, DB Plaza",
        "amenity": "bar",
        "name": "Hemingway's",
        "name:en": "Hemingway's",
        "website": "https://www.facebook.com/pages/Hemingways-DB, http://www.ddeck.com.hk/icms2/template?series=282&article=4357,"
      }
    },
    {
      "type": "node",
      "id": 2969465583,
      "lat": 24.0586995,
      "lon": 116.8591921,
      "timestamp": "2014-07-18T22:02:49Z",
      "version": 1,
      "changeset": 24230746,
      "user": "winter_t2",
      "uid": 2167656,
      "tags": {
        "amenity": "pub",
        "name": "金迪KTV"
      }
    },
    {
      "type": "node",
      "id": 3023869634,
      "lat": 22.5380844,
      "lon": 114.0611141,
      "timestamp": "2014-08-18T06:52:03Z",
      "version": 1,
      "changeset": 24824366,
      "user": "jiwangbobo",
      "uid": 2269846,
      "tags": {
        "amenity": "bar"
      }
    },
    {
      "type": "node",
      "id": 3100104705,
      "lat": 22.1968486,
      "lon": 113.5553971,
      "timestamp": "2025-03-06T03:02:18Z",
      "version": 2,
      "changeset": 163267952,
      "user": "cnvery",
      "uid": 3627342,
      "tags": {
        "amenity": "bar",
        "name": "富豪吧 Kingpin Bar",
        "name:en": "Kingpin Bar",
        "name:zh": "富豪吧",
        "name:zh-Hans": "富豪吧",
        "name:zh-Hant": "富豪吧"
      }
    },
    {
      "type": "node",
      "id": 3100110601,
      "lat": 22.197251,
      "lon": 113.5557102,
      "timestamp": "2025-03-06T03:02:18Z",
      "version": 2,
      "changeset": 163267952,
      "user": "cnvery",
      "uid": 3627342,
      "tags": {
        "amenity": "bar",
        "name": "運財閣 Good Luck Corner",
        "name:en": "Good Luck Corner",
        "name:zh": "運財閣",
        "name:zh-Hans": "运财阁",
        "name:zh-Hant": "運財閣"
      }
    },
    {
      "type": "node",
      "id": 3100110603,
      "lat": 22.1969119,
      "lon": 113.5536747,
      "timestamp": "2025-04-12T06:10:51Z",
      "version": 2,
      "changeset": 164841544,
      "user": "cnvery",
      "uid": 3627342,
      "tags": {
        "amenity": "bar",
        "name": "騎士吧",
        "name:zh": "騎士吧",
        "name:zh-Hans": "骑士吧",
        "name:zh-Hant": "騎士吧",
        "opening_hours": "24/7",
        "phone": "+853 2872 6288"
      }
    },
    {
      "type": "node",
      "id": 3105517194,
      "lat": 22.2303499,
      "lon": 113.5023363,
      "timestamp": "2014-10-01T15:01:19Z",
      "version": 1,
      "changeset": 25791674,
      "user": "Hartmut1971",
      "uid": 2371630,
      "tags": {
        "amenity": "pub"
      }
    },
    {
      "type": "node",
      "id": 3121807840,
      "lat": 26.0926149,
      "lon": 119.2847407,
      "timestamp": "2014-10-10T08:18:16Z",
      "version": 1,
      "changeset": 25977558,
      "user": "mabh233",
      "uid": 2300774,
      "tags": {
        "amenity": "bar",
        "name": "西区66酒吧"
      }
    },
    {
      "type": "node",
      "id": 3127296229,
      "lat": 26.668539,
      "lon": 119.516036,
      "timestamp": "2015-06-26T15:23:07Z",
      "version": 2,
      "changeset": 32227717,
      "user": "mabh233",
      "uid": 2300774,
      "tags": {
        "address": "蕉城北路新佳坡步行街 352100 寧德市, 福建省, 中國",
        "amenity": "bar",
        "kml_folder": "酒吧/夜總會",
        "name": "后海酒吧"
      }
    },
    {
      "type": "node",
      "id": 3147681032,
      "lat": 22.7893862,
      "lon": 113.2866271,
      "timestamp": "2014-10-24T16:22:33Z",
      "version": 1,
      "changeset": 26303350,
      "user": "juntaochn",
      "uid": 2422661,
      "tags": {
        "amenity": "bar"
      }
    },
    {
      "type": "node",
      "id": 3174954270,
      "lat": 28.6852199,
      "lon": 115.9301902,
      "timestamp": "2023-08-29T07:29:21Z",
      "version": 5,
      "changeset": 140526340,
      "user": "cEvLGWiQ",
      "uid": 5432507,
      "tags": {
        "addr:housenumber": "183",
        "addr:postcode": "330000",
        "addr:street": "南京东路",
        "amenity": "pub",
        "name": "凤祥春酒店",
        "phone": "+86 791 8810 7173;+86 791 8810 8121"
      }
    },
    {
      "type": "node",
      "id": 3198263625,
      "lat": 22.3049799,
      "lon": 114.1731905,
      "timestamp": "2014-11-21T08:23:27Z",
      "version": 1,
      "changeset": 26923617,
      "user": "osmgspot",
      "uid": 143002,
      "tags": {
        "amenity": "bar",
        "name": "Rob's old house"
      }
    },
    {
      "type": "node",
      "id": 3210223503,
      "lat": 22.1899299,
      "lon": 113.558135,
      "timestamp": "2014-11-29T05:58:31Z",
      "version": 1,
      "changeset": 27104938,
      "user": "tomlee721",
      "uid": 1665943,
      "tags": {
        "amenity": "bar",
        "name": "天一酒廊 Sky Lounge",
        "name:en": "Sky Lounge",
        "name:zh": "天一酒廊",
        "opening_hours": "Mo-Su 00:00-01:00,16:00-24:00",
        "phone": "+853 2878 2782"
      }
    },
    {
      "type": "node",
      "id": 3343889299,
      "lat": 22.1910563,
      "lon": 113.5559146,
      "timestamp": "2017-01-25T14:55:44Z",
      "version": 2,
      "changeset": 45478381,
      "user": "woodennature",
      "uid": 5084650,
      "tags": {
        "amenity": "bar",
        "name": "珀克酒吧 Bar Praha",
        "name:en": "Praha Bar",
        "name:zh": "珀克酒吧",
        "opening_hours": "Mo-Su 00:00-01:00,08:00-24:00",
        "phone": "+853 8799 6605"
      }
    },
    {
      "type": "node",
      "id": 3391972565,
      "lat": 22.5532825,
      "lon": 114.0866283,
      "timestamp": "2015-03-10T04:14:14Z",
      "version": 1,
      "changeset": 29376257,
      "user": "sefaf",
      "uid": 650104,
      "tags": {
        "amenity": "bar"
      }
    },
    {
      "type": "node",
      "id": 3417088082,
      "lat": 28.4567581,
      "lon": 119.8993441,
      "timestamp": "2015-03-25T08:03:29Z",
      "version": 1,
      "changeset": 29721433,
      "user": "陈邹华",
      "uid": 2734348,
      "tags": {
        "amenity": "bar"
      }
    },
    {
      "type": "node",
      "id": 3417088084,
      "lat": 28.4569884,
      "lon": 119.8994927,
      "timestamp": "2015-03-25T08:03:29Z",
      "version": 1,
      "changeset": 29721433,
      "user": "陈邹华",
      "uid": 2734348,
      "tags": {
        "amenity": "bar"
      }
    },
    {
      "type": "node",
      "id": 3417187222,
      "lat": 28.4566614,
      "lon": 119.9057422,
      "timestamp": "2015-04-03T01:20:37Z",
      "version": 3,
      "changeset": 29941773,
      "user": "陈邹华",
      "uid": 2734348,
      "tags": {
        "amenity": "bar"
      }
    },
    {
      "type": "node",
      "id": 3417187261,
      "lat": 28.4559043,
      "lon": 119.9023851,
      "timestamp": "2016-08-28T15:41:39Z",
      "version": 3,
      "changeset": 41758396,
      "user": "Abedul Bouleau",
      "uid": 1951271,
      "tags": {
        "amenity": "bar"
      }
    },
    {
      "type": "node",
      "id": 3417187266,
      "lat": 28.4574029,
      "lon": 119.900734,
      "timestamp": "2015-03-25T12:40:55Z",
      "version": 2,
      "changeset": 29726235,
      "user": "陈邹华",
      "uid": 2734348,
      "tags": {
        "amenity": "bar"
      }
    },
    {
      "type": "node",
      "id": 3417362017,
      "lat": 28.4557871,
      "lon": 119.900499,
      "timestamp": "2020-04-16T11:51:04Z",
      "version": 3,
      "changeset": 83646895,
      "user": "Sal73x",
      "uid": 1293386,
      "tags": {
        "amenity": "bar"
      }
    },
    {
      "type": "node",
      "id": 3417362040,
      "lat": 28.4574204,
      "lon": 119.9000329,
      "timestamp": "2015-03-25T12:40:48Z",
      "version": 1,
      "changeset": 29726235,
      "user": "陈邹华",
      "uid": 2734348,
      "tags": {
        "amenity": "bar"
      }
    },
    {
      "type": "node",
      "id": 3417362045,
      "lat": 28.4576358,
      "lon": 119.9002154,
      "timestamp": "2015-03-25T12:40:48Z",
      "version": 1,
      "changeset": 29726235,
      "user": "陈邹华",
      "uid": 2734348,
      "tags": {
        "amenity": "bar"
      }
    },
    {
      "type": "node",
      "id": 3495692464,
      "lat": 22.3014729,
      "lon": 114.1747629,
      "timestamp": "2019-01-03T05:43:30Z",
      "version": 2,
      "changeset": 65978584,
      "user": "This Is A Display Name Desu",
      "uid": 196051,
      "tags": {
        "amenity": "bar",
        "name": "Pelican Bay"
      }
    },
    {
      "type": "node",
      "id": 3560244543,
      "lat": 22.3204915,
      "lon": 114.1636883,
      "timestamp": "2017-08-28T20:35:41Z",
      "version": 2,
      "changeset": 51521319,
      "user": "cartogram",
      "uid": 6095772,
      "tags": {
        "addr:housenumber": "11",
        "addr:street": "Pine Street",
        "amenity": "bar",
        "name": "Visaa Bar"
      }
    },
    {
      "type": "node",
      "id": 3560246507,
      "lat": 22.3202485,
      "lon": 114.1636672,
      "timestamp": "2017-08-28T20:35:41Z",
      "version": 2,
      "changeset": 51521319,
      "user": "cartogram",
      "uid": 6095772,
      "tags": {
        "addr:housenumber": "1",
        "addr:street": "Pine Street",
        "amenity": "bar",
        "name": "Bar Pacific",
        "phone": "23561126"
      }
    },
    {
      "type": "node",
      "id": 3595907534,
      "lat": 22.308897,
      "lon": 114.0369635,
      "timestamp": "2018-01-27T17:52:23Z",
      "version": 3,
      "changeset": 55810419,
      "user": "Xavier Fung",
      "uid": 1265238,
      "tags": {
        "amenity": "bar",
        "cuisine": "asian",
        "name": "影廠酒廊 Studio Lounge",
        "name:en": "Studio Lounge",
        "name:zh": "影廠酒廊",
        "website": "https://www.hongkongdisneyland.com/dining/disneys-hollywood-hotel/studio-lounge/"
      }
    },
    {
      "type": "node",
      "id": 3637028075,
      "lat": 28.4328928,
      "lon": 115.9650611,
      "timestamp": "2015-07-15T08:18:22Z",
      "version": 2,
      "changeset": 32644592,
      "user": "ckh123111",
      "uid": 3038780,
      "tags": {
        "amenity": "bar",
        "name": "老巢子酒吧"
      }
    },
    {
      "type": "node",
      "id": 3664103155,
      "lat": 28.4143828,
      "lon": 115.7027851,
      "timestamp": "2016-12-21T02:32:34Z",
      "version": 2,
      "changeset": 44555391,
      "user": "FreedSky",
      "uid": 1236135,
      "tags": {
        "amenity": "pub",
        "name": "巷口步云楼大酒店"
      }
    },
    {
      "type": "node",
      "id": 3676346779,
      "lat": 25.80553,
      "lon": 110.009567,
      "timestamp": "2015-08-01T13:52:26Z",
      "version": 1,
      "changeset": 33030861,
      "user": "NERV谍报部一课",
      "uid": 3061219,
      "tags": {
        "amenity": "bar",
        "name": "世界之窗KTV"
      }
    },
    {
      "type": "node",
      "id": 3681652842,
      "lat": 22.28504,
      "lon": 114.151901,
      "timestamp": "2023-10-14T17:57:45Z",
      "version": 4,
      "changeset": 142587270,
      "user": "HolloWorld",
      "uid": 6946532,
      "tags": {
        "addr:housenumber": "33",
        "addr:street": "蘇杭街 Jervois Street",
        "amenity": "bar",
        "name": "Zoo Bar",
        "phone": "+852 35831200"
      }
    },
    {
      "type": "node",
      "id": 3681652845,
      "lat": 22.2823996,
      "lon": 114.1526337,
      "timestamp": "2015-08-05T04:33:06Z",
      "version": 1,
      "changeset": 33117575,
      "user": "remyoudompheng",
      "uid": 41851,
      "tags": {
        "amenity": "bar",
        "name": "Le Tambour"
      }
    },
    {
      "type": "node",
      "id": 3681652847,
      "lat": 22.2809324,
      "lon": 114.155694,
      "timestamp": "2022-06-05T12:43:23Z",
      "version": 2,
      "changeset": 121975431,
      "user": "Wright One",
      "uid": 261189,
      "tags": {
        "amenity": "pub",
        "name": "Chocolate"
      }
    },
    {
      "type": "node",
      "id": 3743678965,
      "lat": 24.4331223,
      "lon": 118.3170566,
      "timestamp": "2015-09-15T05:33:23Z",
      "version": 1,
      "changeset": 34033347,
      "user": "chiahua",
      "uid": 2038223,
      "tags": {
        "amenity": "bar",
        "name": "白獅子"
      }
    },
    {
      "type": "node",
      "id": 3781017541,
      "lat": 22.2783206,
      "lon": 114.1707867,
      "timestamp": "2022-03-26T11:27:27Z",
      "version": 5,
      "changeset": 118943417,
      "user": "Josef73",
      "uid": 213831,
      "tags": {
        "addr:city": "Wan Chai",
        "addr:housenumber": "53-55",
        "addr:street": "駱克道 Lockhart Road",
        "amenity": "bar",
        "name": "Carnegie's",
        "opening_hours": "Mo-Fr 11:00+; Sa 12:00+; Su 16:00+",
        "operator": "Carnegie's International",
        "phone": "+852 2866 6289",
        "smoking": "no",
        "website": "www.carnegies.net"
      }
    },
    {
      "type": "node",
      "id": 3842153073,
      "lat": 22.2744799,
      "lon": 113.5764007,
      "timestamp": "2015-11-18T06:37:45Z",
      "version": 1,
      "changeset": 35396415,
      "user": "hckiang",
      "uid": 3395151,
      "tags": {
        "amenity": "bar",
        "name": "Chicago Bar"
      }
    },
    {
      "type": "node",
      "id": 3891167009,
      "lat": 22.5334114,
      "lon": 113.4578653,
      "timestamp": "2015-12-14T02:44:02Z",
      "version": 1,
      "changeset": 35936907,
      "user": "catlinv",
      "uid": 3441663,
      "tags": {
        "amenity": "bar",
        "name": "索马尔酒吧"
      }
    },
    {
      "type": "node",
      "id": 3951487957,
      "lat": 22.3032515,
      "lon": 114.1602456,
      "timestamp": "2025-05-22T11:29:52Z",
      "version": 5,
      "changeset": 166608378,
      "user": "Kovoschiz",
      "uid": 6250193,
      "tags": {
        "addr": "main",
        "addr:floor": "118",
        "addr:housename": "環球貿易廣場 International Commerce Centre",
        "addr:housename:en": "International Commerce Centre",
        "addr:housename:zh": "環球貿易廣場",
        "addr:housenumber": "1",
        "addr:street": "柯士甸道西 Austin Road West",
        "addr:street:en": "Austin Road West",
        "addr:street:zh": "柯士甸道西",
        "addr:unit": "香港麗思卡爾頓酒店 The Ritz-Carlton, Hong Kong",
        "addr:unit:en": "The Ritz-Carlton, Hong Kong",
        "addr:unit:zh": "香港麗思卡爾頓酒店",
        "amenity": "bar",
        "description": "The highest bar in the world",
        "email": "ozoneenquiries.hk@ritzcarlton.com",
        "indoor": "yes",
        "level:ref": "118",
        "name": "OZONE",
        "name:en": "OZONE",
        "note": "Buy hotel ticket 150HKD. You can use this ticket at bar.",
        "outdoor_seating": "yes",
        "phone": "85222632270",
        "smoking": "yes",
        "source": "Survey",
        "website": "https://www.ozonebarhongkong.com"
      }
    },
    {
      "type": "node",
      "id": 4014231498,
      "lat": 24.7791711,
      "lon": 110.4908096,
      "timestamp": "2023-09-23T05:39:40Z",
      "version": 2,
      "changeset": 141629184,
      "user": "Taksine",
      "uid": 10348274,
      "tags": {
        "amenity": "bar",
        "description": "Bar and North Korean travel agency"
      }
    },
    {
      "type": "node",
      "id": 4019015989,
      "lat": 28.6716155,
      "lon": 115.9137052,
      "timestamp": "2016-02-22T06:08:05Z",
      "version": 1,
      "changeset": 37359544,
      "user": "FreedSky",
      "uid": 1236135,
      "tags": {
        "amenity": "pub",
        "name": "明园大酒店"
      }
    },
    {
      "type": "node",
      "id": 4147897708,
      "lat": 22.2823435,
      "lon": 114.1522927,
      "timestamp": "2016-04-26T17:00:34Z",
      "version": 2,
      "changeset": 38894037,
      "user": "drunkensailor1700",
      "uid": 3876852,
      "tags": {
        "addr:city": "Hong Kong",
        "addr:housenumber": "9-11",
        "addr:street": "士丹頓街 Staunton Street",
        "amenity": "bar",
        "name": "Bar Feather Boa",
        "smoking": "outside"
      }
    },
    {
      "type": "node",
      "id": 4148659707,
      "lat": 22.2824162,
      "lon": 114.152315,
      "timestamp": "2016-04-26T08:59:49Z",
      "version": 1,
      "changeset": 38880096,
      "user": "drunkensailor1700",
      "uid": 3876852,
      "tags": {
        "addr:city": "Hong Kong",
        "addr:housenumber": "49",
        "addr:street": "士丹頓街 Staunton Street",
        "amenity": "bar",
        "name": "Bar Medusa"
      }
    },
    {
      "type": "node",
      "id": 4149632252,
      "lat": 22.2805172,
      "lon": 114.1548335,
      "timestamp": "2023-10-01T13:24:02Z",
      "version": 2,
      "changeset": 141988296,
      "user": "b-jazz-bot",
      "uid": 9451067,
      "tags": {
        "addr:city": "Central",
        "addr:housenumber": "The Centrium, 60",
        "addr:street": "雲咸街 Wyndham Street",
        "amenity": "bar",
        "name": "Dragon-i",
        "website": "https://www.dragon-i.com.hk/"
      }
    },
    {
      "type": "node",
      "id": 4149638360,
      "lat": 22.2785974,
      "lon": 114.1709157,
      "timestamp": "2017-10-22T12:54:26Z",
      "version": 3,
      "changeset": 53150982,
      "user": "Wright One",
      "uid": 261189,
      "tags": {
        "addr:city": "Wan Chai",
        "addr:housenumber": "76",
        "addr:street": "謝斐道 Jaffe Road",
        "amenity": "bar",
        "name": "Dusk till Dawn"
      }
    },
    {
      "type": "node",
      "id": 4149638361,
      "lat": 22.2784739,
      "lon": 114.1715806,
      "timestamp": "2019-03-30T23:33:58Z",
      "version": 4,
      "changeset": 68712073,
      "user": "b-jazz-bot",
      "uid": 9451067,
      "tags": {
        "addr:city": "Wan Chai",
        "addr:housenumber": "15-19",
        "addr:street": "盧押道 Luard Road",
        "amenity": "bar",
        "name": "Bar Amazonia",
        "website": "https://www.amazonia.hk/"
      }
    },
    {
      "type": "node",
      "id": 4149788318,
      "lat": 22.281473,
      "lon": 114.1549349,
      "timestamp": "2025-10-13T16:52:25Z",
      "version": 3,
      "changeset": 173238006,
      "user": "KX675",
      "uid": 31685,
      "tags": {
        "addr:city": "Central",
        "addr:housenumber": "65",
        "addr:street": "雲咸街 Wyndham Street",
        "amenity": "bar",
        "name": "Le Boudoir",
        "website": "https://www.french-creations.com/boudoir"
      }
    },
    {
      "type": "node",
      "id": 4163308689,
      "lat": 22.2432068,
      "lon": 113.5393518,
      "timestamp": "2016-05-03T13:35:27Z",
      "version": 3,
      "changeset": 39066377,
      "user": "Nher2016",
      "uid": 3913033,
      "tags": {
        "amenity": "bar",
        "shop": "beauty"
      }
    },
    {
      "type": "node",
      "id": 4172501032,
      "lat": 22.4492238,
      "lon": 114.1667404,
      "timestamp": "2025-08-12T11:19:59Z",
      "version": 6,
      "changeset": 170336167,
      "user": "KX675",
      "uid": 31685,
      "tags": {
        "amenity": "bar",
        "brand": "太平洋酒吧 Bar Pacific",
        "brand:en": "Bar Pacific",
        "brand:wikidata": "Q28445474",
        "brand:zh": "太平洋酒吧",
        "name": "太平洋酒吧 Bar Pacific",
        "name:en": "Bar Pacific",
        "name:zh": "太平洋酒吧"
      }
    },
    {
      "type": "node",
      "id": 4191452490,
      "lat": 22.2834908,
      "lon": 114.1527151,
      "timestamp": "2016-05-17T10:37:53Z",
      "version": 1,
      "changeset": 39373350,
      "user": "guppiefish",
      "uid": 3937698,
      "tags": {
        "addr:street": "文興里 Man Hing Lane",
        "amenity": "bar",
        "internet_access": "wlan",
        "name": "Club 71",
        "opening_hours": "Mo-Su 10:00-22:00",
        "phone": "+85228587071"
      }
    },
    {
      "type": "node",
      "id": 4192653899,
      "lat": 22.1556242,
      "lon": 113.5553441,
      "timestamp": "2016-05-18T00:42:50Z",
      "version": 1,
      "changeset": 39389441,
      "user": "Simon Dumpling",
      "uid": 3953891,
      "tags": {
        "addr:street": "大連街 Rua de Tai Lin",
        "amenity": "bar",
        "name": "Bar 171"
      }
    },
    {
      "type": "node",
      "id": 4194855490,
      "lat": 22.1472652,
      "lon": 113.5516772,
      "timestamp": "2019-03-27T02:25:47Z",
      "version": 5,
      "changeset": 68569840,
      "user": "b-jazz-bot",
      "uid": 9451067,
      "tags": {
        "amenity": "pub",
        "name": "The Roadhouse Macau",
        "opening_hours": "Th-Sa 12:00-06:00, Su-We 12:00-04:00",
        "phone": "+853 2875 2945",
        "website": "https://www.broadwaymacau.com.mo/en/macau-restaurant/restaurant-directory/bar/the-road-house-macau"
      }
    },
    {
      "type": "node",
      "id": 4194907790,
      "lat": 22.1969228,
      "lon": 113.5439287,
      "timestamp": "2016-05-19T09:26:57Z",
      "version": 3,
      "changeset": 39419267,
      "user": "Simon Dumpling",
      "uid": 3953891,
      "tags": {
        "addr:housenumber": "4",
        "addr:street": "瘋堂圍 Pátio de S.Lázaro",
        "amenity": "pub",
        "email": "info@number81.mo",
        "name": "Beer Temple",
        "opening_hours": "Mo-Su 13:00-22:00",
        "phone": "+8532835 2803",
        "website": "https://www.facebook.com/beertemplemacau/"
      }
    },
    {
      "type": "node",
      "id": 4202050336,
      "lat": 22.2840397,
      "lon": 114.1506106,
      "timestamp": "2017-08-04T00:02:06Z",
      "version": 2,
      "changeset": 50823102,
      "user": "FlyTy",
      "uid": 6095805,
      "tags": {
        "amenity": "bar",
        "description": "Japanese Cocktail Bar",
        "name": "3 Monkeys"
      }
    },
    {
      "type": "node",
      "id": 4202053311,
      "lat": 22.2823427,
      "lon": 114.1522788,
      "timestamp": "2016-05-23T11:27:24Z",
      "version": 1,
      "changeset": 39507017,
      "user": "TJRG",
      "uid": 2757624,
      "tags": {
        "amenity": "bar",
        "description": "Hidden Bar",
        "name": "Feather Boa"
      }
    },
    {
      "type": "node",
      "id": 4235436590,
      "lat": 23.0259767,
      "lon": 113.7800437,
      "timestamp": "2016-06-10T12:31:18Z",
      "version": 1,
      "changeset": 39928916,
      "user": "HeiLin",
      "uid": 4094019,
      "tags": {
        "amenity": "pub",
        "internet_access": "wlan",
        "name": "One For The Road English Pub"
      }
    },
    {
      "type": "node",
      "id": 4239105199,
      "lat": 22.278,
      "lon": 114.172438,
      "timestamp": "2019-08-21T05:19:34Z",
      "version": 6,
      "changeset": 73563512,
      "user": "Wright One",
      "uid": 261189,
      "tags": {
        "addr:housenumber": "114-120",
        "addr:street": "駱克道 Lockhart Road",
        "amenity": "bar",
        "cuisine": "mexican",
        "name": "Coyote",
        "source": "Kaart Ground Survey 2017"
      }
    },
    {
      "type": "node",
      "id": 4266650789,
      "lat": 22.282123,
      "lon": 114.15382,
      "timestamp": "2024-03-14T11:46:00Z",
      "version": 5,
      "changeset": 148637480,
      "user": "Wright One",
      "uid": 261189,
      "tags": {
        "addr:city": "Central",
        "addr:country": "HK",
        "addr:housenumber": "27",
        "addr:street": "荷李活道 Hollywood Road",
        "amenity": "bar",
        "level": "0",
        "name": "Lockdown"
      }
    },
    {
      "type": "node",
      "id": 4266657394,
      "lat": 22.282766,
      "lon": 114.15284,
      "timestamp": "2025-09-01T11:57:42Z",
      "version": 5,
      "changeset": 171311784,
      "user": "Wright One",
      "uid": 261189,
      "tags": {
        "addr:housenumber": "58",
        "addr:street": "荷李活道 Hollywood Road",
        "addr:unit": "E",
        "amenity": "pub",
        "level": "0",
        "name": "The Daily Tot"
      }
    },
    {
      "type": "node",
      "id": 4290504642,
      "lat": 24.7785116,
      "lon": 110.4918545,
      "timestamp": "2016-07-08T10:50:14Z",
      "version": 1,
      "changeset": 40565457,
      "user": "RufusClimber",
      "uid": 3285893,
      "tags": {
        "amenity": "bar"
      }
    },
    {
      "type": "node",
      "id": 4290504670,
      "lat": 24.7781018,
      "lon": 110.4902813,
      "timestamp": "2016-07-08T10:50:14Z",
      "version": 1,
      "changeset": 40565457,
      "user": "RufusClimber",
      "uid": 3285893,
      "tags": {
        "amenity": "bar"
      }
    },
    {
      "type": "node",
      "id": 4290504674,
      "lat": 24.7796746,
      "lon": 110.4917707,
      "timestamp": "2019-05-31T15:02:02Z",
      "version": 2,
      "changeset": 70812312,
      "user": "larrychan",
      "uid": 8519905,
      "tags": {
        "amenity": "bar"
      }
    },
    {
      "type": "node",
      "id": 4290504676,
      "lat": 24.7794984,
      "lon": 110.4917529,
      "timestamp": "2016-07-08T10:50:15Z",
      "version": 1,
      "changeset": 40565457,
      "user": "RufusClimber",
      "uid": 3285893,
      "tags": {
        "amenity": "bar"
      }
    },
    {
      "type": "node",
      "id": 4290504678,
      "lat": 24.7779529,
      "lon": 110.4902198,
      "timestamp": "2016-07-08T10:50:15Z",
      "version": 1,
      "changeset": 40565457,
      "user": "RufusClimber",
      "uid": 3285893,
      "tags": {
        "amenity": "bar"
      }
    },
    {
      "type": "node",
      "id": 4290504679,
      "lat": 24.7783437,
      "lon": 110.4908348,
      "timestamp": "2016-07-08T10:50:15Z",
      "version": 1,
      "changeset": 40565457,
      "user": "RufusClimber",
      "uid": 3285893,
      "tags": {
        "amenity": "bar"
      }
    },
    {
      "type": "node",
      "id": 4290504680,
      "lat": 24.777979,
      "lon": 110.4905327,
      "timestamp": "2019-05-31T15:02:02Z",
      "version": 2,
      "changeset": 70812312,
      "user": "larrychan",
      "uid": 8519905,
      "tags": {
        "amenity": "bar"
      }
    },
    {
      "type": "node",
      "id": 4290504937,
      "lat": 24.7794452,
      "lon": 110.4902833,
      "timestamp": "2016-07-08T10:50:16Z",
      "version": 1,
      "changeset": 40565457,
      "user": "RufusClimber",
      "uid": 3285893,
      "tags": {
        "amenity": "bar"
      }
    },
    {
      "type": "node",
      "id": 4317247273,
      "lat": 22.20813,
      "lon": 114.028881,
      "timestamp": "2022-05-10T08:34:37Z",
      "version": 3,
      "changeset": 120781728,
      "user": "Dragonhk",
      "uid": 15230995,
      "tags": {
        "addr:housenumber": "35",
        "addr:street": "海傍街 Praya Street",
        "amenity": "bar",
        "level": "0",
        "name": "Arena",
        "name:en": "Arena"
      }
    },
    {
      "type": "node",
      "id": 4324768301,
      "lat": 22.4472436,
      "lon": 114.169195,
      "timestamp": "2018-07-04T21:40:15Z",
      "version": 2,
      "changeset": 60419732,
      "user": "PicaPico",
      "uid": 1787380,
      "tags": {
        "amenity": "bar",
        "name": "King's Belly"
      }
    },
    {
      "type": "node",
      "id": 4326520592,
      "lat": 22.1949734,
      "lon": 113.5450003,
      "timestamp": "2016-07-29T08:34:33Z",
      "version": 1,
      "changeset": 41102869,
      "user": "Benoit Julhan",
      "uid": 3939356,
      "tags": {
        "amenity": "bar",
        "name": "Macau soul"
      }
    },
    {
      "type": "node",
      "id": 4333992076,
      "lat": 22.449388,
      "lon": 114.1661487,
      "timestamp": "2016-08-03T15:26:06Z",
      "version": 1,
      "changeset": 41217033,
      "user": "PicaPico",
      "uid": 1787380,
      "tags": {
        "amenity": "bar",
        "name": "Gili Gulu",
        "name:en": "Gili Gulu"
      }
    },
    {
      "type": "node",
      "id": 4333992077,
      "lat": 22.4493992,
      "lon": 114.1660984,
      "timestamp": "2016-08-03T15:26:06Z",
      "version": 1,
      "changeset": 41217033,
      "user": "PicaPico",
      "uid": 1787380,
      "tags": {
        "amenity": "bar",
        "name": "Red Lip",
        "name:en": "Red Lip"
      }
    },
    {
      "type": "node",
      "id": 4333992086,
      "lat": 22.448877,
      "lon": 114.1661749,
      "timestamp": "2017-05-18T16:49:16Z",
      "version": 4,
      "changeset": 48796932,
      "user": "Corban8",
      "uid": 4240913,
      "tags": {
        "addr:city": "大埔 Tai Po",
        "addr:street": "廣福道 Kwong Fuk Road",
        "amenity": "bar",
        "name": "I ONE",
        "name:en": "ICON",
        "source": "Kaart Ground Survey 2017"
      }
    },
    {
      "type": "node",
      "id": 4370114290,
      "lat": 24.4401017,
      "lon": 118.082271,
      "timestamp": "2024-11-01T04:21:40Z",
      "version": 5,
      "changeset": 158604872,
      "user": "Taksine",
      "uid": 10348274,
      "tags": {
        "addr:district": "思明区",
        "addr:housenumber": "154",
        "addr:place": "沙坡尾艺术西区",
        "addr:postcode": "361005",
        "amenity": "pub",
        "branch": "艺术西区厂区店",
        "name": "胖胖啤酒马",
        "name:nl": "Fat Fat Beer Horse",
        "name:zh-Hans": "胖胖啤酒马"
      }
    },
    {
      "type": "node",
      "id": 4370689725,
      "lat": 24.4417137,
      "lon": 118.0829374,
      "timestamp": "2017-03-07T20:21:14Z",
      "version": 2,
      "changeset": 46662615,
      "user": "wvdp",
      "uid": 436419,
      "tags": {
        "amenity": "bar",
        "name:nl": "Absinth bar"
      }
    },
    {
      "type": "node",
      "id": 4402442290,
      "lat": 23.0328639,
      "lon": 113.1118104,
      "timestamp": "2018-08-17T01:58:20Z",
      "version": 2,
      "changeset": 61731266,
      "user": "CnEnTranslateBot",
      "uid": 7490760,
      "tags": {
        "amenity": "bar",
        "internet_access": "wlan",
        "name": "Test bar-restaurant",
        "opening_hours": "Mo-Su 15:00-02:00"
      }
    },
    {
      "type": "node",
      "id": 4402952290,
      "lat": 22.2780004,
      "lon": 114.1721999,
      "timestamp": "2023-08-30T11:50:34Z",
      "version": 8,
      "changeset": 140584538,
      "user": "HolloWorld",
      "uid": 6946532,
      "tags": {
        "addr:housenumber": "104",
        "addr:street": "駱克道 Lockhart Road",
        "amenity": "bar",
        "internet_access": "wlan",
        "name": "Churchill's",
        "name:de": "Churchill's",
        "phone": "21777002",
        "source": "Kaart Ground Survey 2017"
      }
    },
    {
      "type": "node",
      "id": 4403654990,
      "lat": 22.2849129,
      "lon": 114.1516256,
      "timestamp": "2023-10-14T17:57:45Z",
      "version": 2,
      "changeset": 142587270,
      "user": "HolloWorld",
      "uid": 6946532,
      "tags": {
        "addr:housenumber": "62",
        "addr:level": "G",
        "addr:street": "蘇杭街 Jervois Street",
        "amenity": "bar",
        "internet_access": "wlan",
        "level": "0",
        "name:en": "FLM",
        "opening_hours": "Mo-Su 19:00-03:00",
        "phone": "28577683"
      }
    },
    {
      "type": "node",
      "id": 4410247089,
      "lat": 22.2989443,
      "lon": 114.1777888,
      "timestamp": "2016-09-20T17:55:26Z",
      "version": 1,
      "changeset": 42304958,
      "user": "quax76",
      "uid": 4440132,
      "tags": {
        "amenity": "bar",
        "name:de": "V Bar and Lounge"
      }
    },
    {
      "type": "node",
      "id": 4418965563,
      "lat": 22.3384992,
      "lon": 114.1400227,
      "timestamp": "2025-03-11T14:26:15Z",
      "version": 2,
      "changeset": 163487402,
      "user": "vectorial8192",
      "uid": 10815817,
      "tags": {
        "amenity": "bar",
        "name": "樽㰖吧"
      }
    },
    {
      "type": "node",
      "id": 4439005284,
      "lat": 22.389248,
      "lon": 114.2759541,
      "timestamp": "2016-10-09T12:48:44Z",
      "version": 1,
      "changeset": 42753363,
      "user": "eversone",
      "uid": 4618964,
      "tags": {
        "amenity": "pub"
      }
    },
    {
      "type": "node",
      "id": 4443348939,
      "lat": 22.2929563,
      "lon": 113.9430681,
      "timestamp": "2016-10-12T07:27:00Z",
      "version": 1,
      "changeset": 42822605,
      "user": "eversone",
      "uid": 4618964,
      "tags": {
        "amenity": "bar"
      }
    },
    {
      "type": "node",
      "id": 4448498690,
      "lat": 22.281217,
      "lon": 114.1548813,
      "timestamp": "2025-10-13T16:52:25Z",
      "version": 3,
      "changeset": 173238006,
      "user": "KX675",
      "uid": 31685,
      "tags": {
        "amenity": "bar",
        "name:en": "Baan Thai"
      }
    },
    {
      "type": "node",
      "id": 4457651489,
      "lat": 23.2245177,
      "lon": 113.3328739,
      "timestamp": "2016-10-21T09:36:52Z",
      "version": 1,
      "changeset": 43054813,
      "user": "leaningshanw",
      "uid": 4289053,
      "tags": {
        "amenity": "bar",
        "name": "GZ5",
        "name:en": "GZ5",
        "name:zh": "GZ5",
        "opening_hours": "Mo-Su 15:00-22:00"
      }
    },
    {
      "type": "node",
      "id": 4457651589,
      "lat": 23.2207305,
      "lon": 113.3281574,
      "timestamp": "2016-10-21T09:36:55Z",
      "version": 1,
      "changeset": 43054813,
      "user": "leaningshanw",
      "uid": 4289053,
      "tags": {
        "amenity": "bar",
        "name:en": "Car Park Beers"
      }
    },
    {
      "type": "node",
      "id": 4461156701,
      "lat": 22.6102725,
      "lon": 113.0986926,
      "timestamp": "2023-01-18T17:02:45Z",
      "version": 2,
      "changeset": 131431344,
      "user": "cnvery",
      "uid": 3627342,
      "tags": {
        "amenity": "bar",
        "name": "布加迪",
        "name:zh": "布加迪",
        "name:zh-Hans": "布加迪",
        "name:zh-Hant": "布加迪"
      }
    },
    {
      "type": "node",
      "id": 4461156702,
      "lat": 22.6102912,
      "lon": 113.0977494,
      "timestamp": "2023-01-18T17:02:45Z",
      "version": 2,
      "changeset": 131431344,
      "user": "cnvery",
      "uid": 3627342,
      "tags": {
        "amenity": "bar",
        "name": "苏荷",
        "name:zh": "苏荷",
        "name:zh-Hans": "苏荷",
        "name:zh-Hant": "蘇荷"
      }
    },
    {
      "type": "node",
      "id": 4464471290,
      "lat": 25.2833844,
      "lon": 110.2856452,
      "timestamp": "2019-03-13T11:39:14Z",
      "version": 2,
      "changeset": 68096348,
      "user": "larrychan",
      "uid": 8519905,
      "tags": {
        "addr:street": "翊武路",
        "amenity": "bar",
        "internet_access": "wlan",
        "name": "斯意酒吧",
        "name:en": "Scoozi bar",
        "name:zh": "斯意酒吧"
      }
    },
    {
      "type": "node",
      "id": 4469985089,
      "lat": 22.2821412,
      "lon": 114.1527176,
      "timestamp": "2022-10-25T11:44:29Z",
      "version": 2,
      "changeset": 128036038,
      "user": "Wright One",
      "uid": 261189,
      "tags": {
        "addr:housenumber": "27",
        "addr:street": "士丹頓街 Staunton Street",
        "amenity": "bar",
        "internet_access": "wlan",
        "name:en": "Club 1911"
      }
    },
    {
      "type": "node",
      "id": 4470920963,
      "lat": 22.3329378,
      "lon": 114.1626353,
      "timestamp": "2022-09-18T04:05:52Z",
      "version": 4,
      "changeset": 126317218,
      "user": "andyonthewings",
      "uid": 1434844,
      "tags": {
        "addr:housenumber": "68",
        "addr:street": "元州街 Un Chau Street",
        "amenity": "bar",
        "contact:facebook": "https://www.facebook.com/barpacifichk/",
        "name": "Bar Pacific",
        "name:en": "Bar Pacific",
        "website": "https://www.barpacific.com.hk/"
      }
    },
    {
      "type": "node",
      "id": 4486948390,
      "lat": 22.2816777,
      "lon": 114.1535939,
      "timestamp": "2022-10-28T13:39:01Z",
      "version": 6,
      "changeset": 128176248,
      "user": "Wright One",
      "uid": 261189,
      "tags": {
        "addr:country": "HK",
        "addr:housenumber": "9",
        "addr:street": "奧卑利街 Old Bailey Street",
        "amenity": "pub",
        "level": "0",
        "name": "The Parallel"
      }
    },
    {
      "type": "node",
      "id": 4500834998,
      "lat": 22.2808747,
      "lon": 114.1552969,
      "timestamp": "2024-10-26T03:53:16Z",
      "version": 3,
      "changeset": 158360938,
      "user": "GasaiYuno",
      "uid": 10054182,
      "tags": {
        "addr:housenumber": "38",
        "addr:street": "德己立街 D'Aguilar Street",
        "amenity": "bar",
        "level": "0",
        "name": "Insomnia",
        "ref:openrice": "6068"
      }
    },
    {
      "type": "node",
      "id": 4501631889,
      "lat": 22.2993186,
      "lon": 114.175264,
      "timestamp": "2016-11-15T01:02:46Z",
      "version": 1,
      "changeset": 43659008,
      "user": "Gilnei",
      "uid": 4572124,
      "tags": {
        "amenity": "bar",
        "name": "Sushi one",
        "name:zh": "Sushi one"
      }
    },
    {
      "type": "node",
      "id": 4529665092,
      "lat": 28.8602028,
      "lon": 115.8455387,
      "timestamp": "2016-11-30T06:45:45Z",
      "version": 1,
      "changeset": 44052327,
      "user": "FreedSky",
      "uid": 1236135,
      "tags": {
        "amenity": "pub",
        "name": "李海清大酒店"
      }
    },
    {
      "type": "node",
      "id": 4598116092,
      "lat": 22.3264683,
      "lon": 114.1652084,
      "timestamp": "2021-12-19T15:35:31Z",
      "version": 2,
      "changeset": 115130253,
      "user": "eversone",
      "uid": 4618964,
      "tags": {
        "addr:housenumber": "19G",
        "addr:street": "界限街 Boundary Street",
        "amenity": "bar",
        "name:en": "FOAM"
      }
    },
    {
      "type": "node",
      "id": 4634085650,
      "lat": 22.2972243,
      "lon": 113.9344628,
      "timestamp": "2023-09-21T11:21:21Z",
      "version": 2,
      "changeset": 141554189,
      "user": "Kovoschiz",
      "uid": 6250193,
      "tags": {
        "access": "private",
        "addr:housename": "國泰城 Cathay Pacific City",
        "addr:housename:en": "Cathay Pacific City",
        "addr:housename:zh": "國泰城",
        "addr:street": "觀景路 Scenic Road",
        "addr:street:en": "Scenic Road",
        "addr:street:zh": "觀景路",
        "amenity": "bar",
        "name": "Dakota's",
        "name:en": "Dakota's",
        "nohousenumber": "shared"
      }
    },
    {
      "type": "node",
      "id": 4682221101,
      "lat": 22.2835166,
      "lon": 114.15257,
      "timestamp": "2017-02-12T19:44:58Z",
      "version": 1,
      "changeset": 46028713,
      "user": "KVBIAK",
      "uid": 3866698,
      "tags": {
        "addr:housenumber": "35",
        "addr:street": "鴨巴甸街 Aberdeen Street",
        "amenity": "bar",
        "name:en": "Aberdeen Street Social"
      }
    },
    {
      "type": "node",
      "id": 4682290490,
      "lat": 22.2862824,
      "lon": 114.1397346,
      "timestamp": "2017-08-24T17:13:46Z",
      "version": 2,
      "changeset": 51413135,
      "user": "happy-camper",
      "uid": 6346054,
      "tags": {
        "amenity": "bar",
        "name:en": "Ping Pong 129"
      }
    },
    {
      "type": "node",
      "id": 4682303191,
      "lat": 22.2815799,
      "lon": 114.1535381,
      "timestamp": "2022-10-28T13:39:01Z",
      "version": 4,
      "changeset": 128176248,
      "user": "Wright One",
      "uid": 261189,
      "tags": {
        "addr:country": "HK",
        "addr:housenumber": "13",
        "addr:street": "奧卑利街 Old Bailey Street",
        "amenity": "bar",
        "level": "0",
        "name": "The Pontiac",
        "phone": "+852 25213855"
      }
    },
    {
      "type": "node",
      "id": 4701371590,
      "lat": 22.2810596,
      "lon": 114.1553059,
      "timestamp": "2024-03-12T12:01:00Z",
      "version": 4,
      "changeset": 148546617,
      "user": "Wright One",
      "uid": 261189,
      "tags": {
        "addr:housenumber": "27",
        "addr:street": "德己立街 D'Aguilar Street",
        "amenity": "bar",
        "name": "Tao"
      }
    },
    {
      "type": "node",
      "id": 4701371591,
      "lat": 22.2822245,
      "lon": 114.1539951,
      "timestamp": "2023-02-24T11:48:52Z",
      "version": 4,
      "changeset": 132963976,
      "user": "Wright One",
      "uid": 261189,
      "tags": {
        "amenity": "bar",
        "name": "Barkada",
        "website": "https://barkada.hk"
      }
    },
    {
      "type": "node",
      "id": 4701371592,
      "lat": 22.28288,
      "lon": 114.15544,
      "timestamp": "2021-08-03T10:11:51Z",
      "version": 4,
      "changeset": 109083983,
      "user": "torapa",
      "uid": 5446055,
      "tags": {
        "addr:housenumber": "74",
        "addr:street": "皇后大道中 Queen's Road Central",
        "amenity": "bar",
        "email": "info@theenvoy.hk",
        "level": "3",
        "name": "The Envoy",
        "opening_hours": "Su-Th 12:00-01:00; Fr-Sa 12:00-02:00",
        "phone": "+852 21693311",
        "ref:openrice": "176648",
        "website": "https://www.theenvoy.hk/"
      }
    },
    {
      "type": "node",
      "id": 4701371594,
      "lat": 22.2799526,
      "lon": 114.155372,
      "timestamp": "2023-08-25T10:15:26Z",
      "version": 2,
      "changeset": 140364157,
      "user": "HolloWorld",
      "uid": 6946532,
      "tags": {
        "addr:housenumber": "32",
        "addr:street": "雲咸街 Wyndham Street",
        "amenity": "bar",
        "name:en": "stockton"
      }
    },
    {
      "type": "node",
      "id": 4701371595,
      "lat": 22.2800276,
      "lon": 114.1545838,
      "timestamp": "2019-10-25T02:17:45Z",
      "version": 2,
      "changeset": 76179010,
      "user": "tommydragon",
      "uid": 2620510,
      "tags": {
        "addr:housenumber": "10",
        "addr:street": "亞畢諾道 Arbuthnot Road",
        "amenity": "bar",
        "name": "Salon Number 10",
        "name:en": "Salon Number 10"
      }
    },
    {
      "type": "node",
      "id": 4701371989,
      "lat": 22.282731,
      "lon": 114.152851,
      "timestamp": "2021-08-03T10:11:51Z",
      "version": 4,
      "changeset": 109083983,
      "user": "torapa",
      "uid": 5446055,
      "tags": {
        "addr:housenumber": "56-58",
        "addr:street": "荷李活道 Hollywood Road",
        "amenity": "bar",
        "email": "info@quinary.hk",
        "fax": "+852 28512272",
        "level": "0",
        "name": "Quinary",
        "opening_hours": "Mo-Sa 17:00-01:00; Su off",
        "phone": "+852 28513223",
        "ref:openrice": "133437",
        "website": "https://www.quinary.hk/"
      }
    },
    {
      "type": "node",
      "id": 4701372090,
      "lat": 22.2836098,
      "lon": 114.1542685,
      "timestamp": "2018-04-28T16:42:03Z",
      "version": 2,
      "changeset": 58508237,
      "user": "Wright One",
      "uid": 261189,
      "tags": {
        "addr:housenumber": "97",
        "addr:street": "威靈頓街 Wellington Street",
        "amenity": "bar",
        "name": "001",
        "name:en": "001",
        "phone": "+852 28106969",
        "ref:openrice": "542374"
      }
    },
    {
      "type": "node",
      "id": 4701372689,
      "lat": 22.2819754,
      "lon": 114.1545364,
      "timestamp": "2023-05-18T22:03:21Z",
      "version": 3,
      "changeset": 136274909,
      "user": "joelz",
      "uid": 14359479,
      "tags": {
        "addr:housenumber": "1",
        "addr:street": "荷李活道 Hollywood Road",
        "amenity": "bar",
        "name:en": "The Iron Fairies"
      }
    },
    {
      "type": "node",
      "id": 4701372790,
      "lat": 22.2803831,
      "lon": 114.155059,
      "timestamp": "2017-02-23T13:01:11Z",
      "version": 1,
      "changeset": 46337789,
      "user": "john ngan",
      "uid": 5353500,
      "tags": {
        "addr:housenumber": "33",
        "addr:street": "雲咸街 Wyndham Street",
        "amenity": "bar",
        "name:en": "lily & bloom"
      }
    },
    {
      "type": "node",
      "id": 4701372791,
      "lat": 22.2839647,
      "lon": 114.152107,
      "timestamp": "2023-11-02T03:00:38Z",
      "version": 2,
      "changeset": 143506072,
      "user": "HolloWorld",
      "uid": 6946532,
      "tags": {
        "addr:housenumber": "10",
        "addr:street": "Shin Hing St.",
        "amenity": "bar",
        "name:en": "NEO cocktail Club"
      }
    },
    {
      "type": "node",
      "id": 4701373889,
      "lat": 22.2810313,
      "lon": 114.1591599,
      "timestamp": "2025-01-25T15:09:14Z",
      "version": 5,
      "changeset": 161750072,
      "user": "cnvery",
      "uid": 3627342,
      "tags": {
        "addr:housenumber": "10",
        "addr:street": "遮打道 Chater Road",
        "amenity": "bar",
        "name": "Sevva",
        "name:en": "Sevva"
      }
    },
    {
      "type": "node",
      "id": 4703574290,
      "lat": 22.279832,
      "lon": 114.1571659,
      "timestamp": "2021-10-21T02:13:09Z",
      "version": 3,
      "changeset": 112768428,
      "user": "Kovoschiz",
      "uid": 6250193,
      "tags": {
        "addr:housenumber": "6",
        "addr:street": "都爹利街 Duddell Street",
        "amenity": "bar",
        "name:en": "Foxglove"
      }
    },
    {
      "type": "node",
      "id": 4713706093,
      "lat": 22.2822907,
      "lon": 114.1543164,
      "timestamp": "2022-10-28T14:32:57Z",
      "version": 4,
      "changeset": 128178246,
      "user": "Wright One",
      "uid": 261189,
      "tags": {
        "addr:street": "敦和里 Tun Wo Lane",
        "amenity": "bar",
        "name": "Tell Camellia"
      }
    },
    {
      "type": "node",
      "id": 4716803538,
      "lat": 22.3635974,
      "lon": 113.5946831,
      "timestamp": "2020-02-10T04:39:42Z",
      "version": 3,
      "changeset": 80773600,
      "user": "DCI1456",
      "uid": 10751051,
      "tags": {
        "amenity": "bar",
        "name": "21JAG Brewpub",
        "opening_hours": "Mo-Su 17:00-11:00"
      }
    },
    {
      "type": "node",
      "id": 4716946989,
      "lat": 22.2848668,
      "lon": 114.1529476,
      "timestamp": "2017-03-04T18:02:57Z",
      "version": 1,
      "changeset": 46578541,
      "user": "john ngan",
      "uid": 5353500,
      "tags": {
        "addr:housenumber": "198",
        "addr:street": "威靈頓街 Wellington Street",
        "amenity": "bar",
        "name:en": "Vea"
      }
    },
    {
      "type": "node",
      "id": 4750191721,
      "lat": 24.4783592,
      "lon": 118.0807777,
      "timestamp": "2017-12-28T05:53:10Z",
      "version": 2,
      "changeset": 54973973,
      "user": "Demgel",
      "uid": 7147696,
      "tags": {
        "addr:housenumber": "5-8",
        "addr:postcode": "361000",
        "addr:street": "官任路",
        "amenity": "bar",
        "name:en": "The Londoner"
      }
    },
    {
      "type": "node",
      "id": 4778081821,
      "lat": 22.282731,
      "lon": 114.15265,
      "timestamp": "2023-10-26T16:13:35Z",
      "version": 3,
      "changeset": 143169692,
      "user": "HolloWorld",
      "uid": 6946532,
      "tags": {
        "addr:housenumber": "49",
        "addr:street": "卑利街 Peel Street",
        "amenity": "bar",
        "email": "frescopeel@gmail.com",
        "level": "0",
        "name": "Peel Fresco",
        "opening_hours": "Mo-Su,PH 19:00-02:00",
        "phone": "+852 25402046",
        "ref:openrice": "20897",
        "website": "http://peel-fresco.com"
      }
    },
    {
      "type": "node",
      "id": 4778090434,
      "lat": 22.27847,
      "lon": 114.17185,
      "timestamp": "2017-11-24T14:34:22Z",
      "version": 2,
      "changeset": 54051824,
      "user": "Wright One",
      "uid": 261189,
      "tags": {
        "addr:housenumber": "18",
        "addr:street": "盧押道 Luard Road",
        "amenity": "bar",
        "name": "Taboo",
        "ref:openrice": "496464"
      }
    },
    {
      "type": "node",
      "id": 4778090643,
      "lat": 22.2807087,
      "lon": 114.1556414,
      "timestamp": "2023-04-01T10:44:16Z",
      "version": 2,
      "changeset": 134375875,
      "user": "Wright One",
      "uid": 261189,
      "tags": {
        "addr:housenumber": "8",
        "addr:street": "蘭桂坊 Lan Kwai Fong",
        "amenity": "bar",
        "name": "Felfela II"
      }
    },
    {
      "type": "node",
      "id": 4780249821,
      "lat": 22.2803734,
      "lon": 114.155059,
      "timestamp": "2017-04-07T03:29:21Z",
      "version": 1,
      "changeset": 47526082,
      "user": "Doug777",
      "uid": 4624663,
      "tags": {
        "addr:housenumber": "33",
        "addr:street": "雲咸街 Wyndham Street",
        "amenity": "bar",
        "name:en": "Cassio."
      }
    },
    {
      "type": "node",
      "id": 4780249822,
      "lat": 22.2802412,
      "lon": 114.155143,
      "timestamp": "2024-07-19T08:12:07Z",
      "version": 2,
      "changeset": 154131983,
      "user": "b-jazz-bot",
      "uid": 9451067,
      "tags": {
        "addr:housenumber": "33",
        "addr:street": "雲咸街 Wyndham Street",
        "amenity": "bar",
        "name:en": "Tasmania Ballroom",
        "opening_hours": "Mo-Su 17:00-02:00",
        "website": "https://www.tazmaniaballroom.com/main.html"
      }
    },
    {
      "type": "node",
      "id": 4784310021,
      "lat": 22.2974738,
      "lon": 114.1706002,
      "timestamp": "2018-04-11T15:23:35Z",
      "version": 2,
      "changeset": 58006686,
      "user": "Matt van Oost",
      "uid": 5344780,
      "tags": {
        "addr:street": "亞士厘道 Ashley Road",
        "amenity": "bar",
        "internet_access": "wlan",
        "name:en": "Taproom Local Craft Beer"
      }
    },
    {
      "type": "node",
      "id": 4794692961,
      "lat": 22.3075784,
      "lon": 114.1723582,
      "timestamp": "2023-10-08T23:44:37Z",
      "version": 5,
      "changeset": 142323099,
      "user": "HolloWorld",
      "uid": 6946532,
      "tags": {
        "addr:housenumber": "1",
        "addr:level": "B",
        "addr:street": "志和街 Chi Wo Street",
        "amenity": "bar",
        "name": "MUSE wine bar",
        "opening_hours": "16:00 - 24:00",
        "phone": "+852 39532203"
      }
    },
    {
      "type": "node",
      "id": 4809604877,
      "lat": 28.1575799,
      "lon": 112.9340086,
      "timestamp": "2017-04-22T11:33:33Z",
      "version": 1,
      "changeset": 48030358,
      "user": "向美洁",
      "uid": 5702827,
      "tags": {
        "amenity": "bar",
        "name": "万德时尚酒店",
        "outdoor_seating": "no",
        "smoking": "no"
      }
    },
    {
      "type": "node",
      "id": 4824790221,
      "lat": 22.2934254,
      "lon": 114.1738937,
      "timestamp": "2023-05-04T08:56:17Z",
      "version": 3,
      "changeset": 135690915,
      "user": "Kovoschiz",
      "uid": 6250193,
      "tags": {
        "amenity": "bar",
        "closing_date": "2020-04-20",
        "description:en": "jazz bar",
        "indoor": "yes",
        "name": "大堂酒廊 Lobby Lounge",
        "name:en": "Lobby Lounge",
        "name:zh": "大堂酒廊",
        "theme": "jazz"
      }
    },
    {
      "type": "node",
      "id": 4831638593,
      "lat": 22.1866211,
      "lon": 113.5508961,
      "timestamp": "2017-05-05T18:24:02Z",
      "version": 3,
      "changeset": 48434130,
      "user": "thenodifier",
      "uid": 4547543,
      "tags": {
        "addr:street": "孫逸仙大馬路 Avenida Dr. Sun Yat-Sen",
        "amenity": "pub",
        "name": "Chivas",
        "source": "Kaart Ground Survey 2017"
      }
    },
    {
      "type": "node",
      "id": 4835191845,
      "lat": 22.1579502,
      "lon": 113.5608549,
      "timestamp": "2017-09-21T00:39:30Z",
      "version": 3,
      "changeset": 52229622,
      "user": "Evandering",
      "uid": 6172527,
      "tags": {
        "addr:street": "美副將馬路 Estrada Coronel Nicolau de Mesquita",
        "amenity": "bar",
        "name": "Po",
        "source": "Kaart Ground Survey 2017"
      }
    },
    {
      "type": "node",
      "id": 4843898922,
      "lat": 22.4860188,
      "lon": 113.909471,
      "timestamp": "2017-05-20T19:58:35Z",
      "version": 2,
      "changeset": 48849621,
      "user": "xtile",
      "uid": 940481,
      "tags": {
        "amenity": "bar",
        "name": "Purple Charm",
        "name:en": "Purple Charm"
      }
    },
    {
      "type": "node",
      "id": 4844460141,
      "lat": 22.2617831,
      "lon": 114.2356762,
      "timestamp": "2017-05-11T22:53:58Z",
      "version": 2,
      "changeset": 48607258,
      "user": "thenodifier",
      "uid": 4547543,
      "tags": {
        "addr:street": "環翠道 Wan Tsui Road",
        "amenity": "bar",
        "name": "Bar Pacific",
        "source": "Kaart Ground Survey 2017"
      }
    },
    {
      "type": "node",
      "id": 4845735326,
      "lat": 22.4868133,
      "lon": 113.9105194,
      "timestamp": "2017-05-20T19:58:34Z",
      "version": 2,
      "changeset": 48849621,
      "user": "xtile",
      "uid": 940481,
      "tags": {
        "amenity": "bar",
        "name": "Amazon BBQ Bar",
        "name:en": "Amazon BBQ Bar"
      }
    },
    {
      "type": "node",
      "id": 4845735425,
      "lat": 22.4867513,
      "lon": 113.9114427,
      "timestamp": "2017-05-10T16:22:34Z",
      "version": 2,
      "changeset": 48566428,
      "user": "xtile",
      "uid": 940481,
      "tags": {
        "amenity": "bar",
        "name": "Lucky House Bar",
        "name:en": "Lucky House Bar"
      }
    },
    {
      "type": "node",
      "id": 4846202893,
      "lat": 22.3302414,
      "lon": 114.1916781,
      "timestamp": "2024-05-01T08:40:06Z",
      "version": 4,
      "changeset": 150738884,
      "user": "n_idrc",
      "uid": 21392931,
      "tags": {
        "addr:housenumber": "78",
        "addr:street": "打鼓嶺道 Tak Ku Ling Road",
        "amenity": "bar",
        "source": "Kaart Ground Survey 2017"
      }
    },
    {
      "type": "node",
      "id": 4846605113,
      "lat": 22.2805149,
      "lon": 114.224463,
      "timestamp": "2025-09-18T04:21:52Z",
      "version": 6,
      "changeset": 172092670,
      "user": "cnvery",
      "uid": 3627342,
      "tags": {
        "addr:street": "筲箕灣道 Shau Kei Wan Road",
        "amenity": "bar",
        "brand": "吧東 Bar East",
        "brand:en": "Bar East",
        "brand:wikidata": "Q120288546",
        "brand:zh": "吧東",
        "name": "吧東 Bar East",
        "name:en": "Bar East",
        "name:zh": "吧東",
        "name:zh-Hans": "吧东",
        "name:zh-Hant": "吧東"
      }
    },
    {
      "type": "node",
      "id": 4848291631,
      "lat": 22.2782209,
      "lon": 114.2262732,
      "timestamp": "2025-09-14T15:52:27Z",
      "version": 4,
      "changeset": 171925007,
      "user": "cnvery",
      "uid": 3627342,
      "tags": {
        "addr:street": "南康街 Nam Hong Street",
        "amenity": "bar",
        "brand": "太平洋酒吧 Bar Pacific",
        "brand:en": "Bar Pacific",
        "brand:wikidata": "Q28445474",
        "brand:zh": "太平洋酒吧",
        "name": "太平洋酒吧",
        "name:en": "Bar Pacific",
        "name:zh": "太平洋酒吧",
        "name:zh-Hans": "太平洋酒吧",
        "name:zh-Hant": "太平洋酒吧",
        "source": "Kaart Ground Survey 2017"
      }
    },
    {
      "type": "node",
      "id": 4848291665,
      "lat": 22.2793078,
      "lon": 114.2248599,
      "timestamp": "2025-09-16T08:16:57Z",
      "version": 3,
      "changeset": 172000539,
      "user": "cnvery",
      "uid": 3627342,
      "tags": {
        "amenity": "bar",
        "name": "Focus Bar",
        "name:en": "Focus Bar",
        "source": "Kaart Ground Survey 2017"
      }
    },
    {
      "type": "node",
      "id": 4848304552,
      "lat": 22.3296336,
      "lon": 114.1871487,
      "timestamp": "2017-05-11T21:24:00Z",
      "version": 2,
      "changeset": 48605338,
      "user": "bpowell1",
      "uid": 3317733,
      "tags": {
        "addr:street": "聯合道 Junction Road",
        "amenity": "pub",
        "name": "BB Pub",
        "source": "Kaart Ground Survey 2017"
      }
    },
    {
      "type": "node",
      "id": 4850219763,
      "lat": 22.2484187,
      "lon": 114.1520406,
      "timestamp": "2024-05-24T22:28:28Z",
      "version": 4,
      "changeset": 151790024,
      "user": "KX675",
      "uid": 31685,
      "tags": {
        "addr:street": "香港仔大道 Aberdeen Main Road",
        "amenity": "bar",
        "brand": "太平洋酒吧 Bar Pacific",
        "brand:en": "Bar Pacific",
        "brand:wikidata": "Q28445474",
        "brand:zh": "太平洋酒吧",
        "name": "Bar Pacific",
        "name:en": "Bar Pacific",
        "name:zh": "太平洋酒吧",
        "source": "Kaart Ground Survey 2017"
      }
    },
    {
      "type": "node",
      "id": 4850352275,
      "lat": 22.2975892,
      "lon": 114.1743243,
      "timestamp": "2017-09-21T18:56:33Z",
      "version": 3,
      "changeset": 52253308,
      "user": "bgard",
      "uid": 6172648,
      "tags": {
        "addr:street": "河內道 Hanoi Road",
        "amenity": "bar",
        "name": "Lulu",
        "source": "Kaart Ground Survey 2017"
      }
    },
    {
      "type": "node",
      "id": 4850379260,
      "lat": 22.2976688,
      "lon": 114.1742157,
      "timestamp": "2017-09-21T18:56:33Z",
      "version": 3,
      "changeset": 52253308,
      "user": "bgard",
      "uid": 6172648,
      "tags": {
        "addr:street": "河內道 Hanoi Road",
        "amenity": "bar",
        "name": "Biergarten",
        "source": "Kaart Ground Survey 2017"
      }
    },
    {
      "type": "node",
      "id": 4850450045,
      "lat": 22.3433665,
      "lon": 114.1967201,
      "timestamp": "2025-06-05T02:40:05Z",
      "version": 5,
      "changeset": 167202057,
      "user": "Dragonhk",
      "uid": 15230995,
      "tags": {
        "addr:street": "鳳德道 Fung Tak Road",
        "amenity": "bar",
        "brand": "太平洋酒吧 Bar Pacific",
        "brand:en": "Bar Pacific",
        "brand:wikidata": "Q28445474",
        "brand:zh": "太平洋酒吧",
        "name": "Bar Pacific",
        "name:en": "Bar Pacific",
        "name:zh": "太平洋酒吧",
        "source": "Kaart Ground Survey 2017"
      }
    },
    {
      "type": "node",
      "id": 4850496925,
      "lat": 22.2979466,
      "lon": 114.1743778,
      "timestamp": "2017-09-21T18:56:34Z",
      "version": 3,
      "changeset": 52253308,
      "user": "bgard",
      "uid": 6172648,
      "tags": {
        "addr:street": "赫德道 Hart Avenue",
        "amenity": "bar",
        "name": "Spades",
        "source": "Kaart Ground Survey 2017"
      }
    },
    {
      "type": "node",
      "id": 4850496926,
      "lat": 22.2979949,
      "lon": 114.17432,
      "timestamp": "2017-09-21T18:56:34Z",
      "version": 3,
      "changeset": 52253308,
      "user": "bgard",
      "uid": 6172648,
      "tags": {
        "addr:street": "赫德道 Hart Avenue",
        "amenity": "bar",
        "name": "Malty",
        "source": "Kaart Ground Survey 2017"
      }
    },
    {
      "type": "node",
      "id": 4850676192,
      "lat": 22.2980565,
      "lon": 114.1744496,
      "timestamp": "2019-08-18T05:15:07Z",
      "version": 4,
      "changeset": 73455840,
      "user": "jonathanchik",
      "uid": 10130685,
      "tags": {
        "addr:street": "赫德道 Hart Avenue",
        "amenity": "bar",
        "name": "Cali Cali",
        "source": "Kaart Ground Survey 2017"
      }
    },
    {
      "type": "node",
      "id": 4850676203,
      "lat": 22.2986145,
      "lon": 114.1750987,
      "timestamp": "2017-09-21T18:15:48Z",
      "version": 3,
      "changeset": 52252044,
      "user": "bgard",
      "uid": 6172648,
      "tags": {
        "addr:street": "寶勒巷 Prat Avenue",
        "amenity": "bar",
        "name": "Al Dente",
        "source": "Kaart Ground Survey 2017"
      }
    },
    {
      "type": "node",
      "id": 4851750174,
      "lat": 22.3981634,
      "lon": 113.9770805,
      "timestamp": "2023-09-01T08:15:12Z",
      "version": 4,
      "changeset": 140667206,
      "user": "eversone",
      "uid": 4618964,
      "tags": {
        "addr:street": "青山公路－新墟段 Castle Peak Road – San Hui",
        "amenity": "bar",
        "brand": "太平洋酒吧 Bar Pacific",
        "brand:en": "Bar Pacific",
        "brand:wikidata": "Q28445474",
        "brand:zh": "太平洋酒吧",
        "name": "Bar Pacific",
        "name:en": "Bar Pacific",
        "name:zh": "太平洋酒吧",
        "source": "Kaart Ground Survey 2017"
      }
    },
    {
      "type": "node",
      "id": 4851750175,
      "lat": 22.3988453,
      "lon": 113.9771327,
      "timestamp": "2017-05-14T01:20:38Z",
      "version": 2,
      "changeset": 48662887,
      "user": "Canyonsrcool",
      "uid": 126508,
      "tags": {
        "addr:street": "青山公路－新墟段 Castle Peak Road – San Hui",
        "amenity": "bar",
        "name": "Rave Bar",
        "source": "Kaart Ground Survey 2017"
      }
    },
    {
      "type": "node",
      "id": 4855625628,
      "lat": 22.3174835,
      "lon": 114.1725954,
      "timestamp": "2025-06-18T06:14:32Z",
      "version": 3,
      "changeset": 167765932,
      "user": "Wright One",
      "uid": 261189,
      "tags": {
        "addr:housenumber": "15",
        "addr:street": "黑布街 Hak Po Street",
        "amenity": "pub",
        "level": "0",
        "name": "月海 Luna Mare",
        "name:en": "Luna Mare",
        "name:zh": "月海",
        "opening_hours": "Mo-Su 16:30-02:30",
        "phone": "+852 2869 6099"
      }
    },
    {
      "type": "node",
      "id": 4856001437,
      "lat": 22.4869491,
      "lon": 113.9120935,
      "timestamp": "2017-05-15T16:25:51Z",
      "version": 1,
      "changeset": 48706004,
      "user": "xtile",
      "uid": 940481,
      "tags": {
        "amenity": "bar",
        "name": "Moulene Rouge"
      }
    },
    {
      "type": "node",
      "id": 4856016275,
      "lat": 22.4876402,
      "lon": 113.9113235,
      "timestamp": "2017-05-15T16:37:10Z",
      "version": 1,
      "changeset": 48706302,
      "user": "xtile",
      "uid": 940481,
      "tags": {
        "amenity": "pub",
        "name": "Sport BAr"
      }
    },
    {
      "type": "node",
      "id": 4858417127,
      "lat": 22.2779717,
      "lon": 114.1718823,
      "timestamp": "2018-04-18T13:28:05Z",
      "version": 3,
      "changeset": 58201296,
      "user": "Wright One",
      "uid": 261189,
      "tags": {
        "addr:street": "駱克道 Lockhart Road",
        "amenity": "bar",
        "name": "Chili Club",
        "source": "Kaart Ground Survey 2017"
      }
    },
    {
      "type": "node",
      "id": 4858417128,
      "lat": 22.2779339,
      "lon": 114.1719432,
      "timestamp": "2017-05-17T21:05:03Z",
      "version": 2,
      "changeset": 48773240,
      "user": "zwaygp",
      "uid": 5027347,
      "tags": {
        "addr:street": "駱克道 Lockhart Road",
        "amenity": "bar",
        "name": "Pub-Pine Bar",
        "source": "Kaart Ground Survey 2017"
      }
    },
    {
      "type": "node",
      "id": 4858417129,
      "lat": 22.2779928,
      "lon": 114.1721538,
      "timestamp": "2018-04-18T13:28:05Z",
      "version": 3,
      "changeset": 58201296,
      "user": "Wright One",
      "uid": 261189,
      "tags": {
        "addr:street": "駱克道 Lockhart Road",
        "amenity": "bar",
        "name": "Hawaii Club",
        "source": "Kaart Ground Survey 2017"
      }
    },
    {
      "type": "node",
      "id": 4858455473,
      "lat": 22.2782116,
      "lon": 114.1719801,
      "timestamp": "2017-10-22T12:54:27Z",
      "version": 4,
      "changeset": 53150982,
      "user": "Wright One",
      "uid": 261189,
      "tags": {
        "addr:street": "駱克道 Lockhart Road",
        "amenity": "bar",
        "name": "Players",
        "source": "Kaart Ground Survey 2017"
      }
    },
    {
      "type": "node",
      "id": 4858618227,
      "lat": 22.280729,
      "lon": 114.1834333,
      "timestamp": "2024-01-12T12:48:14Z",
      "version": 6,
      "changeset": 146179903,
      "user": "Wright One",
      "uid": 261189,
      "tags": {
        "addr:housenumber": "513",
        "addr:street": "駱克道 Lockhart Road",
        "amenity": "pub",
        "name": "Jinro Theme Store"
      }
    },
    {
      "type": "node",
      "id": 4858620564,
      "lat": 22.2816688,
      "lon": 114.1834493,
      "timestamp": "2023-08-03T13:17:04Z",
      "version": 4,
      "changeset": 139393998,
      "user": "Kovoschiz",
      "uid": 6250193,
      "tags": {
        "addr:street": "景隆街 Cannon Street",
        "amenity": "pub",
        "name": "Royal's Pub",
        "source": "Kaart Ground Survey 2017"
      }
    },
    {
      "type": "node",
      "id": 4858627326,
      "lat": 22.3748233,
      "lon": 114.1123762,
      "timestamp": "2024-04-28T04:26:16Z",
      "version": 7,
      "changeset": 150603223,
      "user": "Dogman15",
      "uid": 14845392,
      "tags": {
        "addr:street": "青山公路 - 荃灣段 Castle Peak Road - Tsuen Wan",
        "amenity": "bar",
        "brand": "太平洋酒吧 Bar Pacific",
        "brand:en": "Bar Pacific",
        "brand:wikidata": "Q28445474",
        "brand:zh": "太平洋酒吧",
        "name": "Bar Pacific",
        "name:en": "Bar Pacific",
        "name:zh": "太平洋酒吧",
        "source": "Kaart Ground Survey 2017"
      }
    },
    {
      "type": "node",
      "id": 4858671801,
      "lat": 22.3727689,
      "lon": 114.1113323,
      "timestamp": "2017-08-27T11:14:36Z",
      "version": 4,
      "changeset": 51479256,
      "user": "Philip C",
      "uid": 3306940,
      "tags": {
        "addr:street": "沙咀道 Sha Tsui Road",
        "amenity": "bar",
        "name": "TW Soho",
        "source": "Kaart Ground Survey 2017"
      }
    },
    {
      "type": "node",
      "id": 4860716985,
      "lat": 22.2677915,
      "lon": 114.1867938,
      "timestamp": "2017-08-22T23:43:23Z",
      "version": 3,
      "changeset": 51358797,
      "user": "FlyTy",
      "uid": 6095805,
      "tags": {
        "addr:street": "成和道 Sing Woo Road",
        "amenity": "bar",
        "name": "Sing Woo Road Bar & Grill",
        "outdoor_seating": "no",
        "source": "Kaart Ground Survey 2017"
      }
    },
    {
      "type": "node",
      "id": 4860721015,
      "lat": 22.3263362,
      "lon": 114.1669082,
      "timestamp": "2025-03-31T01:30:47Z",
      "version": 6,
      "changeset": 164310047,
      "user": "Ian Wagner",
      "uid": 8637794,
      "tags": {
        "addr:housenumber": "32",
        "addr:street": "界限街 Boundary Street",
        "amenity": "bar",
        "check_date": "2025-03-28",
        "contact:facebook": "https://www.facebook.com/boundkowloon",
        "contact:instagram": "https://www.instagram.com/boundkowloon/",
        "name": "Bound",
        "name:en": "Bound",
        "name:zh": "界限佳坊",
        "opening_hours": "Mo-Su 12:00-02:00",
        "payment:cash": "yes",
        "payment:credit_cards": "yes",
        "payment:debit_cards": "yes",
        "source": "Kaart Ground Survey 2017"
      }
    },
    {
      "type": "node",
      "id": 4860721610,
      "lat": 22.2687063,
      "lon": 114.1861671,
      "timestamp": "2017-05-18T14:45:49Z",
      "version": 2,
      "changeset": 48794264,
      "user": "Cyclomor90",
      "uid": 5722166,
      "tags": {
        "addr:street": "成和道 Sing Woo Road",
        "amenity": "bar",
        "name": "Wine Etc...",
        "source": "Kaart Ground Survey 2017"
      }
    },
    {
      "type": "node",
      "id": 4860729544,
      "lat": 22.292625,
      "lon": 114.20221,
      "timestamp": "2024-12-24T03:53:51Z",
      "version": 4,
      "changeset": 160561461,
      "user": "cnvery",
      "uid": 3627342,
      "tags": {
        "addr:street": "渣華道 Java Road",
        "amenity": "bar",
        "brand": "太平洋酒吧 Bar Pacific",
        "brand:en": "Bar Pacific",
        "brand:wikidata": "Q28445474",
        "brand:zh": "太平洋酒吧",
        "name": "Bar Pacific",
        "name:en": "Bar Pacific",
        "name:zh": "太平洋酒吧"
      }
    },
    {
      "type": "node",
      "id": 4862243409,
      "lat": 22.3711714,
      "lon": 114.1178992,
      "timestamp": "2021-11-01T04:26:15Z",
      "version": 5,
      "changeset": 113215759,
      "user": "tommydragon",
      "uid": 2620510,
      "tags": {
        "amenity": "pub",
        "name": "Co Co Duck",
        "source": "Kaart Ground Survey 2017"
      }
    },
    {
      "type": "node",
      "id": 4862243410,
      "lat": 22.3710935,
      "lon": 114.1180141,
      "timestamp": "2017-08-23T15:22:25Z",
      "version": 3,
      "changeset": 51379012,
      "user": "Philip C",
      "uid": 3306940,
      "tags": {
        "amenity": "bar",
        "name": "Sports Corner",
        "source": "Kaart Ground Survey 2017"
      }
    },
    {
      "type": "node",
      "id": 4862332012,
      "lat": 22.3032774,
      "lon": 114.1751654,
      "timestamp": "2017-05-18T21:34:00Z",
      "version": 2,
      "changeset": 48804242,
      "user": "bpowell1",
      "uid": 3317733,
      "tags": {
        "addr:street": "柯士甸道 Austin Road",
        "amenity": "bar",
        "name": "F-Bar",
        "source": "Kaart Ground Survey 2017"
      }
    },
    {
      "type": "node",
      "id": 4862478895,
      "lat": 22.36794,
      "lon": 114.1178169,
      "timestamp": "2024-04-28T04:26:16Z",
      "version": 6,
      "changeset": 150603223,
      "user": "Dogman15",
      "uid": 14845392,
      "tags": {
        "amenity": "bar",
        "brand": "太平洋酒吧 Bar Pacific",
        "brand:en": "Bar Pacific",
        "brand:wikidata": "Q28445474",
        "brand:zh": "太平洋酒吧",
        "name": "Bar Pacific",
        "name:en": "Bar Pacific",
        "name:zh": "太平洋酒吧",
        "source": "Kaart Ground Survey 2017"
      }
    },
    {
      "type": "node",
      "id": 4862649057,
      "lat": 22.335863,
      "lon": 114.1588819,
      "timestamp": "2022-09-18T17:02:26Z",
      "version": 3,
      "changeset": 126338992,
      "user": "andyonthewings",
      "uid": 1434844,
      "tags": {
        "addr:street": "元州街 Un Chau Street",
        "amenity": "bar",
        "contact:facebook": "https://www.facebook.com/barpacifichk/",
        "name": "Bar Pacific",
        "source": "Kaart Ground Survey 2017"
      }
    },
    {
      "type": "node",
      "id": 4862649059,
      "lat": 22.335781,
      "lon": 114.1589752,
      "timestamp": "2022-09-18T17:00:31Z",
      "version": 3,
      "changeset": 126338902,
      "user": "andyonthewings",
      "uid": 1434844,
      "tags": {
        "addr:housenumber": "298",
        "addr:street": "元州街 Un Chau Street",
        "amenity": "bar",
        "name": "Bar East",
        "source": "Kaart Ground Survey 2017",
        "website": "http://www.bareast.hk/"
      }
    },
    {
      "type": "node",
      "id": 4862651553,
      "lat": 22.2814585,
      "lon": 114.1269882,
      "timestamp": "2025-07-30T15:38:54Z",
      "version": 6,
      "changeset": 169727588,
      "user": "cnvery",
      "uid": 3627342,
      "tags": {
        "addr:street": "爹核士街 Davis Street",
        "amenity": "bar",
        "name": "42 Davis",
        "name:en": "42 Davis",
        "source": "Kaart Ground Survey 2017"
      }
    },
    {
      "type": "node",
      "id": 4864471044,
      "lat": 22.3095054,
      "lon": 114.1874805,
      "timestamp": "2025-08-31T23:59:18Z",
      "version": 4,
      "changeset": 171291209,
      "user": "secrecy420",
      "uid": 21917356,
      "tags": {
        "amenity": "bar",
        "name": "M8 Cafe & Pub",
        "source": "Kaart Ground Survey 2017"
      }
    },
    {
      "type": "node",
      "id": 4864471056,
      "lat": 22.3123824,
      "lon": 114.1873162,
      "timestamp": "2025-01-01T14:36:44Z",
      "version": 4,
      "changeset": 160865561,
      "user": "eversone",
      "uid": 4618964,
      "tags": {
        "amenity": "bar",
        "name": "Bar Pacific",
        "source": "Kaart Ground Survey 2017"
      }
    },
    {
      "type": "node",
      "id": 4866265922,
      "lat": 23.2180978,
      "lon": 113.3258797,
      "timestamp": "2017-05-20T14:33:29Z",
      "version": 1,
      "changeset": 48843956,
      "user": "leaningshanw",
      "uid": 4289053,
      "tags": {
        "amenity": "bar",
        "name:en": "Max Bar"
      }
    },
    {
      "type": "node",
      "id": 4870169137,
      "lat": 22.2868642,
      "lon": 114.1358518,
      "timestamp": "2017-08-04T23:06:17Z",
      "version": 3,
      "changeset": 50851965,
      "user": "FlyTy",
      "uid": 6095805,
      "tags": {
        "addr:street": "德輔道西 Des Voeux Road West",
        "amenity": "bar",
        "name": "Meeting Point Restaurant & Bar",
        "source": "Kaart Ground Survey 2017"
      }
    },
    {
      "type": "node",
      "id": 4951965822,
      "lat": 22.2763084,
      "lon": 114.167894,
      "timestamp": "2024-09-25T11:21:34Z",
      "version": 4,
      "changeset": 157077094,
      "user": "Gotson",
      "uid": 8035822,
      "tags": {
        "addr:street": "星街 Star Street",
        "amenity": "bar",
        "check_date:opening_hours": "2024-09-25",
        "name": "Oolaa Petite",
        "opening_hours:signed": "no"
      }
    },
    {
      "type": "node",
      "id": 4964389822,
      "lat": 22.2806351,
      "lon": 114.1552006,
      "timestamp": "2024-10-26T03:53:16Z",
      "version": 3,
      "changeset": 158360938,
      "user": "GasaiYuno",
      "uid": 10054182,
      "tags": {
        "addr:housenumber": "52",
        "addr:street": "德己立街 D'Aguilar Street",
        "amenity": "bar",
        "name": "8teens"
      }
    },
    {
      "type": "node",
      "id": 4984191421,
      "lat": 22.3012441,
      "lon": 114.1740518,
      "timestamp": "2022-10-27T17:35:29Z",
      "version": 3,
      "changeset": 128140119,
      "user": "andyonthewings",
      "uid": 1434844,
      "tags": {
        "addr:housenumber": "10-11",
        "addr:street": "諾士佛臺 Knutsford Terrace",
        "amenity": "bar",
        "level": "0",
        "name": "The China Bar",
        "name:en": "The China Bar"
      }
    },
    {
      "type": "node",
      "id": 4991484396,
      "lat": 22.2442322,
      "lon": 113.9787179,
      "timestamp": "2017-07-25T02:33:02Z",
      "version": 1,
      "changeset": 50543774,
      "user": "Elron",
      "uid": 204590,
      "tags": {
        "amenity": "bar",
        "name": "Water Buffalo"
      }
    },
    {
      "type": "node",
      "id": 5003147121,
      "lat": 23.1217121,
      "lon": 113.291062,
      "timestamp": "2019-02-13T15:08:34Z",
      "version": 3,
      "changeset": 67166388,
      "user": "Kingtin",
      "uid": 5063414,
      "tags": {
        "addr:housenumber": "9",
        "addr:street": "恤孤院路",
        "amenity": "bar",
        "name": "Kia Garden",
        "name:zh": "Kia Garden"
      }
    },
    {
      "type": "node",
      "id": 5020575022,
      "lat": 22.3193211,
      "lon": 114.1727287,
      "timestamp": "2025-10-01T09:21:42Z",
      "version": 5,
      "changeset": 172696507,
      "user": "Wright One",
      "uid": 261189,
      "tags": {
        "amenity": "pub",
        "name": "掌門 Zhang Men",
        "name:en": "Zhang Men",
        "name:zh": "掌門"
      }
    },
    {
      "type": "node",
      "id": 5041034837,
      "lat": 22.2741297,
      "lon": 114.1739595,
      "timestamp": "2024-07-19T08:12:09Z",
      "version": 3,
      "changeset": 154131983,
      "user": "b-jazz-bot",
      "uid": 9451067,
      "tags": {
        "addr:housenumber": "69",
        "addr:street": "石水渠街 Stone Nullah Lane",
        "amenity": "bar",
        "name": "Stone Nullah Tavern",
        "website": "https://www.stonenullahtavern.com/en/hongkong/contact/"
      }
    },
    {
      "type": "node",
      "id": 5073438022,
      "lat": 21.8561785,
      "lon": 111.9760321,
      "timestamp": "2017-09-01T14:06:32Z",
      "version": 1,
      "changeset": 51644743,
      "user": "aisphording",
      "uid": 6309066,
      "tags": {
        "amenity": "bar",
        "name:en": "Mr. Martin"
      }
    },
    {
      "type": "node",
      "id": 5106806808,
      "lat": 22.2256895,
      "lon": 114.1116263,
      "timestamp": "2024-03-23T09:00:32Z",
      "version": 4,
      "changeset": 149041820,
      "user": "Wright One",
      "uid": 261189,
      "tags": {
        "addr:city": "南丫島 Lamma Island",
        "addr:housenumber": "47",
        "addr:street": "榕樹灣大街 Yung Shue Wan Main Street",
        "amenity": "pub",
        "name": "Terracotta"
      }
    },
    {
      "type": "node",
      "id": 5151216624,
      "lat": 22.2822894,
      "lon": 114.186155,
      "timestamp": "2022-10-11T15:35:22Z",
      "version": 4,
      "changeset": 127367453,
      "user": "andyonthewings",
      "uid": 1434844,
      "tags": {
        "addr:housenumber": "9",
        "addr:street": "京士頓街 Kingston Street",
        "amenity": "pub",
        "contact:facebook": "https://www.facebook.com/SecondDraftHK/",
        "contact:instagram": "https://www.instagram.com/seconddrafthk/",
        "name": "Second Draft",
        "name:en": "Second Draft",
        "opening_hours": "Mo-Su 14:00-23:00",
        "website": "https://www.seconddraft.hk/"
      }
    },
    {
      "type": "node",
      "id": 5151225325,
      "lat": 22.2805971,
      "lon": 114.1552302,
      "timestamp": "2024-10-26T03:53:16Z",
      "version": 3,
      "changeset": 158360938,
      "user": "GasaiYuno",
      "uid": 10054182,
      "tags": {
        "addr:housenumber": "54",
        "addr:street": "德己立街 D'Aguilar Street",
        "amenity": "pub",
        "name": "Sugardolls"
      }
    },
    {
      "type": "node",
      "id": 5151248821,
      "lat": 22.2829135,
      "lon": 114.1527852,
      "timestamp": "2023-10-26T16:13:35Z",
      "version": 4,
      "changeset": 143169692,
      "user": "HolloWorld",
      "uid": 6946532,
      "tags": {
        "addr:housenumber": "62",
        "addr:street": "荷李活道 Hollywood Road",
        "amenity": "bar",
        "level": "0",
        "name": "La Cabane Wine Bistro",
        "phone": "+852 2776 6070",
        "ref:openrice": "118684",
        "website": "https://lacabane.hk/"
      }
    },
    {
      "type": "node",
      "id": 5151255625,
      "lat": 22.2830943,
      "lon": 114.1529709,
      "timestamp": "2017-10-06T08:57:11Z",
      "version": 1,
      "changeset": 52676800,
      "user": "KorBorNor",
      "uid": 6066920,
      "tags": {
        "amenity": "bar",
        "name:en": "Time bar"
      }
    },
    {
      "type": "node",
      "id": 5151255626,
      "lat": 22.2831709,
      "lon": 114.1529272,
      "timestamp": "2021-08-03T10:11:51Z",
      "version": 2,
      "changeset": 109083983,
      "user": "torapa",
      "uid": 5446055,
      "tags": {
        "amenity": "bar",
        "name:en": "Club 71"
      }
    },
    {
      "type": "node",
      "id": 5151255627,
      "lat": 22.282265,
      "lon": 114.15475,
      "timestamp": "2018-06-29T16:56:47Z",
      "version": 2,
      "changeset": 60284501,
      "user": "Wright One",
      "uid": 261189,
      "tags": {
        "addr:housenumber": "35",
        "addr:street": "砵典乍街 Pottinger Street",
        "amenity": "bar",
        "level": "0",
        "name": "LINQ",
        "ref:openrice": "16671"
      }
    },
    {
      "type": "node",
      "id": 5154981124,
      "lat": 22.2736888,
      "lon": 114.1741997,
      "timestamp": "2024-01-02T12:02:29Z",
      "version": 3,
      "changeset": 145795066,
      "user": "Wright One",
      "uid": 261189,
      "tags": {
        "addr:housenumber": "5-9",
        "addr:street": "慶雲街 Hing Wan Street",
        "amenity": "bar",
        "name": "Tai Lung Fung",
        "phone": "+852 2572 0055",
        "wheelchair": "yes"
      }
    },
    {
      "type": "node",
      "id": 5158969223,
      "lat": 22.2968403,
      "lon": 114.1704763,
      "timestamp": "2025-03-31T17:35:25Z",
      "version": 3,
      "changeset": 164341679,
      "user": "Wright One",
      "uid": 261189,
      "tags": {
        "addr:housenumber": "11A",
        "addr:street": "亞士厘道 Ashley Road",
        "amenity": "pub",
        "name": "Ned Kelly's Last Stand"
      }
    },
    {
      "type": "node",
      "id": 5160479022,
      "lat": 22.2819939,
      "lon": 114.1852399,
      "timestamp": "2025-03-21T12:04:59Z",
      "version": 3,
      "changeset": 163902772,
      "user": "Wright One",
      "uid": 261189,
      "tags": {
        "amenity": "pub",
        "name": "The Black Dog"
      }
    },
    {
      "type": "node",
      "id": 5168448822,
      "lat": 22.4864101,
      "lon": 113.9131341,
      "timestamp": "2024-04-21T15:11:20Z",
      "version": 2,
      "changeset": 150306760,
      "user": "Mark Redfearn",
      "uid": 6057666,
      "tags": {
        "amenity": "bar",
        "name:en": "The Snake Pit"
      }
    },
    {
      "type": "node",
      "id": 5169911942,
      "lat": 22.5397762,
      "lon": 113.9884041,
      "timestamp": "2019-11-08T10:30:11Z",
      "version": 2,
      "changeset": 76801385,
      "user": "ilf",
      "uid": 261437,
      "tags": {
        "amenity": "bar",
        "name": "一渡堂",
        "name:en": "Idutang"
      }
    },
    {
      "type": "node",
      "id": 5169911943,
      "lat": 22.540345,
      "lon": 113.9886483,
      "timestamp": "2017-10-15T20:24:37Z",
      "version": 1,
      "changeset": 52965109,
      "user": "XD346",
      "uid": 4892967,
      "tags": {
        "amenity": "pub",
        "name": "青朴落乡村酒馆"
      }
    },