{
  "version": 0.6,
  "generator": "Overpass API 0.7.62.8 e802775f",
  "osm3s": {
    "timestamp_osm_base": "2025-10-23T19:58:30Z",
    "copyright": "The data included in this document is from www.openstreetmap.org. The data is made available under ODbL."
  },
  "elements": [
    {
      "type": "node",
      "id": 293691031,
      "lat": 11.67066,
      "lon": 92.7427,
      "timestamp": "2008-09-04T19:24:29Z",
      "version": 2,
      "changeset": 528582,
      "user": "dockers",
      "uid": 35009,
      "tags": {
        "amenity": "pub",
        "name": "Netaji Club"
      }
    },
    {
      "type": "node",
      "id": 703520060,
      "lat": 17.0083067,
      "lon": 99.8160858,
      "timestamp": "2016-01-26T10:56:23Z",
      "version": 3,
      "changeset": 36813648,
      "user": "Russ McD",
      "uid": 346601,
      "tags": {
        "amenity": "pub",
        "name": "Chopper Bar"
      }
    },
    {
      "type": "node",
      "id": 814793112,
      "lat": 12.5659323,
      "lon": 99.9596937,
      "timestamp": "2014-01-01T23:22:53Z",
      "version": 4,
      "changeset": 19754757,
      "user": "stephankn",
      "uid": 61891,
      "tags": {
        "amenity": "pub",
        "name": "Guys",
        "note": "gay",
        "phone": "+66817899030"
      }
    },
    {
      "type": "node",
      "id": 820792799,
      "lat": 18.7842762,
      "lon": 98.9957032,
      "timestamp": "2015-07-15T15:02:54Z",
      "version": 2,
      "changeset": 32653925,
      "user": "Johnny Carlsen",
      "uid": 38985,
      "tags": {
        "amenity": "pub",
        "name": "Joy Bar"
      }
    },
    {
      "type": "node",
      "id": 820792801,
      "lat": 18.7844334,
      "lon": 98.9955957,
      "timestamp": "2015-07-15T15:00:22Z",
      "version": 2,
      "changeset": 32653925,
      "user": "Johnny Carlsen",
      "uid": 38985,
      "tags": {
        "amenity": "pub",
        "name": "Good Friends",
        "source": "http://www.mapillary.com/map/im/QBwXhA7_RoJ8Esqx9ytn1g"
      }
    },
    {
      "type": "node",
      "id": 820792822,
      "lat": 18.7846608,
      "lon": 98.9955603,
      "timestamp": "2014-01-10T08:22:49Z",
      "version": 2,
      "changeset": 19913109,
      "user": "Johnny Carlsen",
      "uid": 38985,
      "tags": {
        "amenity": "pub",
        "name": "Fullmoon 2"
      }
    },
    {
      "type": "node",
      "id": 820798644,
      "lat": 18.7845148,
      "lon": 98.9951915,
      "timestamp": "2015-07-15T14:47:17Z",
      "version": 3,
      "changeset": 32653569,
      "user": "Johnny Carlsen",
      "uid": 38985,
      "tags": {
        "amenity": "pub",
        "name": "Paradise",
        "source": "http://www.mapillary.com/map/im/hEUmWi_rRtUuoCwa35SNlQ"
      }
    },
    {
      "type": "node",
      "id": 820812474,
      "lat": 18.7843856,
      "lon": 98.9948357,
      "timestamp": "2024-01-04T15:59:28Z",
      "version": 4,
      "changeset": 145887728,
      "user": "Deciduous Waffle",
      "uid": 12669582,
      "tags": {
        "alt_name": "Number One Bar",
        "amenity": "pub",
        "name": "Number 1 Cafe Bistro",
        "note": "Sells a variety of special beers, imported and local, in bottles and on tap."
      }
    },
    {
      "type": "node",
      "id": 820820897,
      "lat": 18.7846124,
      "lon": 98.9948536,
      "timestamp": "2019-02-21T15:54:31Z",
      "version": 8,
      "changeset": 67434178,
      "user": "Johnny Carlsen",
      "uid": 38985,
      "tags": {
        "alt_name": "Wild Boar Chiang Mai Inn",
        "amenity": "pub",
        "internet_access": "wlan",
        "internet_access:fee": "no",
        "name": "Wild Boar",
        "pub": "yes",
        "source": "http://www.mapillary.com/map/im/-n_-2u5eGi-0a__dgnHTtQ"
      }
    },
    {
      "type": "node",
      "id": 880660091,
      "lat": 18.8101799,
      "lon": 99.008121,
      "timestamp": "2013-12-12T08:01:05Z",
      "version": 2,
      "changeset": 19407771,
      "user": "Johnny Carlsen",
      "uid": 38985,
      "tags": {
        "amenity": "pub",
        "name": "Ratree Club"
      }
    },
    {
      "type": "node",
      "id": 906244402,
      "lat": 19.9067918,
      "lon": 99.8311863,
      "timestamp": "2025-10-19T08:57:35Z",
      "version": 11,
      "changeset": 173480539,
      "user": "Sutatta",
      "uid": 23412309,
      "tags": {
        "addr:housenumber": "1025/34-35",
        "amenity": "bar",
        "motorcycle:rental": "yes",
        "name": "ST Motorcycles Rentals & Sales",
        "note": "check location - coorected now.",
        "opening_hours": "Mo-Su 07:00-19:00",
        "phone": "+6653713652"
      }
    },
    {
      "type": "node",
      "id": 955952426,
      "lat": 18.7842174,
      "lon": 99.0162836,
      "timestamp": "2010-10-18T12:27:45Z",
      "version": 1,
      "changeset": 6081486,
      "user": "marek kleciak",
      "uid": 338611,
      "tags": {
        "amenity": "pub"
      }
    },
    {
      "type": "node",
      "id": 1010788425,
      "lat": 18.7682418,
      "lon": 99.0738972,
      "timestamp": "2015-06-18T16:35:38Z",
      "version": 2,
      "changeset": 32055289,
      "user": "Johnny Carlsen",
      "uid": 38985,
      "tags": {
        "amenity": "pub",
        "cuisine": "international",
        "name:en": "7up"
      }
    },
    {
      "type": "node",
      "id": 1040747784,
      "lat": 10.0987223,
      "lon": 99.8282239,
      "timestamp": "2015-06-09T05:50:38Z",
      "version": 4,
      "changeset": 31834472,
      "user": "nhdr",
      "uid": 1966781,
      "tags": {
        "amenity": "bar",
        "name": "Lotus Bar"
      }
    },
    {
      "type": "node",
      "id": 1040747786,
      "lat": 10.0977606,
      "lon": 99.8288842,
      "timestamp": "2011-03-20T08:33:16Z",
      "version": 2,
      "changeset": 7613584,
      "user": "jot",
      "uid": 47681,
      "tags": {
        "amenity": "bar",
        "fixme": "position estimated",
        "name": "Sunflower"
      }
    },
    {
      "type": "node",
      "id": 1040748235,
      "lat": 10.093474,
      "lon": 99.8276053,
      "timestamp": "2017-04-04T18:54:06Z",
      "version": 2,
      "changeset": 47452175,
      "user": "gezginrocker",
      "uid": 1686268,
      "tags": {
        "amenity": "bar",
        "fixme": "position estimated",
        "name": "Fishbowl"
      }
    },
    {
      "type": "node",
      "id": 1041205031,
      "lat": 18.7754918,
      "lon": 98.9767529,
      "timestamp": "2019-11-21T05:18:01Z",
      "version": 4,
      "changeset": 77353323,
      "user": "Russ McD",
      "uid": 346601,
      "tags": {
        "amenity": "bar",
        "name": "BN Club"
      }
    },
    {
      "type": "node",
      "id": 1041207306,
      "lat": 18.7754726,
      "lon": 98.9768886,
      "timestamp": "2019-11-21T05:18:01Z",
      "version": 5,
      "changeset": 77353323,
      "user": "Russ McD",
      "uid": 346601,
      "tags": {
        "amenity": "bar",
        "name": "Time Out"
      }
    },
    {
      "type": "node",
      "id": 1041207339,
      "lat": 18.7754618,
      "lon": 98.9769654,
      "timestamp": "2019-11-21T05:18:01Z",
      "version": 4,
      "changeset": 77353323,
      "user": "Russ McD",
      "uid": 346601,
      "tags": {
        "amenity": "bar",
        "name": "Y-Zone Club"
      }
    },
    {
      "type": "node",
      "id": 1041255922,
      "lat": 18.7878049,
      "lon": 98.9943218,
      "timestamp": "2015-06-26T13:12:19Z",
      "version": 3,
      "changeset": 32225454,
      "user": "Johnny Carlsen",
      "uid": 38985,
      "tags": {
        "amenity": "bar",
        "name": "Inter Bar",
        "source": "http://www.mapillary.com/map/im/_zec-Es6p6o4TzR5K4I3Ew"
      }
    },
    {
      "type": "node",
      "id": 1041291199,
      "lat": 18.7851529,
      "lon": 98.9934233,
      "timestamp": "2016-01-12T06:38:05Z",
      "version": 3,
      "changeset": 36519943,
      "user": "Peilscheibe",
      "uid": 35560,
      "tags": {
        "amenity": "pub",
        "name": "Win Rockstyle Bar"
      }
    },
    {
      "type": "node",
      "id": 1054147436,
      "lat": 18.7890221,
      "lon": 99.0993161,
      "timestamp": "2017-03-10T08:21:48Z",
      "version": 2,
      "changeset": 46731652,
      "user": "Johnny Carlsen",
      "uid": 38985,
      "tags": {
        "amenity": "bar",
        "name": "555"
      }
    },
    {
      "type": "node",
      "id": 1057660774,
      "lat": 18.7898239,
      "lon": 99.0039815,
      "timestamp": "2023-05-30T15:55:58Z",
      "version": 6,
      "changeset": 136753289,
      "user": "Big Gay Al",
      "uid": 18807936,
      "tags": {
        "amenity": "bar",
        "name": "Riverside Bar & Restaurant",
        "name:zh": "河边餐厅酒吧",
        "opening_hours": "Mon-Sun 17:00-01:00",
        "phone": "053243239",
        "website": "http://www.theriversidechiangmai.com/"
      }
    },
    {
      "type": "node",
      "id": 1059124526,
      "lat": 18.5864113,
      "lon": 99.0514186,
      "timestamp": "2010-12-23T20:11:28Z",
      "version": 3,
      "changeset": 6749282,
      "user": "Johnny Carlsen",
      "uid": 38985,
      "tags": {
        "amenity": "bar",
        "name": "Buzz Club"
      }
    },
    {
      "type": "node",
      "id": 1059124602,
      "lat": 18.5863068,
      "lon": 99.0507263,
      "timestamp": "2010-12-23T20:11:28Z",
      "version": 3,
      "changeset": 6749282,
      "user": "Johnny Carlsen",
      "uid": 38985,
      "tags": {
        "amenity": "pub",
        "name": "The Room"
      }
    },
    {
      "type": "node",
      "id": 1059207097,
      "lat": 18.5848035,
      "lon": 99.0535243,
      "timestamp": "2010-12-23T13:43:25Z",
      "version": 1,
      "changeset": 6745408,
      "user": "Johnny Carlsen",
      "uid": 38985,
      "tags": {
        "amenity": "bar"
      }
    },
    {
      "type": "node",
      "id": 1059207151,
      "lat": 18.5849553,
      "lon": 99.0536941,
      "timestamp": "2010-12-23T13:43:26Z",
      "version": 1,
      "changeset": 6745408,
      "user": "Johnny Carlsen",
      "uid": 38985,
      "tags": {
        "amenity": "bar"
      }
    },
    {
      "type": "node",
      "id": 1059207208,
      "lat": 18.5850135,
      "lon": 99.0535466,
      "timestamp": "2010-12-23T13:44:56Z",
      "version": 2,
      "changeset": 6745431,
      "user": "Johnny Carlsen",
      "uid": 38985,
      "tags": {
        "amenity": "bar"
      }
    },
    {
      "type": "node",
      "id": 1059375527,
      "lat": 18.5876562,
      "lon": 99.0478607,
      "timestamp": "2010-12-23T15:16:19Z",
      "version": 1,
      "changeset": 6746263,
      "user": "Johnny Carlsen",
      "uid": 38985,
      "tags": {
        "amenity": "bar"
      }
    },
    {
      "type": "node",
      "id": 1059460505,
      "lat": 18.5878299,
      "lon": 99.0474278,
      "timestamp": "2010-12-23T15:43:17Z",
      "version": 1,
      "changeset": 6746480,
      "user": "Johnny Carlsen",
      "uid": 38985,
      "tags": {
        "amenity": "pub",
        "name": "Rodeo Pub"
      }
    },
    {
      "type": "node",
      "id": 1059460630,
      "lat": 18.5878606,
      "lon": 99.047335,
      "timestamp": "2010-12-23T15:43:20Z",
      "version": 1,
      "changeset": 6746480,
      "user": "Johnny Carlsen",
      "uid": 38985,
      "tags": {
        "amenity": "bar",
        "name": "Bang-aov"
      }
    },
    {
      "type": "node",
      "id": 1059460778,
      "lat": 18.5880415,
      "lon": 99.0467409,
      "timestamp": "2010-12-23T15:43:24Z",
      "version": 1,
      "changeset": 6746480,
      "user": "Johnny Carlsen",
      "uid": 38985,
      "tags": {
        "amenity": "bar"
      }
    },
    {
      "type": "node",
      "id": 1059460862,
      "lat": 18.5880101,
      "lon": 99.046798,
      "timestamp": "2010-12-23T15:43:26Z",
      "version": 1,
      "changeset": 6746480,
      "user": "Johnny Carlsen",
      "uid": 38985,
      "tags": {
        "amenity": "bar",
        "name": "เพีอน เพ"
      }
    },
    {
      "type": "node",
      "id": 1104297179,
      "lat": 18.7567841,
      "lon": 99.076003,
      "timestamp": "2011-01-15T08:05:41Z",
      "version": 1,
      "changeset": 6974218,
      "user": "Johnny Carlsen",
      "uid": 38985,
      "tags": {
        "amenity": "bar"
      }
    },
    {
      "type": "node",
      "id": 1104446552,
      "lat": 18.7548765,
      "lon": 99.0549772,
      "timestamp": "2011-01-15T11:58:43Z",
      "version": 1,
      "changeset": 6976128,
      "user": "Johnny Carlsen",
      "uid": 38985,
      "tags": {
        "amenity": "bar"
      }
    },
    {
      "type": "node",
      "id": 1154019828,
      "lat": 18.7459137,
      "lon": 99.1186778,
      "timestamp": "2015-06-20T13:03:14Z",
      "version": 3,
      "changeset": 32096606,
      "user": "Johnny Carlsen",
      "uid": 38985,
      "tags": {
        "amenity": "bar",
        "name": "Olarn House",
        "name:en": "Olarn House",
        "note": "delete, exists no more",
        "opening_hours": "Mo-Su 17:00-24:00"
      }
    },
    {
      "type": "node",
      "id": 1210133649,
      "lat": 10.0994407,
      "lon": 99.8289162,
      "timestamp": "2013-05-28T10:20:05Z",
      "version": 2,
      "changeset": 16321687,
      "user": "andywcoder",
      "uid": 202283,
      "tags": {
        "amenity": "bar",
        "name": "Diza Bar"
      }
    },
    {
      "type": "node",
      "id": 1297083336,
      "lat": 18.7850383,
      "lon": 98.9940853,
      "timestamp": "2023-01-13T11:30:01Z",
      "version": 3,
      "changeset": 131225520,
      "user": "Russ McD",
      "uid": 346601,
      "tags": {
        "amenity": "pub",
        "name": "Bar Cherry",
        "source": "survey"
      }
    },
    {
      "type": "node",
      "id": 1388374491,
      "lat": 18.7791169,
      "lon": 98.9883149,
      "timestamp": "2014-02-05T21:41:14Z",
      "version": 2,
      "changeset": 20401381,
      "user": "stephankn",
      "uid": 61891,
      "tags": {
        "addr:housenumber": "6",
        "addr:postcode": "50100",
        "addr:street": "Suryawong Rd",
        "amenity": "pub",
        "name": "Doo Dee Pub & Restaurant",
        "wifi": "free"
      }
    },
    {
      "type": "node",
      "id": 1398303019,
      "lat": 18.2911593,
      "lon": 99.4924001,
      "timestamp": "2011-09-11T07:48:33Z",
      "version": 2,
      "changeset": 9268321,
      "user": "Russ McD",
      "uid": 346601,
      "tags": {
        "amenity": "bar",
        "name": "Riverside",
        "source": "Local knowledge"
      }
    },
    {
      "type": "node",
      "id": 1417702849,
      "lat": 18.7764996,
      "lon": 99.0372635,
      "timestamp": "2011-08-30T02:37:47Z",
      "version": 1,
      "changeset": 9163402,
      "user": "Johnny Carlsen",
      "uid": 38985,
      "tags": {
        "amenity": "bar"
      }
    },
    {
      "type": "node",
      "id": 1417970916,
      "lat": 18.7574403,
      "lon": 99.0758545,
      "timestamp": "2011-08-30T11:50:17Z",
      "version": 2,
      "changeset": 9166390,
      "user": "Johnny Carlsen",
      "uid": 38985,
      "tags": {
        "amenity": "bar",
        "note": "outdoor"
      }
    },
    {
      "type": "node",
      "id": 1417971840,
      "lat": 18.7579709,
      "lon": 99.0762514,
      "timestamp": "2011-08-30T11:50:16Z",
      "version": 1,
      "changeset": 9166390,
      "user": "Johnny Carlsen",
      "uid": 38985,
      "tags": {
        "amenity": "bar",
        "note": "outdoor"
      }
    },
    {
      "type": "node",
      "id": 1417971841,
      "lat": 18.759872,
      "lon": 99.0777439,
      "timestamp": "2014-03-18T13:34:24Z",
      "version": 2,
      "changeset": 21174261,
      "user": "Johnny Carlsen",
      "uid": 38985,
      "tags": {
        "amenity": "bar",
        "note": "mini"
      }
    },
    {
      "type": "node",
      "id": 1446108980,
      "lat": 10.0868681,
      "lon": 99.8292322,
      "timestamp": "2023-07-29T03:05:00Z",
      "version": 2,
      "changeset": 139157865,
      "user": "GeoGerd",
      "uid": 86317,
      "tags": {
        "amenity": "pub",
        "name": "Sunset View",
        "opening_hours": "PH,Mo-Su 10:00-22:00"
      }
    },
    {
      "type": "node",
      "id": 1453427009,
      "lat": 18.7846675,
      "lon": 98.9941774,
      "timestamp": "2015-07-15T12:02:59Z",
      "version": 2,
      "changeset": 32648997,
      "user": "Johnny Carlsen",
      "uid": 38985,
      "tags": {
        "amenity": "bar",
        "cuisine": "international",
        "name": "Som's Place",
        "source": "http://www.mapillary.com/map/im/9j1ARS_fJzqALmExdGTelg"
      }
    },
    {
      "type": "node",
      "id": 1477740789,
      "lat": 18.7841342,
      "lon": 98.9961438,
      "timestamp": "2023-11-11T09:53:57Z",
      "version": 3,
      "changeset": 143892392,
      "user": "Russ McD",
      "uid": 346601,
      "tags": {
        "amenity": "bar",
        "name": "Pheonix Bar"
      }
    },
    {
      "type": "node",
      "id": 1491288233,
      "lat": 18.7912157,
      "lon": 98.990758,
      "timestamp": "2011-11-04T12:11:01Z",
      "version": 1,
      "changeset": 9737909,
      "user": "Johnny Carlsen",
      "uid": 38985,
      "tags": {
        "amenity": "bar",
        "name": "Roots Rock Reggae"
      }
    },
    {
      "type": "node",
      "id": 1491288259,
      "lat": 18.7912197,
      "lon": 98.9904314,
      "timestamp": "2017-03-22T05:26:24Z",
      "version": 4,
      "changeset": 47058428,
      "user": "Russ McD",
      "uid": 346601,
      "tags": {
        "amenity": "bar",
        "name": "Babylon Bar",
        "name:th": "Pentatonic Rock Bar"
      }
    },
    {
      "type": "node",
      "id": 1491288350,
      "lat": 18.7910577,
      "lon": 98.9904008,
      "timestamp": "2011-11-05T04:37:16Z",
      "version": 2,
      "changeset": 9743710,
      "user": "Johnny Carlsen",
      "uid": 38985,
      "tags": {
        "amenity": "bar",
        "name": "Full Moon Bar"
      }
    },
    {
      "type": "node",
      "id": 1491364000,
      "lat": 18.7913953,
      "lon": 98.9941853,
      "timestamp": "2011-11-05T04:39:38Z",
      "version": 2,
      "changeset": 9743710,
      "user": "Johnny Carlsen",
      "uid": 38985,
      "tags": {
        "amenity": "bar",
        "name": "Dude Bar"
      }
    },
    {
      "type": "node",
      "id": 1491392363,
      "lat": 18.7925887,
      "lon": 98.9944685,
      "timestamp": "2017-05-11T18:57:12Z",
      "version": 3,
      "changeset": 48601678,
      "user": "Mac_01",
      "uid": 2722257,
      "tags": {
        "amenity": "bar",
        "name": "Soi 1 Bar"
      }
    },
    {
      "type": "node",
      "id": 1491428046,
      "lat": 18.7912578,
      "lon": 98.9953692,
      "timestamp": "2023-07-08T23:40:58Z",
      "version": 8,
      "changeset": 138280503,
      "user": "b-jazz-bot",
      "uid": 9451067,
      "tags": {
        "addr:city": "Chiang Mai",
        "addr:housenumber": "56/2",
        "addr:postcode": "50300",
        "addr:street": "ถนนช้างม่อยเก่า",
        "amenity": "bar",
        "name": "เพื่อน PEUN",
        "opening_hours": "Tu-Sa 09:00-20:00",
        "website": "https://www.facebook.com/peunchiangmai"
      }
    },
    {
      "type": "node",
      "id": 1569240633,
      "lat": 12.8045549,
      "lon": 99.9865063,
      "timestamp": "2011-12-30T14:30:16Z",
      "version": 1,
      "changeset": 10245748,
      "user": "Bartholdy",
      "uid": 49721,
      "tags": {
        "amenity": "bar",
        "name": "Baan Chan"
      }
    },
    {
      "type": "node",
      "id": 1595614822,
      "lat": 18.7972945,
      "lon": 98.9759974,
      "timestamp": "2016-03-30T08:54:25Z",
      "version": 3,
      "changeset": 38161657,
      "user": "nhdr",
      "uid": 1966781,
      "tags": {
        "amenity": "bar",
        "level": "1",
        "name": "Dae Jang Geum"
      }
    },
    {
      "type": "node",
      "id": 1615270730,
      "lat": 18.7859508,
      "lon": 98.992976,
      "timestamp": "2022-10-16T18:54:12Z",
      "version": 5,
      "changeset": 127632525,
      "user": "Christoph Lotz",
      "uid": 47978,
      "tags": {
        "addr:city": "Chiang Mai",
        "addr:country": "TH",
        "addr:housenumber": "3-33",
        "addr:postcode": "50200",
        "addr:street": "Moon Muang Road",
        "amenity": "pub",
        "brewery": "Guinness;tiger;san_miguel_light",
        "name": "The Moat House",
        "opening_hours": "2pm - midnight"
      }
    },
    {
      "type": "node",
      "id": 1617102558,
      "lat": 18.7858648,
      "lon": 98.9995976,
      "timestamp": "2014-02-05T03:40:09Z",
      "version": 2,
      "changeset": 20385192,
      "user": "FreedomLife",
      "uid": 1874087,
      "tags": {
        "amenity": "bar",
        "name": "Foxy Lady"
      }
    },
    {
      "type": "node",
      "id": 1700561110,
      "lat": 10.1108928,
      "lon": 99.8348079,
      "timestamp": "2017-04-13T10:26:57Z",
      "version": 7,
      "changeset": 47737863,
      "user": "gezginrocker",
      "uid": 1686268,
      "tags": {
        "amenity": "bar",
        "description": "Entrance to the vievpoint is paid - 20B",
        "fee": "yes",
        "name": "Mango Viewpoint",
        "payment:cash": "yes"
      }
    },
    {
      "type": "node",
      "id": 1777077548,
      "lat": 18.7835004,
      "lon": 98.997628,
      "timestamp": "2012-06-05T13:22:35Z",
      "version": 2,
      "changeset": 11806102,
      "user": "Johnny Carlsen",
      "uid": 38985,
      "tags": {
        "amenity": "bar",
        "name": "Ball Bar"
      }
    },
    {
      "type": "node",
      "id": 1777077595,
      "lat": 18.7834711,
      "lon": 98.9978513,
      "timestamp": "2012-06-05T13:19:49Z",
      "version": 1,
      "changeset": 11806083,
      "user": "Johnny Carlsen",
      "uid": 38985,
      "tags": {
        "amenity": "bar",
        "name": "Chuan Chom Bar"
      }
    },
    {
      "type": "node",
      "id": 1777077630,
      "lat": 18.7834058,
      "lon": 98.9978472,
      "timestamp": "2012-06-05T13:19:50Z",
      "version": 1,
      "changeset": 11806083,
      "user": "Johnny Carlsen",
      "uid": 38985,
      "tags": {
        "amenity": "bar",
        "name": "Marina Ladyboy Bar"
      }
    },
    {
      "type": "node",
      "id": 1777077664,
      "lat": 18.7833541,
      "lon": 98.9978451,
      "timestamp": "2012-06-05T13:19:51Z",
      "version": 1,
      "changeset": 11806083,
      "user": "Johnny Carlsen",
      "uid": 38985,
      "tags": {
        "amenity": "bar",
        "name": "Jenny's Happy Bar"
      }
    },
    {
      "type": "node",
      "id": 1777077724,
      "lat": 18.7833021,
      "lon": 98.9978424,
      "timestamp": "2012-06-05T13:19:52Z",
      "version": 1,
      "changeset": 11806083,
      "user": "Johnny Carlsen",
      "uid": 38985,
      "tags": {
        "amenity": "bar"
      }
    },
    {
      "type": "node",
      "id": 1777077779,
      "lat": 18.7832958,
      "lon": 98.9977719,
      "timestamp": "2018-04-11T13:31:01Z",
      "version": 3,
      "changeset": 58002227,
      "user": "Russ McD",
      "uid": 346601,
      "tags": {
        "amenity": "bar",
        "name": "Icy Grant Bar"
      }
    },
    {
      "type": "node",
      "id": 1777077884,
      "lat": 18.7833065,
      "lon": 98.9976734,
      "timestamp": "2018-04-11T13:31:01Z",
      "version": 2,
      "changeset": 58002227,
      "user": "Russ McD",
      "uid": 346601,
      "tags": {
        "amenity": "bar",
        "name": "Sakura"
      }
    },
    {
      "type": "node",
      "id": 1777077941,
      "lat": 18.7833148,
      "lon": 98.9976064,
      "timestamp": "2018-04-11T13:31:01Z",
      "version": 3,
      "changeset": 58002227,
      "user": "Russ McD",
      "uid": 346601,
      "tags": {
        "amenity": "bar",
        "name": "Meeting Bar"
      }
    },
    {
      "type": "node",
      "id": 1777079511,
      "lat": 18.7835621,
      "lon": 98.9976586,
      "timestamp": "2012-06-05T13:22:36Z",
      "version": 1,
      "changeset": 11806102,
      "user": "Johnny Carlsen",
      "uid": 38985,
      "tags": {
        "amenity": "bar",
        "name": "Rainbow Bar"
      }
    },
    {
      "type": "node",
      "id": 1777079512,
      "lat": 18.7836438,
      "lon": 98.9978121,
      "timestamp": "2012-06-05T13:22:37Z",
      "version": 1,
      "changeset": 11806102,
      "user": "Johnny Carlsen",
      "uid": 38985,
      "tags": {
        "amenity": "bar",
        "name": "The Flash Bar"
      }
    },
    {
      "type": "node",
      "id": 1777087142,
      "lat": 18.7834462,
      "lon": 98.9975863,
      "timestamp": "2012-06-05T13:33:55Z",
      "version": 1,
      "changeset": 11806191,
      "user": "Johnny Carlsen",
      "uid": 38985,
      "tags": {
        "amenity": "bar",
        "name": "Poppy"
      }
    },
    {
      "type": "node",
      "id": 1777087206,
      "lat": 18.783394,
      "lon": 98.9975545,
      "timestamp": "2012-06-05T13:33:56Z",
      "version": 1,
      "changeset": 11806191,
      "user": "Johnny Carlsen",
      "uid": 38985,
      "tags": {
        "amenity": "bar",
        "name": "New Star Bar"
      }
    },
    {
      "type": "node",
      "id": 1777087576,
      "lat": 18.7835568,
      "lon": 98.997359,
      "timestamp": "2024-07-09T12:12:45Z",
      "version": 2,
      "changeset": 153742159,
      "user": "Maverick604",
      "uid": 20796519,
      "tags": {
        "amenity": "bar",
        "name": "Scorpion Bar"
      }
    },
    {
      "type": "node",
      "id": 1789371796,
      "lat": 18.8307329,
      "lon": 99.0339641,
      "timestamp": "2015-05-25T12:13:57Z",
      "version": 2,
      "changeset": 31441891,
      "user": "Johnny Carlsen",
      "uid": 38985,
      "tags": {
        "alt_name": "Temple Bar",
        "amenity": "bar",
        "fixme": "Facebook says this place may be closed",
        "name": "GJ Bar & Restaurant"
      }
    },
    {
      "type": "node",
      "id": 1789540426,
      "lat": 19.8786676,
      "lon": 99.8302687,
      "timestamp": "2012-06-16T04:56:38Z",
      "version": 1,
      "changeset": 11910646,
      "user": "Russ McD",
      "uid": 346601,
      "tags": {
        "amenity": "bar"
      }
    },
    {
      "type": "node",
      "id": 1796992464,
      "lat": 18.7977549,
      "lon": 98.9672647,
      "timestamp": "2023-09-01T11:39:10Z",
      "version": 3,
      "changeset": 140675419,
      "user": "wvdp",
      "uid": 436419,
      "tags": {
        "amenity": "bar",
        "name": "Madbar"
      }
    },
    {
      "type": "node",
      "id": 1797003456,
      "lat": 18.7982802,
      "lon": 98.9687103,
      "timestamp": "2015-01-14T16:00:40Z",
      "version": 2,
      "changeset": 28140828,
      "user": "Johnny Carlsen",
      "uid": 38985,
      "tags": {
        "amenity": "bar",
        "name": "Club Cafe"
      }
    },
    {
      "type": "node",
      "id": 1797010003,
      "lat": 18.7976084,
      "lon": 98.969166,
      "timestamp": "2023-12-17T13:47:02Z",
      "version": 4,
      "changeset": 145215652,
      "user": "Deciduous Waffle",
      "uid": 12669582,
      "tags": {
        "amenity": "bar",
        "check_date": "2023-12-17",
        "name": "Rush Bar"
      }
    },
    {
      "type": "node",
      "id": 1819200767,
      "lat": 14.4539203,
      "lon": 99.1296645,
      "timestamp": "2012-07-09T18:35:09Z",
      "version": 1,
      "changeset": 12163923,
      "user": "Russ McD",
      "uid": 346601,
      "tags": {
        "amenity": "pub",
        "name": "Bar"
      }
    },
    {
      "type": "node",
      "id": 1819897335,
      "lat": 18.7422066,
      "lon": 99.003105,
      "timestamp": "2013-12-29T18:02:50Z",
      "version": 2,
      "changeset": 19700952,
      "user": "stephankn",
      "uid": 61891,
      "tags": {
        "amenity": "bar",
        "name": "Mouth to Mouth"
      }
    },
    {
      "type": "node",
      "id": 1886751148,
      "lat": 18.7751739,
      "lon": 99.0419218,
      "timestamp": "2021-05-02T15:18:20Z",
      "version": 3,
      "changeset": 103999989,
      "user": "stephankn",
      "uid": 61891,
      "tags": {
        "amenity": "pub",
        "name": "กินรมย์",
        "name:en": "Kin Rom",
        "name:th": "กินรมย์"
      }
    },
    {
      "type": "node",
      "id": 1954862514,
      "lat": 18.7327585,
      "lon": 98.9258014,
      "timestamp": "2012-10-11T00:50:38Z",
      "version": 2,
      "changeset": 13448835,
      "user": "Johnny Carlsen",
      "uid": 38985,
      "tags": {
        "amenity": "bar"
      }
    },
    {
      "type": "node",
      "id": 1954925011,
      "lat": 18.7205658,
      "lon": 99.0002908,
      "timestamp": "2013-12-22T05:23:18Z",
      "version": 4,
      "changeset": 19576760,
      "user": "Johnny Carlsen",
      "uid": 38985,
      "tags": {
        "amenity": "bar"
      }
    },
    {
      "type": "node",
      "id": 1954943225,
      "lat": 18.72067,
      "lon": 99.0001942,
      "timestamp": "2013-12-22T05:23:18Z",
      "version": 2,
      "changeset": 19576760,
      "user": "Johnny Carlsen",
      "uid": 38985,
      "tags": {
        "amenity": "bar"
      }
    },
    {
      "type": "node",
      "id": 1954943261,
      "lat": 18.7206674,
      "lon": 99.0000493,
      "timestamp": "2013-12-22T05:23:18Z",
      "version": 2,
      "changeset": 19576760,
      "user": "Johnny Carlsen",
      "uid": 38985,
      "tags": {
        "amenity": "bar"
      }
    },
    {
      "type": "node",
      "id": 1954943325,
      "lat": 18.7204445,
      "lon": 98.9993173,
      "timestamp": "2012-11-02T09:38:35Z",
      "version": 2,
      "changeset": 13720102,
      "user": "Johnny Carlsen",
      "uid": 38985,
      "tags": {
        "amenity": "bar"
      }
    },
    {
      "type": "node",
      "id": 1956923328,
      "lat": 18.7441418,
      "lon": 98.9950647,
      "timestamp": "2023-04-08T05:23:08Z",
      "version": 3,
      "changeset": 134638970,
      "user": "AlaskaDave",
      "uid": 473104,
      "tags": {
        "addr:city": "ท่าวังตาล",
        "addr:housenumber": "149",
        "addr:postcode": "50140",
        "addr:street": "ถนนสมโภชเชียงใหม่ 700 ปี",
        "amenity": "bar",
        "name": "PDD Bar",
        "opening_hours": "17:00-00:00"
      }
    },
    {
      "type": "node",
      "id": 1956924364,
      "lat": 18.743805,
      "lon": 98.9966493,
      "timestamp": "2012-10-10T16:03:44Z",
      "version": 1,
      "changeset": 13442916,
      "user": "Johnny Carlsen",
      "uid": 38985,
      "tags": {
        "amenity": "bar"
      }
    },
    {
      "type": "node",
      "id": 2039330683,
      "lat": 10.5737945,
      "lon": 99.2759168,
      "timestamp": "2013-01-26T18:24:11Z",
      "version": 2,
      "changeset": 14796087,
      "user": "zacmccormick",
      "uid": 492311,
      "tags": {
        "amenity": "bar",
        "atm": "no",
        "food": "yes",
        "internet_access": "wlan",
        "name": "Sabai Sabai Bar",
        "outdoor_seating": "yes",
        "smoking": "outside"
      }
    },
    {
      "type": "node",
      "id": 2039980758,
      "lat": 18.7881454,
      "lon": 98.987363,
      "timestamp": "2021-11-27T06:05:39Z",
      "version": 3,
      "changeset": 114281829,
      "user": "wheelmap_visitor",
      "uid": 290680,
      "tags": {
        "amenity": "bar",
        "name": "The Writers Club & Wine Bar",
        "wheelchair": "no"
      }
    },
    {
      "type": "node",
      "id": 2040040242,
      "lat": 18.7850891,
      "lon": 98.9925029,
      "timestamp": "2016-03-30T08:16:20Z",
      "version": 2,
      "changeset": 38161030,
      "user": "nhdr",
      "uid": 1966781,
      "tags": {
        "amenity": "bar",
        "name": "Yokka Dok"
      }
    },
    {
      "type": "node",
      "id": 2043611230,
      "lat": 16.8216052,
      "lon": 96.1307868,
      "timestamp": "2012-12-03T09:50:58Z",
      "version": 2,
      "changeset": 14136424,
      "user": "theinhlamaw",
      "uid": 1074914,
      "tags": {
        "amenity": "pub",
        "name": "L.V Pub"
      }
    },
    {
      "type": "node",
      "id": 2074056622,
      "lat": 18.7524993,
      "lon": 99.1051552,
      "timestamp": "2012-12-19T03:49:50Z",
      "version": 1,
      "changeset": 14326496,
      "user": "Johnny Carlsen",
      "uid": 38985,
      "tags": {
        "amenity": "bar",
        "name": "King Kong"
      }
    },
    {
      "type": "node",
      "id": 2085480453,
      "lat": 10.0675862,
      "lon": 99.8286907,
      "timestamp": "2012-12-28T08:58:01Z",
      "version": 1,
      "changeset": 14435683,
      "user": "stefan mehner",
      "uid": 1157215,
      "tags": {
        "amenity": "bar",
        "name": "High Bar",
        "wifi": "free"
      }
    },
    {
      "type": "node",
      "id": 2110584936,
      "lat": 19.3587415,
      "lon": 98.4447108,
      "timestamp": "2023-01-08T04:14:35Z",
      "version": 4,
      "changeset": 131001740,
      "user": "Russ McD",
      "uid": 346601,
      "tags": {
        "amenity": "bar",
        "cuisine": "burger;international;breakfast;crepe",
        "internet_access": "wlan",
        "name": "Witching Well",
        "note": "Probably more a bar than a restaurant ?",
        "source": "GPS"
      }
    },
    {
      "type": "node",
      "id": 2113309950,
      "lat": 18.7850701,
      "lon": 98.9939735,
      "timestamp": "2017-03-26T02:08:36Z",
      "version": 3,
      "changeset": 47165942,
      "user": "Russ McD",
      "uid": 346601,
      "tags": {
        "amenity": "bar",
        "name": "Butterfly"
      }
    },
    {
      "type": "node",
      "id": 2123229912,
      "lat": 19.1939488,
      "lon": 99.5143886,
      "timestamp": "2013-01-23T21:24:37Z",
      "version": 2,
      "changeset": 14762524,
      "user": "stephankn",
      "uid": 61891,
      "tags": {
        "amenity": "bar",
        "name": "ส้มปาก",
        "name:en": "Som Pak",
        "name:th": "ส้มปาก"
      }
    },
    {
      "type": "node",
      "id": 2151144971,
      "lat": 19.9754132,
      "lon": 99.8585448,
      "timestamp": "2013-02-11T22:52:09Z",
      "version": 1,
      "changeset": 15000365,
      "user": "stephankn",
      "uid": 61891,
      "tags": {
        "amenity": "pub",
        "name": "Gear Zix"
      }
    },
    {
      "type": "node",
      "id": 2223022696,
      "lat": 10.0819867,
      "lon": 99.8228192,
      "timestamp": "2013-03-25T19:20:00Z",
      "version": 1,
      "changeset": 15495295,
      "user": "ullus",
      "uid": 398817,
      "tags": {
        "amenity": "bar",
        "name": "Karma bar",
        "opening_hours": "18:00-23:00",
        "smoking": "yes"
      }
    },
    {
      "type": "node",
      "id": 2258444087,
      "lat": 10.0818821,
      "lon": 99.825074,
      "timestamp": "2019-10-19T12:09:25Z",
      "version": 3,
      "changeset": 75928241,
      "user": "rochen",
      "uid": 7416169,
      "tags": {
        "amenity": "bar",
        "internet_access": "wlan",
        "name": "Baby rasta bar",
        "opening_hours": "Mo-Su 08:00-02:00"
      }
    },
    {
      "type": "node",
      "id": 2258444094,
      "lat": 10.0849786,
      "lon": 99.8246767,
      "timestamp": "2013-04-08T17:05:35Z",
      "version": 1,
      "changeset": 15656911,
      "user": "ullus",
      "uid": 398817,
      "tags": {
        "amenity": "pub",
        "name": "Safety stop Pub"
      }
    },
    {
      "type": "node",
      "id": 2300395645,
      "lat": 18.7837818,
      "lon": 98.9976897,
      "timestamp": "2013-05-12T05:06:28Z",
      "version": 1,
      "changeset": 16089520,
      "user": "Johnny Carlsen",
      "uid": 38985,
      "tags": {
        "amenity": "bar",
        "name": "Night Life"
      }
    },
    {
      "type": "node",
      "id": 2300395648,
      "lat": 18.7840662,
      "lon": 98.9977513,
      "timestamp": "2023-11-20T16:19:12Z",
      "version": 2,
      "changeset": 144253853,
      "user": "Russ McD",
      "uid": 346601,
      "tags": {
        "amenity": "bar",
        "name": "The First Bar"
      }
    },
    {
      "type": "node",
      "id": 2300395651,
      "lat": 18.784112,
      "lon": 98.9974885,
      "timestamp": "2017-11-16T07:53:12Z",
      "version": 2,
      "changeset": 53832237,
      "user": "CNXAAA",
      "uid": 6996974,
      "tags": {
        "amenity": "pub"
      }
    },
    {
      "type": "node",
      "id": 2300395655,
      "lat": 18.7839343,
      "lon": 98.9977272,
      "timestamp": "2023-11-20T16:20:08Z",
      "version": 3,
      "changeset": 144253888,
      "user": "Russ McD",
      "uid": 346601,
      "tags": {
        "amenity": "bar",
        "name": "King Kongs Bar"
      }
    },
    {
      "type": "node",
      "id": 2300395658,
      "lat": 18.783853,
      "lon": 98.9977084,
      "timestamp": "2013-05-12T05:06:28Z",
      "version": 1,
      "changeset": 16089520,
      "user": "Johnny Carlsen",
      "uid": 38985,
      "tags": {
        "amenity": "bar",
        "name": "The Shamrock"
      }
    },
    {
      "type": "node",
      "id": 2317829553,
      "lat": 19.9092488,
      "lon": 99.8356728,
      "timestamp": "2022-10-20T13:04:54Z",
      "version": 2,
      "changeset": 127838360,
      "user": "Kri_ttt",
      "uid": 13669494,
      "tags": {
        "amenity": "bar"
      }
    },
    {
      "type": "node",
      "id": 2322957503,
      "lat": 10.0727114,
      "lon": 99.8161385,
      "timestamp": "2017-04-13T05:07:18Z",
      "version": 2,
      "changeset": 47730045,
      "user": "gezginrocker",
      "uid": 1686268,
      "tags": {
        "amenity": "bar",
        "name": "Banana Rock Bar"
      }
    },
    {
      "type": "node",
      "id": 2322957509,
      "lat": 10.1112597,
      "lon": 99.8373747,
      "timestamp": "2017-04-13T06:57:02Z",
      "version": 2,
      "changeset": 47732257,
      "user": "gezginrocker",
      "uid": 1686268,
      "tags": {
        "amenity": "bar",
        "name": "Jim's Bar"
      }
    },
    {
      "type": "node",
      "id": 2322957548,
      "lat": 10.1017871,
      "lon": 99.8431238,
      "timestamp": "2016-02-28T15:17:58Z",
      "version": 2,
      "changeset": 37500624,
      "user": "Wookey",
      "uid": 629,
      "tags": {
        "amenity": "bar",
        "tourism": "viewpoint"
      }
    },
    {
      "type": "node",
      "id": 2328179585,
      "lat": 19.9030508,
      "lon": 99.8324941,
      "timestamp": "2017-04-11T10:49:33Z",
      "version": 4,
      "changeset": 47652860,
      "user": "Russ McD",
      "uid": 346601,
      "tags": {
        "amenity": "bar",
        "name": "The Indian"
      }
    },
    {
      "type": "node",
      "id": 2328179586,
      "lat": 19.9030388,
      "lon": 99.8325742,
      "timestamp": "2017-04-11T10:49:33Z",
      "version": 4,
      "changeset": 47652860,
      "user": "Russ McD",
      "uid": 346601,
      "tags": {
        "amenity": "bar",
        "name": "Hangover"
      }
    },
    {
      "type": "node",
      "id": 2342017067,
      "lat": 18.7675046,
      "lon": 99.0398281,
      "timestamp": "2013-06-12T14:00:45Z",
      "version": 1,
      "changeset": 16524287,
      "user": "Johnny Carlsen",
      "uid": 38985,
      "tags": {
        "amenity": "bar"
      }
    },
    {
      "type": "node",
      "id": 2342018177,
      "lat": 18.7682957,
      "lon": 99.0401048,
      "timestamp": "2013-06-12T14:02:43Z",
      "version": 1,
      "changeset": 16524310,
      "user": "Johnny Carlsen",
      "uid": 38985,
      "tags": {
        "amenity": "bar"
      }
    },
    {
      "type": "node",
      "id": 2342024336,
      "lat": 18.7759502,
      "lon": 99.0421256,
      "timestamp": "2013-06-12T14:10:43Z",
      "version": 1,
      "changeset": 16524389,
      "user": "Johnny Carlsen",
      "uid": 38985,
      "tags": {
        "amenity": "bar",
        "name:en": "Update"
      }
    },
    {
      "type": "node",
      "id": 2363076227,
      "lat": 18.7444869,
      "lon": 98.9606855,
      "timestamp": "2013-06-27T13:50:06Z",
      "version": 1,
      "changeset": 16727024,
      "user": "Johnny Carlsen",
      "uid": 38985,
      "tags": {
        "amenity": "bar",
        "name": "ชุมทางท่าพระจันทร์",
        "name:en": "Thaprachan"
      }
    },
    {
      "type": "node",
      "id": 2379792657,
      "lat": 16.4511358,
      "lon": 97.6367205,
      "timestamp": "2018-04-06T11:07:28Z",
      "version": 7,
      "changeset": 57861932,
      "user": "rene78",
      "uid": 257555,
      "tags": {
        "addr:city": "Mawlamying",
        "amenity": "pub",
        "name": "Ever Shine ဘီယာဆိုင်",
        "name:en": "Ever Shine",
        "smoking": "yes"
      }
    },
    {
      "type": "node",
      "id": 2379800285,
      "lat": 16.4543285,
      "lon": 97.637843,
      "timestamp": "2018-03-29T18:23:13Z",
      "version": 2,
      "changeset": 57642083,
      "user": "Lauretta_J",
      "uid": 7473667,
      "tags": {
        "addr:city": "mawlamying",
        "addr:street": "Kyeik Ma Yaw Street",
        "amenity": "bar",
        "name": "Asia World Beer Shop"
      }
    },
    {
      "type": "node",
      "id": 2379806715,
      "lat": 16.4609257,
      "lon": 97.6487396,
      "timestamp": "2017-06-05T12:32:28Z",
      "version": 3,
      "changeset": 49268715,
      "user": "Taw Ka Hlaing",
      "uid": 551691,
      "tags": {
        "addr:city": "Mawlamying",
        "addr:street": "Kyeik Ma Yaw Street",
        "amenity": "bar",
        "name": "Wa Tain Nann KTV"
      }
    },
    {
      "type": "node",
      "id": 2379815303,
      "lat": 16.4657866,
      "lon": 97.6502897,
      "timestamp": "2013-07-10T07:34:20Z",
      "version": 1,
      "changeset": 16895953,
      "user": "Hein Wai Hlan",
      "uid": 1614033,
      "tags": {
        "addr:city": "mawlamying",
        "addr:street": "Kyeik Ma Yaw Street",
        "amenity": "bar",
        "name": "La Wunn Beer Shop"
      }
    },
    {
      "type": "node",
      "id": 2379816221,
      "lat": 16.4594308,
      "lon": 97.6469673,
      "timestamp": "2018-04-01T22:01:14Z",
      "version": 2,
      "changeset": 57723597,
      "user": "Lauretta_J",
      "uid": 7473667,
      "tags": {
        "addr:city": "mawlamying",
        "addr:street": "Kyeik Ma Yaw Street",
        "amenity": "bar",
        "name": "Lucky Palace Beer Shop"
      }
    },
    {
      "type": "node",
      "id": 2402087209,
      "lat": 11.8248454,
      "lon": 99.8024128,
      "timestamp": "2013-07-31T05:44:16Z",
      "version": 1,
      "changeset": 17161112,
      "user": "westnordost",
      "uid": 1205786,
      "tags": {
        "amenity": "bar",
        "name": "ฟองเบียร์"
      }
    },
    {
      "type": "node",
      "id": 2450214473,
      "lat": 19.9065073,
      "lon": 99.8311628,
      "timestamp": "2022-02-04T01:35:44Z",
      "version": 6,
      "changeset": 116985975,
      "user": "Russ McD",
      "uid": 346601,
      "tags": {
        "amenity": "bar",
        "name:en": "Hi 5 Bar"
      }
    },
    {
      "type": "node",
      "id": 2468796340,
      "lat": 18.7822191,
      "lon": 99.0030174,
      "timestamp": "2013-09-23T13:41:28Z",
      "version": 1,
      "changeset": 17991416,
      "user": "AlaskaDave",
      "uid": 473104,
      "tags": {
        "amenity": "bar"
      }
    },
    {
      "type": "node",
      "id": 2468796352,
      "lat": 18.782591,
      "lon": 99.0030023,
      "timestamp": "2024-08-14T11:44:30Z",
      "version": 4,
      "changeset": 155235965,
      "user": "JosFeu",
      "uid": 10321274,
      "tags": {
        "amenity": "bar",
        "name": "Buzz Bar Anusarn"
      }
    },
    {
      "type": "node",
      "id": 2494427872,
      "lat": 19.9206489,
      "lon": 99.2099473,
      "timestamp": "2017-03-11T06:18:44Z",
      "version": 4,
      "changeset": 46755625,
      "user": "Russ McD",
      "uid": 346601,
      "tags": {
        "amenity": "pub",
        "name": "Bum Rung Mit",
        "source": "GPS"
      }
    },
    {
      "type": "node",
      "id": 2494427875,
      "lat": 19.9122316,
      "lon": 99.2055046,
      "timestamp": "2018-11-10T12:35:54Z",
      "version": 3,
      "changeset": 64350391,
      "user": "Russ McD",
      "uid": 346601,
      "tags": {
        "amenity": "pub",
        "internet_access": "wlan",
        "name": "Rhino Bistro & Bar"
      }
    },
    {
      "type": "node",
      "id": 2505598092,
      "lat": 18.7952284,
      "lon": 98.9725061,
      "timestamp": "2015-10-21T12:30:14Z",
      "version": 4,
      "changeset": 34776966,
      "user": "Johnny Carlsen",
      "uid": 38985,
      "tags": {
        "addr:postcode": "50200",
        "addr:street": "ถนนศิริมังคลาจารย์ ซอย 9",
        "addr:street:en": "Sirimangkalajarn Lane 9",
        "amenity": "pub",
        "contact:phone": "+66846114031;+66891199221",
        "internet_access": "yes",
        "name": "คิวบ์",
        "name:en": "Cube No. 7",
        "name:th": "คิวบ์",
        "source": "local_knowledge"
      }
    },
    {
      "type": "node",
      "id": 2520194132,
      "lat": 13.1132268,
      "lon": 99.9434906,
      "timestamp": "2013-11-04T18:57:33Z",
      "version": 1,
      "changeset": 18717463,
      "user": "westnordost",
      "uid": 1205786,
      "tags": {
        "amenity": "bar"
      }
    },
    {
      "type": "node",
      "id": 2520626361,
      "lat": 13.1087216,
      "lon": 99.9471456,
      "timestamp": "2013-11-05T05:17:56Z",
      "version": 1,
      "changeset": 18723643,
      "user": "westnordost",
      "uid": 1205786,
      "tags": {
        "amenity": "bar",
        "name": "เรา"
      }
    },
    {
      "type": "node",
      "id": 2523241185,
      "lat": 18.795443,
      "lon": 98.9666046,
      "timestamp": "2013-11-07T14:14:16Z",
      "version": 1,
      "changeset": 18765045,
      "user": "Johnny Carlsen",
      "uid": 38985,
      "tags": {
        "amenity": "bar",
        "name": "Magenta"
      }
    },
    {
      "type": "node",
      "id": 2523241186,
      "lat": 18.7954672,
      "lon": 98.9664588,
      "timestamp": "2013-11-07T14:14:17Z",
      "version": 1,
      "changeset": 18765045,
      "user": "Johnny Carlsen",
      "uid": 38985,
      "tags": {
        "amenity": "bar",
        "name": "Neighborhood"
      }
    },
    {
      "type": "node",
      "id": 2530379600,
      "lat": 18.8051399,
      "lon": 98.9803163,
      "timestamp": "2013-11-13T07:41:36Z",
      "version": 2,
      "changeset": 18869026,
      "user": "sojo",
      "uid": 555866,
      "tags": {
        "amenity": "pub",
        "name": "อ๊อกไซน์ ผับ",
        "name:en": "Oxide Pub",
        "name:th": "อ๊อกไซน์ ผับ"
      }
    },
    {
      "type": "node",
      "id": 2530379610,
      "lat": 18.8053743,
      "lon": 98.9806111,
      "timestamp": "2014-04-11T13:38:19Z",
      "version": 3,
      "changeset": 21627273,
      "user": "Johnny Carlsen",
      "uid": 38985,
      "tags": {
        "amenity": "pub",
        "name": "ที บาร์",
        "name:en": "Time Club",
        "name:th": "ที บาร์"
      }
    },
    {
      "type": "node",
      "id": 2530379618,
      "lat": 18.8067265,
      "lon": 98.9797621,
      "timestamp": "2013-11-13T08:07:34Z",
      "version": 2,
      "changeset": 18869026,
      "user": "sojo",
      "uid": 555866,
      "tags": {
        "amenity": "pub",
        "name": "แจ๋มเจริญย์",
        "name:en": "Vintage Chiang Mai",
        "name:th": "แจ๋มเจริญย์"
      }
    },
    {
      "type": "node",
      "id": 2530411535,
      "lat": 18.8043813,
      "lon": 98.9770405,
      "timestamp": "2013-11-13T08:09:42Z",
      "version": 1,
      "changeset": 18868935,
      "user": "stephankn",
      "uid": 61891,
      "tags": {
        "amenity": "pub",
        "name": "Shogun Bar"
      }
    },
    {
      "type": "node",
      "id": 2530411537,
      "lat": 18.8042438,
      "lon": 98.9771007,
      "timestamp": "2013-11-18T10:55:08Z",
      "version": 2,
      "changeset": 18968802,
      "user": "sojo",
      "uid": 555866,
      "tags": {
        "amenity": "pub",
        "name": "ปั้ม เชียงใหม่"
      }
    },
    {
      "type": "node",
      "id": 2530411538,
      "lat": 18.8043246,
      "lon": 98.9772906,
      "timestamp": "2013-11-18T10:49:51Z",
      "version": 2,
      "changeset": 18968802,
      "user": "sojo",
      "uid": 555866,
      "tags": {
        "amenity": "pub",
        "name": "มุม"
      }
    },
    {
      "type": "node",
      "id": 2530411539,
      "lat": 18.8045383,
      "lon": 98.9769818,
      "timestamp": "2013-11-18T10:53:36Z",
      "version": 2,
      "changeset": 18968802,
      "user": "sojo",
      "uid": 555866,
      "tags": {
        "amenity": "pub",
        "name": "ร้านประจำ"
      }
    },
    {
      "type": "node",
      "id": 2530412027,
      "lat": 18.804092,
      "lon": 98.9747764,
      "timestamp": "2013-11-18T11:03:31Z",
      "version": 2,
      "changeset": 18968802,
      "user": "sojo",
      "uid": 555866,
      "tags": {
        "amenity": "pub",
        "name": "ปากกอง"
      }
    },
    {
      "type": "node",
      "id": 2531911227,
      "lat": 19.3806407,
      "lon": 98.4282952,
      "timestamp": "2013-11-14T10:14:21Z",
      "version": 1,
      "changeset": 18890907,
      "user": "AlaskaDave",
      "uid": 473104,
      "tags": {
        "amenity": "bar",
        "name:en": "Hyenas Bar & Restaurant"
      }
    },
    {
      "type": "node",
      "id": 2544910648,
      "lat": 18.8254737,
      "lon": 98.9576776,
      "timestamp": "2013-11-22T11:59:00Z",
      "version": 1,
      "changeset": 19051938,
      "user": "Russ McD",
      "uid": 346601,
      "tags": {
        "amenity": "bar",
        "name": "Six Seats Bar"
      }
    },
    {
      "type": "node",
      "id": 2547223233,
      "lat": 19.0426839,
      "lon": 99.9348994,
      "timestamp": "2013-11-23T16:18:52Z",
      "version": 1,
      "changeset": 19074720,
      "user": "Johnny Carlsen",
      "uid": 38985,
      "tags": {
        "amenity": "bar",
        "name:en": "One More Up"
      }
    },
    {
      "type": "node",
      "id": 2548426651,
      "lat": 18.5838959,
      "lon": 99.0559213,
      "timestamp": "2013-11-24T11:34:38Z",
      "version": 1,
      "changeset": 19089062,
      "user": "Johnny Carlsen",
      "uid": 38985,
      "tags": {
        "amenity": "bar"
      }
    },
    {
      "type": "node",
      "id": 2548452584,
      "lat": 18.5862364,
      "lon": 99.0519776,
      "timestamp": "2022-01-10T11:39:03Z",
      "version": 2,
      "changeset": 115978021,
      "user": "Russ McD",
      "uid": 346601,
      "tags": {
        "amenity": "bar",
        "name": "Chill Up"
      }
    },
    {
      "type": "node",
      "id": 2554434156,
      "lat": 18.7979368,
      "lon": 98.9622736,
      "timestamp": "2023-12-17T04:27:32Z",
      "version": 2,
      "changeset": 145203907,
      "user": "Russ McD",
      "uid": 346601,
      "tags": {
        "alt_name": "22",
        "amenity": "bar",
        "name": "Twenty Two"
      }
    },
    {
      "type": "node",
      "id": 2566484067,
      "lat": 11.3116257,
      "lon": 99.5520114,
      "timestamp": "2013-12-05T15:39:19Z",
      "version": 1,
      "changeset": 19291547,
      "user": "Parie",
      "uid": 246941,
      "tags": {
        "amenity": "bar",
        "name": "Hornbill"
      }
    },
    {
      "type": "node",
      "id": 2587299211,
      "lat": 18.8875759,
      "lon": 99.031321,
      "timestamp": "2022-02-05T02:36:53Z",
      "version": 3,
      "changeset": 117029606,
      "user": "Russ McD",
      "uid": 346601,
      "tags": {
        "amenity": "bar",
        "name": "ปันเกย",
        "name:th": "ปันเกย"
      }
    },
    {
      "type": "node",
      "id": 2597946649,
      "lat": 18.7841994,
      "lon": 98.9971111,
      "timestamp": "2013-12-28T08:29:24Z",
      "version": 1,
      "changeset": 19675038,
      "user": "Johnny Carlsen",
      "uid": 38985,
      "tags": {
        "amenity": "bar",
        "name": "Darling Bar"
      }
    },
    {
      "type": "node",
      "id": 2597946651,
      "lat": 18.7844786,
      "lon": 98.9971871,
      "timestamp": "2022-10-17T10:11:12Z",
      "version": 2,
      "changeset": 127662119,
      "user": "Veiviseren",
      "uid": 1722144,
      "tags": {
        "amenity": "bar",
        "name": "Roo Bar"
      }
    },
    {
      "type": "node",
      "id": 2597948382,
      "lat": 18.7842583,
      "lon": 98.9975998,
      "timestamp": "2024-10-31T04:10:12Z",
      "version": 5,
      "changeset": 158566155,
      "user": "stephankn",
      "uid": 61891,
      "tags": {
        "amenity": "bar",
        "name": "Ben Cocktail",
        "opening_hours": "Mo-Sa 17:00-24:00",
        "outdoor_seating": "yes",
        "smoking": "outside"
      }
    },
    {
      "type": "node",
      "id": 2597950505,
      "lat": 18.7840961,
      "lon": 98.9975297,
      "timestamp": "2017-11-16T07:52:06Z",
      "version": 2,
      "changeset": 53832221,
      "user": "CNXAAA",
      "uid": 6996974,
      "tags": {
        "amenity": "bar"
      }
    },
    {
      "type": "node",
      "id": 2597960437,
      "lat": 18.7840312,
      "lon": 98.99786,
      "timestamp": "2025-10-10T11:15:58Z",
      "version": 6,
      "changeset": 173089201,
      "user": "Russ McD",
      "uid": 346601,
      "tags": {
        "amenity": "bar",
        "name": "Jenny's Bar"
      }
    },
    {
      "type": "node",
      "id": 2598509559,
      "lat": 18.7834211,
      "lon": 98.9926905,
      "timestamp": "2015-01-03T07:16:35Z",
      "version": 2,
      "changeset": 27879833,
      "user": "Johnny Carlsen",
      "uid": 38985,
      "tags": {
        "amenity": "bar",
        "name": "Blue Sky"
      }
    },
    {
      "type": "node",
      "id": 2598509590,
      "lat": 18.7830693,
      "lon": 98.9920508,
      "timestamp": "2013-12-28T16:05:38Z",
      "version": 1,
      "changeset": 19681229,
      "user": "stephankn",
      "uid": 61891,
      "tags": {
        "amenity": "bar",
        "name": "Scratching"
      }
    },
    {
      "type": "node",
      "id": 2603076447,
      "lat": 17.3244677,
      "lon": 99.5692331,
      "timestamp": "2013-12-31T11:59:32Z",
      "version": 3,
      "changeset": 19730920,
      "user": "Johnny Carlsen",
      "uid": 38985,
      "tags": {
        "amenity": "bar",
        "name": "ครัว ข้างป้อม",
        "note": "karaoke"
      }
    },
    {
      "type": "node",
      "id": 2609583868,
      "lat": 18.806611,
      "lon": 98.9576688,
      "timestamp": "2014-01-04T16:38:27Z",
      "version": 1,
      "changeset": 19806325,
      "user": "stephankn",
      "uid": 61891,
      "tags": {
        "amenity": "bar",
        "name": "Moc Mol"
      }
    },
    {
      "type": "node",
      "id": 2609696942,
      "lat": 18.7661161,
      "lon": 98.9998397,
      "timestamp": "2014-01-04T17:28:37Z",
      "version": 1,
      "changeset": 19806325,
      "user": "stephankn",
      "uid": 61891,
      "tags": {
        "amenity": "pub",
        "name": "sAMo"
      }
    },
    {
      "type": "node",
      "id": 2609948196,
      "lat": 18.8068623,
      "lon": 98.9954133,
      "timestamp": "2014-01-04T20:21:09Z",
      "version": 1,
      "changeset": 19811933,
      "user": "stephankn",
      "uid": 61891,
      "tags": {
        "amenity": "pub",
        "name": "Tiger"
      }
    },
    {
      "type": "node",
      "id": 2609948202,
      "lat": 18.8059025,
      "lon": 98.9952868,
      "timestamp": "2014-01-06T16:56:43Z",
      "version": 2,
      "changeset": 19847414,
      "user": "stephankn",
      "uid": 61891,
      "tags": {
        "amenity": "pub",
        "name": "เฮิร์ท หว่ะ",
        "name:th": "เฮิร์ท หว่ะ"
      }
    },
    {
      "type": "node",
      "id": 2610123111,
      "lat": 18.8038955,
      "lon": 98.9954549,
      "timestamp": "2014-01-04T22:06:41Z",
      "version": 1,
      "changeset": 19813924,
      "user": "stephankn",
      "uid": 61891,
      "tags": {
        "amenity": "pub",
        "name": "Say Hi"
      }
    },
    {
      "type": "node",
      "id": 2617017441,
      "lat": 17.8037518,
      "lon": 98.3633952,
      "timestamp": "2014-01-10T08:37:49Z",
      "version": 1,
      "changeset": 19913530,
      "user": "spydogtui",
      "uid": 1876456,
      "tags": {
        "addr:city": "อมก๋อย",
        "addr:postcode": "50310",
        "amenity": "bar",
        "name": "ครัวเอื้องผึ้ง"
      }
    },
    {
      "type": "node",
      "id": 2618231577,
      "lat": 17.7989086,
      "lon": 98.3570985,
      "timestamp": "2019-09-27T13:43:50Z",
      "version": 3,
      "changeset": 75010625,
      "user": "HubMiner",
      "uid": 238419,
      "tags": {
        "addr:city": "อมก๋อย",
        "addr:postcode": "50310",
        "amenity": "bar",
        "name": "Small Town Bar and Restaurant",
        "note": "ร้านสมอล์ทาวน์ จำหน่ายเครื่องดื่มแอลกอฮอล์ และอาหาร และให้บริการเช่าหนังสือการ์ตูน",
        "opening_hours": "Mo-Su 10:00-23:00"
      }
    },
    {
      "type": "node",
      "id": 2622871326,
      "lat": 18.8498047,
      "lon": 99.0847219,
      "timestamp": "2014-01-19T16:13:10Z",
      "version": 3,
      "changeset": 20087469,
      "user": "stephankn",
      "uid": 61891,
      "tags": {
        "amenity": "pub",
        "name": "ฐิติรัตน์ คาราโอเกะ",
        "name:en": "Thitirat Karaoke",
        "name:th": "ฐิติรัตน์ คาราโอเกะ"
      }
    },
    {
      "type": "node",
      "id": 2624224935,
      "lat": 18.7901636,
      "lon": 99.0038722,
      "timestamp": "2014-01-16T01:34:13Z",
      "version": 1,
      "changeset": 20026061,
      "user": "AlaskaDave",
      "uid": 473104,
      "tags": {
        "amenity": "bar",
        "name": "Sip Bar"
      }
    },
    {
      "type": "node",
      "id": 2624604017,
      "lat": 19.9436451,
      "lon": 99.6720683,
      "timestamp": "2014-01-16T12:06:45Z",
      "version": 1,
      "changeset": 20032396,
      "user": "Graeme Herbert",
      "uid": 526776,
      "tags": {
        "amenity": "bar",
        "name": "Bamboo Bar"
      }
    },
    {
      "type": "node",
      "id": 2627009520,
      "lat": 18.7933855,
      "lon": 99.1043519,
      "timestamp": "2014-01-18T13:22:53Z",
      "version": 1,
      "changeset": 20065997,
      "user": "Johnny Carlsen",
      "uid": 38985,
      "tags": {
        "amenity": "bar",
        "name": "มาลัย",
        "name:en": "Marai"
      }
    },
    {
      "type": "node",
      "id": 2627976766,
      "lat": 18.7943492,
      "lon": 98.9704984,
      "timestamp": "2019-04-13T13:08:21Z",
      "version": 3,
      "changeset": 69176421,
      "user": "Joe629",
      "uid": 8212510,
      "tags": {
        "amenity": "pub",
        "name": "สุขเกษม",
        "name:en": "Sukasem",
        "name:th": "สุขเกษม",
        "name:zh": "The Ring Coffee"
      }
    },
    {
      "type": "node",
      "id": 2649754324,
      "lat": 18.7977636,
      "lon": 98.9942933,
      "timestamp": "2014-02-05T04:35:43Z",
      "version": 3,
      "changeset": 20385585,
      "user": "FreedomLife",
      "uid": 1874087,
      "tags": {
        "amenity": "bar",
        "name": "บางแสน 2",
        "name:en": "Bang Saen 2 Karaoke",
        "name:th": "บางแสน 2"
      }
    },
    {
      "type": "node",
      "id": 2650769468,
      "lat": 18.7948504,
      "lon": 98.9698716,
      "timestamp": "2014-02-02T21:32:46Z",
      "version": 1,
      "changeset": 20339505,
      "user": "stephankn",
      "uid": 61891,
      "tags": {
        "amenity": "bar",
        "name": "Cafe 17"
      }
    },
    {
      "type": "node",
      "id": 2655151984,
      "lat": 18.7813086,
      "lon": 98.9988059,
      "timestamp": "2014-02-13T07:04:20Z",
      "version": 4,
      "changeset": 20535688,
      "user": "Johnny Carlsen",
      "uid": 38985,
      "tags": {
        "amenity": "bar",
        "name": "ร้านนวด",
        "name:en": "Grace Bar"
      }
    },
    {
      "type": "node",
      "id": 2655177106,
      "lat": 18.783168,
      "lon": 98.9984731,
      "timestamp": "2023-09-22T16:17:52Z",
      "version": 5,
      "changeset": 141610341,
      "user": "Johnny Carlsen",
      "uid": 38985,
      "tags": {
        "addr:housenumber": "159",
        "addr:street": "ถนนกำแพงดิน",
        "amenity": "bar",
        "name": "@ The Bar"
      }
    },
    {
      "type": "node",
      "id": 2655191475,
      "lat": 18.785661,
      "lon": 98.999219,
      "timestamp": "2014-02-05T02:44:46Z",
      "version": 2,
      "changeset": 20384667,
      "user": "Actens",
      "uid": 1919258,
      "tags": {
        "amenity": "bar",
        "name": "C.U. Bar"
      }
    },
    {
      "type": "node",
      "id": 2660454587,
      "lat": 18.8028392,
      "lon": 98.9592798,
      "timestamp": "2016-10-07T19:27:34Z",
      "version": 3,
      "changeset": 42719792,
      "user": "Russ McD",
      "uid": 346601,
      "tags": {
        "amenity": "bar",
        "name": "กล่อง",
        "name:en": "Half time Cafe",
        "name:th": "กล่อง"
      }
    },
    {
      "type": "node",
      "id": 2661221807,
      "lat": 18.7736625,
      "lon": 98.9900124,
      "timestamp": "2014-02-08T13:03:02Z",
      "version": 1,
      "changeset": 20446170,
      "user": "stephankn",
      "uid": 61891,
      "tags": {
        "amenity": "pub",
        "name": "อ.พาน",
        "name:en": "Pan",
        "name:th": "อ.พาน"
      }
    },
    {
      "type": "node",
      "id": 2668812649,
      "lat": 18.7986443,
      "lon": 98.9688182,
      "timestamp": "2016-01-04T15:04:50Z",
      "version": 3,
      "changeset": 36361727,
      "user": "nhdr",
      "uid": 1966781,
      "tags": {
        "amenity": "bar",
        "name": "D-fine"
      }
    },
    {
      "type": "node",
      "id": 2696288774,
      "lat": 19.9144003,
      "lon": 99.2087042,
      "timestamp": "2014-03-01T12:52:49Z",
      "version": 1,
      "changeset": 20844515,
      "user": "Johnny Carlsen",
      "uid": 38985,
      "tags": {
        "amenity": "bar",
        "name:en": "Final Club"
      }
    },
    {
      "type": "node",
      "id": 2712214019,
      "lat": 16.8749275,
      "lon": 94.3768731,
      "timestamp": "2014-03-11T09:07:17Z",
      "version": 2,
      "changeset": 21040855,
      "user": "Logimedia",
      "uid": 1858674,
      "tags": {
        "amenity": "bar",
        "name": "Fisherman Bar, BOB"
      }
    },
    {
      "type": "node",
      "id": 2783276222,
      "lat": 18.8024131,
      "lon": 98.9790074,
      "timestamp": "2015-11-18T18:11:55Z",
      "version": 2,
      "changeset": 35414272,
      "user": "nhdr",
      "uid": 1966781,
      "tags": {
        "amenity": "bar",
        "name": "Black Door"
      }
    },
    {
      "type": "node",
      "id": 2783315817,
      "lat": 18.8054259,
      "lon": 98.9813732,
      "timestamp": "2014-04-11T13:47:11Z",
      "version": 1,
      "changeset": 21627413,
      "user": "Johnny Carlsen",
      "uid": 38985,
      "tags": {
        "amenity": "bar",
        "name": "M One Bar"
      }
    },
    {
      "type": "node",
      "id": 2878387303,
      "lat": 16.3734703,
      "lon": 97.5822862,
      "timestamp": "2014-05-24T17:13:13Z",
      "version": 1,
      "changeset": 22527752,
      "user": "Taw Ka Hlaing",
      "uid": 551691,
      "tags": {
        "amenity": "pub",
        "name": "Kaung Kaung",
        "smoking": "yes"
      }
    },
    {
      "type": "node",
      "id": 2888921893,
      "lat": 16.806487,
      "lon": 96.1554618,
      "timestamp": "2014-05-30T11:16:23Z",
      "version": 1,
      "changeset": 22635960,
      "user": "charlesfleche",
      "uid": 383081,
      "tags": {
        "amenity": "bar",
        "internet_access": "wlan",
        "internet_access:fee": "no",
        "name": "The Lab",
        "opening_hours": "Tu-Su 17:30-03:00",
        "smoking": "yes",
        "website": "http://www.thelab-yangon.com"
      }
    },
    {
      "type": "node",
      "id": 2919723664,
      "lat": 16.796529,
      "lon": 96.1312524,
      "timestamp": "2017-09-05T00:56:22Z",
      "version": 3,
      "changeset": 51734360,
      "user": "Htike Aung Kyaw",
      "uid": 3017788,
      "tags": {
        "amenity": "bar",
        "name": "Cocoon Rooftop Bar"
      }
    },
    {
      "type": "node",
      "id": 2919880177,
      "lat": 16.7693126,
      "lon": 96.1652053,
      "timestamp": "2025-07-21T14:03:53Z",
      "version": 9,
      "changeset": 169246005,
      "user": "JamesHarry",
      "uid": 13409414,
      "tags": {
        "amenity": "bar",
        "name": "Union Bar and Grill"
      }
    },
    {
      "type": "node",
      "id": 2919995137,
      "lat": 16.7837386,
      "lon": 96.1553862,
      "timestamp": "2017-12-20T10:38:02Z",
      "version": 4,
      "changeset": 54782700,
      "user": "Hervé TUC",
      "uid": 922338,
      "tags": {
        "addr:housenumber": "26B",
        "addr:street": "ဗိုလ်ရာညွန့်လမ်း - Bo Ya Nyunt ( Sandwith ) St",
        "amenity": "bar",
        "cuisine": "american",
        "name": "Fat Man",
        "name:en": "Fat Man Bar",
        "opening_hours": "Mo-Su 10:00-18:00",
        "phone": "09420305666"
      }
    },
    {
      "type": "node",
      "id": 2920003184,
      "lat": 16.8047831,
      "lon": 96.1537159,
      "timestamp": "2017-01-17T03:27:10Z",
      "version": 2,
      "changeset": 45232730,
      "user": "박진희",
      "uid": 5101671,
      "tags": {
        "amenity": "bar",
        "name": "VIsta 시샤"
      }
    },
    {
      "type": "node",
      "id": 2920065678,
      "lat": 16.8470551,
      "lon": 96.1524816,
      "timestamp": "2016-07-10T09:59:00Z",
      "version": 3,
      "changeset": 40626946,
      "user": "Trung Viet My",
      "uid": 4141727,
      "tags": {
        "amenity": "bar",
        "name": "DJ Bar"
      }
    },
    {
      "type": "node",
      "id": 2920085710,
      "lat": 16.8259298,
      "lon": 96.147272,
      "timestamp": "2014-06-17T10:19:11Z",
      "version": 1,
      "changeset": 22981019,
      "user": "Logimedia",
      "uid": 1858674,
      "tags": {
        "amenity": "bar",
        "name": "BME"
      }
    },
    {
      "type": "node",
      "id": 2920088655,
      "lat": 16.8220191,
      "lon": 96.1548688,
      "timestamp": "2014-06-18T10:55:39Z",
      "version": 2,
      "changeset": 23002136,
      "user": "Logimedia",
      "uid": 1858674,
      "tags": {
        "amenity": "bar",
        "name": "Space"
      }
    },
    {
      "type": "node",
      "id": 2920092140,
      "lat": 16.8178745,
      "lon": 96.1540168,
      "timestamp": "2014-06-17T10:29:37Z",
      "version": 1,
      "changeset": 22981200,
      "user": "Logimedia",
      "uid": 1858674,
      "tags": {
        "amenity": "bar",
        "name": "Bar One"
      }
    },
    {
      "type": "node",
      "id": 2920092432,
      "lat": 16.817848,
      "lon": 96.15325,
      "timestamp": "2021-12-05T23:19:27Z",
      "version": 5,
      "changeset": 114597691,
      "user": "HubMiner",
      "uid": 238419,
      "tags": {
        "addr:housenumber": "18",
        "addr:street": "Kanbawza",
        "amenity": "bar",
        "food": "yes",
        "name": "Ginki Kid",
        "opening_hours": "10:30-23:30",
        "smoking": "yes"
      }
    },
    {
      "type": "node",
      "id": 2920095030,
      "lat": 16.8214514,
      "lon": 96.1472193,
      "timestamp": "2014-06-17T10:34:26Z",
      "version": 1,
      "changeset": 22981287,
      "user": "Logimedia",
      "uid": 1858674,
      "tags": {
        "amenity": "bar",
        "name": "GVI"
      }
    },
    {
      "type": "node",
      "id": 2953687723,
      "lat": 16.8260183,
      "lon": 96.1471274,
      "timestamp": "2014-07-08T05:26:36Z",
      "version": 1,
      "changeset": 24016667,
      "user": "Logimedia",
      "uid": 1858674,
      "tags": {
        "amenity": "bar",
        "name": "Isola Bar"
      }
    },
    {
      "type": "node",
      "id": 2965534220,
      "lat": 16.8182459,
      "lon": 96.18464,
      "timestamp": "2016-01-31T10:01:49Z",
      "version": 2,
      "changeset": 36912562,
      "user": "westnordost",
      "uid": 1205786,
      "tags": {
        "amenity": "bar",
        "name": "101 sport bar"
      }
    },
    {
      "type": "node",
      "id": 2982245930,
      "lat": 18.7976188,
      "lon": 98.9751176,
      "timestamp": "2023-06-16T10:17:32Z",
      "version": 7,
      "changeset": 137407382,
      "user": "mikko_tamura",
      "uid": 2258022,
      "tags": {
        "amenity": "bar",
        "internet_access": "wlan",
        "lgbtq": "primary",
        "name": "Soho",
        "wifi": "free"
      }
    },
    {
      "type": "node",
      "id": 3008727529,
      "lat": 18.7427993,
      "lon": 98.9607531,
      "timestamp": "2014-08-10T14:20:50Z",
      "version": 1,
      "changeset": 24655997,
      "user": "Johnny Carlsen",
      "uid": 38985,
      "tags": {
        "amenity": "bar"
      }
    },
    {
      "type": "node",
      "id": 3090802185,
      "lat": 12.6576192,
      "lon": 99.9562615,
      "timestamp": "2014-09-24T09:32:12Z",
      "version": 3,
      "changeset": 25640799,
      "user": "iWowik",
      "uid": 481934,
      "tags": {
        "amenity": "bar",
        "name": "Lobby Lounge & Bar",
        "name:en": "Lobby Lounge & Bar",
        "wheelchair": "yes"
      }
    },
    {
      "type": "node",
      "id": 3090802186,
      "lat": 12.6574345,
      "lon": 99.9569826,
      "timestamp": "2014-09-24T11:27:06Z",
      "version": 4,
      "changeset": 25642859,
      "user": "iWowik",
      "uid": 481934,
      "tags": {
        "amenity": "bar",
        "name": "Sala Thip Poolside Terrace",
        "name:en": "Sala Thip Poolside Terrace",
        "wheelchair": "yes"
      }
    },
    {
      "type": "node",
      "id": 3101640981,
      "lat": 16.8796482,
      "lon": 96.1326769,
      "timestamp": "2014-09-29T09:58:31Z",
      "version": 1,
      "changeset": 25742983,
      "user": "Logimedia",
      "uid": 1858674,
      "tags": {
        "amenity": "bar",
        "name": "Turbo"
      }
    },
    {
      "type": "node",
      "id": 3148872143,
      "lat": 18.6306385,
      "lon": 98.8968566,
      "timestamp": "2014-10-25T10:08:55Z",
      "version": 1,
      "changeset": 26317577,
      "user": "AlaskaDave",
      "uid": 473104,
      "tags": {
        "amenity": "bar",
        "name": "Buck Bar"
      }
    },
    {
      "type": "node",
      "id": 3216591397,
      "lat": 18.782574,
      "lon": 99.00232,
      "timestamp": "2015-04-30T00:27:24Z",
      "version": 3,
      "changeset": 30642286,
      "user": "Niels Elgaard Larsen",
      "uid": 1288,
      "tags": {
        "amenity": "bar",
        "name": "Bamboo Bar"
      }
    },
    {
      "type": "node",
      "id": 3217335962,
      "lat": 18.8020932,
      "lon": 98.9670862,
      "timestamp": "2015-01-17T04:49:55Z",
      "version": 2,
      "changeset": 28201108,
      "user": "Johnny Carlsen",
      "uid": 38985,
      "tags": {
        "amenity": "bar",
        "level": "6",
        "name": "Roof Bar",
        "source": "http://www.mapillary.com/map/im/Rww_t2s6ZjplRuWMJgCerg"
      }
    },
    {
      "type": "node",
      "id": 3217335963,
      "lat": 18.8020221,
      "lon": 98.967552,
      "timestamp": "2021-11-27T03:49:46Z",
      "version": 5,
      "changeset": 114281829,
      "user": "wheelmap_visitor",
      "uid": 290680,
      "tags": {
        "amenity": "bar",
        "level": "6",
        "name": "Raya Cafe",
        "source": "http://www.mapillary.com/map/im/wWt4fyWB_sb4-k3T-IYynw",
        "wheelchair": "yes"
      }
    },
    {
      "type": "node",
      "id": 3217449864,
      "lat": 18.802492,
      "lon": 98.9668089,
      "timestamp": "2014-12-03T14:29:15Z",
      "version": 1,
      "changeset": 27201073,
      "user": "Johnny Carlsen",
      "uid": 38985,
      "tags": {
        "amenity": "bar",
        "level": "6",
        "name": "Your Bar"
      }
    },
    {
      "type": "node",
      "id": 3217453562,
      "lat": 18.8020427,
      "lon": 98.96719,
      "timestamp": "2015-01-17T04:49:55Z",
      "version": 2,
      "changeset": 28201108,
      "user": "Johnny Carlsen",
      "uid": 38985,
      "tags": {
        "alt_name": "Buckets Siamese Bar",
        "amenity": "bar",
        "level": "6",
        "name": "Buckets",
        "source": "http://www.mapillary.com/map/im/vHIE5NjaeDWmzxCJPsc65g"
      }
    },
    {
      "type": "node",
      "id": 3217455861,
      "lat": 18.8022014,
      "lon": 98.9668941,
      "timestamp": "2021-11-27T03:59:09Z",
      "version": 2,
      "changeset": 114281829,
      "user": "wheelmap_visitor",
      "uid": 290680,
      "tags": {
        "amenity": "bar",
        "level": "6",
        "name": "Myst",
        "wheelchair": "yes"
      }
    },
    {
      "type": "node",
      "id": 3222746162,
      "lat": 19.3568598,
      "lon": 98.4440071,
      "timestamp": "2023-01-08T03:54:23Z",
      "version": 4,
      "changeset": 131001740,
      "user": "Russ McD",
      "uid": 346601,
      "tags": {
        "amenity": "bar",
        "name": "Humble Bar",
        "source": "GPS"
      }
    },
    {
      "type": "node",
      "id": 3222795502,
      "lat": 18.7841172,
      "lon": 99.0039689,
      "timestamp": "2016-03-30T08:16:18Z",
      "version": 4,
      "changeset": 38161030,
      "user": "nhdr",
      "uid": 1966781,
      "tags": {
        "amenity": "pub",
        "name": "Bus Bar"
      }
    },
    {
      "type": "node",
      "id": 3263073309,
      "lat": 17.0084329,
      "lon": 99.8162801,
      "timestamp": "2016-01-26T10:56:24Z",
      "version": 2,
      "changeset": 36813648,
      "user": "Russ McD",
      "uid": 346601,
      "tags": {
        "amenity": "bar",
        "name": "bar64000",
        "name:en": "bar64000"
      }
    },
    {
      "type": "node",
      "id": 3266155974,
      "lat": 16.8377629,
      "lon": 96.1755306,
      "timestamp": "2016-03-23T18:09:55Z",
      "version": 2,
      "changeset": 38025453,
      "user": "westnordost",
      "uid": 1205786,
      "tags": {
        "amenity": "bar",
        "contact:website": "http://carnivalktv.com/",
        "name": "Carnival KTV",
        "name:zh": "嘉年华"
      }
    },
    {
      "type": "node",
      "id": 3266576365,
      "lat": 18.7845487,
      "lon": 98.9928512,
      "timestamp": "2015-01-03T07:33:26Z",
      "version": 1,
      "changeset": 27879857,
      "user": "Johnny Carlsen",
      "uid": 38985,
      "tags": {
        "amenity": "bar",
        "name": "Midnight Bar",
        "name:en": "Midnight Bar"
      }
    },
    {
      "type": "node",
      "id": 3266579667,
      "lat": 18.7846198,
      "lon": 98.9926503,
      "timestamp": "2015-11-19T18:37:38Z",
      "version": 2,
      "changeset": 35443016,
      "user": "Svedje",
      "uid": 3399277,
      "tags": {
        "alt_name": "On On Bar & Restaurant",
        "amenity": "bar",
        "name": "On On",
        "sport": "billiards"
      }
    },
    {
      "type": "node",
      "id": 3276140541,
      "lat": 18.8025643,
      "lon": 98.9831345,
      "timestamp": "2015-01-15T11:54:33Z",
      "version": 2,
      "changeset": 28158171,
      "user": "stephankn",
      "uid": 61891,
      "tags": {
        "amenity": "bar",
        "name": "Differ.,Inc"
      }
    },
    {
      "type": "node",
      "id": 3276155586,
      "lat": 18.7995153,
      "lon": 98.9673942,
      "timestamp": "2015-01-08T05:56:12Z",
      "version": 1,
      "changeset": 27990598,
      "user": "stephankn",
      "uid": 61891,
      "tags": {
        "amenity": "pub"
      }
    },
    {
      "type": "node",
      "id": 3283612047,
      "lat": 18.7985658,
      "lon": 98.9835563,
      "timestamp": "2015-01-12T11:01:37Z",
      "version": 1,
      "changeset": 28082285,
      "user": "stephankn",
      "uid": 61891,
      "tags": {
        "amenity": "pub"
      }
    },
    {
      "type": "node",
      "id": 3283626829,
      "lat": 18.8004523,
      "lon": 98.9804076,
      "timestamp": "2021-02-27T06:21:39Z",
      "version": 3,
      "changeset": 100083975,
      "user": "AlaskaDave",
      "uid": 473104,
      "tags": {
        "amenity": "pub",
        "name": "สุมหัว",
        "name:th": "สุมหัว"
      }
    },
    {
      "type": "node",
      "id": 3283640022,
      "lat": 18.8016839,
      "lon": 98.9810238,
      "timestamp": "2015-01-15T07:26:43Z",
      "version": 2,
      "changeset": 28154748,
      "user": "stephankn",
      "uid": 61891,
      "tags": {
        "amenity": "pub",
        "name": "ซุ้ม2 (สาขา5)"
      }
    },
    {
      "type": "node",
      "id": 3284019786,
      "lat": 18.8001238,
      "lon": 98.9795238,
      "timestamp": "2015-01-12T15:32:24Z",
      "version": 1,
      "changeset": 28087786,
      "user": "stephankn",
      "uid": 61891,
      "tags": {
        "amenity": "bar",
        "name": "Masscotte"
      }
    },
    {
      "type": "node",
      "id": 3287068986,
      "lat": 18.8028082,
      "lon": 98.9765283,
      "timestamp": "2015-01-14T04:48:43Z",
      "version": 1,
      "changeset": 28127417,
      "user": "stephankn",
      "uid": 61891,
      "tags": {
        "amenity": "bar",
        "name": "WYB House"
      }
    },
    {
      "type": "node",
      "id": 3287775765,
      "lat": 18.7981348,
      "lon": 98.9694453,
      "timestamp": "2015-01-14T16:10:41Z",
      "version": 1,
      "changeset": 28141037,
      "user": "Johnny Carlsen",
      "uid": 38985,
      "tags": {
        "amenity": "bar",
        "name": "Living Machine"
      }
    },
    {
      "type": "node",
      "id": 3287784361,
      "lat": 18.7981479,
      "lon": 98.9693375,
      "timestamp": "2015-01-17T04:50:46Z",
      "version": 2,
      "changeset": 28201108,
      "user": "Johnny Carlsen",
      "uid": 38985,
      "tags": {
        "amenity": "bar",
        "name": "Wine Terminal",
        "source": "http://www.mapillary.com/map/im/dc7yLOBntUkoai-L8dBKVw"
      }
    },
    {
      "type": "node",
      "id": 3287785461,
      "lat": 18.7981397,
      "lon": 98.9694073,
      "timestamp": "2015-01-17T04:52:19Z",
      "version": 2,
      "changeset": 28201108,
      "user": "Johnny Carlsen",
      "uid": 38985,
      "tags": {
        "amenity": "bar",
        "name:en": "Hello Teddy Bar"
      }
    },
    {
      "type": "node",
      "id": 3287785561,
      "lat": 18.7979715,
      "lon": 98.9694432,
      "timestamp": "2015-01-14T16:10:41Z",
      "version": 1,
      "changeset": 28141037,
      "user": "Johnny Carlsen",
      "uid": 38985,
      "tags": {
        "amenity": "bar",
        "name": "The Coffee Bar Nimman",
        "opening_hours": "Mo-Su 18:00-24:00"
      }
    },
    {
      "type": "node",
      "id": 3287794261,
      "lat": 18.7981082,
      "lon": 98.9698038,
      "timestamp": "2015-01-14T16:20:35Z",
      "version": 1,
      "changeset": 28141210,
      "user": "Johnny Carlsen",
      "uid": 38985,
      "tags": {
        "amenity": "bar",
        "name": "Lism Cafe"
      }
    },
    {
      "type": "node",
      "id": 3287798361,
      "lat": 18.7980679,
      "lon": 98.970147,
      "timestamp": "2023-12-17T13:47:02Z",
      "version": 2,
      "changeset": 145215652,
      "user": "Deciduous Waffle",
      "uid": 12669582,
      "tags": {
        "amenity": "bar",
        "check_date": "2023-12-17",
        "name": "Love98"
      }
    },
    {
      "type": "node",
      "id": 3287828561,
      "lat": 18.7973446,
      "lon": 98.9698547,
      "timestamp": "2015-01-14T16:38:40Z",
      "version": 2,
      "changeset": 28141584,
      "user": "Johnny Carlsen",
      "uid": 38985,
      "tags": {
        "amenity": "bar",
        "name": "Infusion"
      }
    },
    {
      "type": "node",
      "id": 3287832461,
      "lat": 18.7975254,
      "lon": 98.9695941,
      "timestamp": "2015-01-14T16:40:39Z",
      "version": 1,
      "changeset": 28141618,
      "user": "Johnny Carlsen",
      "uid": 38985,
      "tags": {
        "amenity": "bar",
        "name": "Wanz Cafe"
      }
    },
    {
      "type": "node",
      "id": 3287868961,
      "lat": 18.7975134,
      "lon": 98.9668594,
      "timestamp": "2015-01-14T17:10:09Z",
      "version": 1,
      "changeset": 28142471,
      "user": "Johnny Carlsen",
      "uid": 38985,
      "tags": {
        "amenity": "bar",
        "name": "Sit Up",
        "opening_hours": "Mo-Su 18:00-24:00"
      }
    },
    {
      "type": "node",
      "id": 3287871972,
      "lat": 18.7975476,
      "lon": 98.9673337,
      "timestamp": "2015-01-14T17:15:44Z",
      "version": 2,
      "changeset": 28142746,
      "user": "Johnny Carlsen",
      "uid": 38985,
      "tags": {
        "amenity": "bar",
        "contact:phone": "6682390424",
        "name": "บุษบาร์",
        "opening_hours": "Mo-Su 11:00-24:00"
      }
    },
    {
      "type": "node",
      "id": 3311562691,
      "lat": 18.8049082,
      "lon": 98.9747118,
      "timestamp": "2015-01-26T07:28:28Z",
      "version": 2,
      "changeset": 28409878,
      "user": "stephankn",
      "uid": 61891,
      "tags": {
        "amenity": "pub",
        "name": "Buddy"
      }
    },
    {
      "type": "node",
      "id": 3311573924,
      "lat": 18.8045876,
      "lon": 98.9769247,
      "timestamp": "2015-01-27T02:15:29Z",
      "version": 3,
      "changeset": 28433646,
      "user": "stephankn",
      "uid": 61891,
      "tags": {
        "amenity": "pub",
        "name": "ไลท์ คลับ",
        "name:en": "Like Club",
        "name:th": "ไลท์ คลับ"
      }
    },
    {
      "type": "node",
      "id": 3311573929,
      "lat": 18.804543,
      "lon": 98.9767657,
      "timestamp": "2015-01-27T02:15:29Z",
      "version": 2,
      "changeset": 28433646,
      "user": "stephankn",
      "uid": 61891,
      "tags": {
        "amenity": "pub",
        "name": "ฟองเบียร์",
        "name:en": "Fong Beer",
        "name:th": "ฟองเบียร์"
      }
    },
    {
      "type": "node",
      "id": 3311577704,
      "lat": 18.8046208,
      "lon": 98.9771665,
      "timestamp": "2015-01-26T07:43:48Z",
      "version": 1,
      "changeset": 28409878,
      "user": "stephankn",
      "uid": 61891,
      "tags": {
        "amenity": "pub",
        "name": "Fin Bar"
      }
    },
    {
      "type": "node",
      "id": 3311577706,
      "lat": 18.8048277,
      "lon": 98.976799,
      "timestamp": "2015-01-26T07:43:48Z",
      "version": 1,
      "changeset": 28409878,
      "user": "stephankn",
      "uid": 61891,
      "tags": {
        "amenity": "pub",
        "name": "Harem"
      }
    },
    {
      "type": "node",
      "id": 3311577708,
      "lat": 18.8045626,
      "lon": 98.9771863,
      "timestamp": "2015-01-26T07:43:48Z",
      "version": 1,
      "changeset": 28409878,
      "user": "stephankn",
      "uid": 61891,
      "tags": {
        "amenity": "pub",
        "name": "R&A"
      }
    },
    {
      "type": "node",
      "id": 3311577709,
      "lat": 18.8044857,
      "lon": 98.9772123,
      "timestamp": "2015-01-26T07:43:48Z",
      "version": 1,
      "changeset": 28409878,
      "user": "stephankn",
      "uid": 61891,
      "tags": {
        "amenity": "pub",
        "name": "Rich"
      }
    },
    {
      "type": "node",
      "id": 3316532011,
      "lat": 18.7947369,
      "lon": 98.9924539,
      "timestamp": "2015-01-28T10:20:00Z",
      "version": 1,
      "changeset": 28461080,
      "user": "Nico Las",
      "uid": 2122262,
      "tags": {
        "amenity": "bar",
        "name": "Oasis Rooftop Garden Bar"
      }
    },
    {
      "type": "node",
      "id": 3318180864,
      "lat": 18.7982536,
      "lon": 99.0005162,
      "timestamp": "2015-01-29T08:04:53Z",
      "version": 1,
      "changeset": 28481094,
      "user": "stephankn",
      "uid": 61891,
      "tags": {
        "amenity": "pub",
        "name": "Ram Bar"
      }
    },
    {
      "type": "node",
      "id": 3322954344,
      "lat": 18.8065985,
      "lon": 98.9770019,
      "timestamp": "2017-09-28T22:39:57Z",
      "version": 2,
      "changeset": 52459964,
      "user": "AlaskaDave",
      "uid": 473104,
      "tags": {
        "amenity": "pub",
        "name": "Buddy Bar"
      }
    },
    {
      "type": "node",
      "id": 3341001564,
      "lat": 18.908394,
      "lon": 98.9485552,
      "timestamp": "2016-02-21T09:17:37Z",
      "version": 3,
      "changeset": 37342722,
      "user": "Johnny Carlsen",
      "uid": 38985,
      "tags": {
        "amenity": "pub",
        "contact:phone": "0850303808",
        "name": "ครัวชนบท",
        "name:en": "Krua Channabot"
      }
    },
    {
      "type": "node",
      "id": 3341023583,
      "lat": 18.8901435,
      "lon": 99.0239628,
      "timestamp": "2015-02-10T04:21:33Z",
      "version": 1,
      "changeset": 28742306,
      "user": "stephankn",
      "uid": 61891,
      "tags": {
        "amenity": "pub",
        "name": "Beer House"
      }
    },
    {
      "type": "node",
      "id": 3342167097,
      "lat": 18.7428739,
      "lon": 98.9744663,
      "timestamp": "2019-12-14T10:17:27Z",
      "version": 3,
      "changeset": 78403889,
      "user": "AlaskaDave",
      "uid": 473104,
      "tags": {
        "amenity": "pub",
        "name:en": "Rood House Restaurant & Bar"
      }
    },
    {
      "type": "node",
      "id": 3383974580,
      "lat": 14.0419773,
      "lon": 99.4997411,
      "timestamp": "2015-03-05T07:36:50Z",
      "version": 1,
      "changeset": 29259963,
      "user": "StijnB",
      "uid": 824582,
      "tags": {
        "amenity": "bar",
        "name": "The Rantee Lounge",
        "smoking": "no"
      }
    },
    {
      "type": "node",
      "id": 3383974581,
      "lat": 14.0418209,
      "lon": 99.4997085,
      "timestamp": "2015-03-05T07:36:50Z",
      "version": 1,
      "changeset": 29259963,
      "user": "StijnB",
      "uid": 824582,
      "tags": {
        "amenity": "bar",
        "name": "The Green Wave Karaoke & Fun Pub"
      }
    },
    {
      "type": "node",
      "id": 3383974583,
      "lat": 14.0418035,
      "lon": 99.4992053,
      "timestamp": "2015-03-05T07:36:50Z",
      "version": 1,
      "changeset": 29259963,
      "user": "StijnB",
      "uid": 824582,
      "tags": {
        "amenity": "bar",
        "name": "Sai Yok Pool Bar"
      }
    },
    {
      "type": "node",
      "id": 3384130417,
      "lat": 18.7828534,
      "lon": 98.9830547,
      "timestamp": "2015-03-05T10:53:12Z",
      "version": 1,
      "changeset": 29262723,
      "user": "stephankn",
      "uid": 61891,
      "tags": {
        "amenity": "pub",
        "name": "Before Kick Off"
      }
    },
    {
      "type": "node",
      "id": 3385473041,
      "lat": 18.7844209,
      "lon": 98.9923938,
      "timestamp": "2019-02-11T14:09:38Z",
      "version": 2,
      "changeset": 67101427,
      "user": "Johnny Carlsen",
      "uid": 38985,
      "tags": {
        "amenity": "pub",
        "name": "Thai Biza Rocks"
      }
    },
    {
      "type": "node",
      "id": 3385473043,
      "lat": 18.7844508,
      "lon": 98.9926766,
      "timestamp": "2015-11-19T18:37:38Z",
      "version": 2,
      "changeset": 35443016,
      "user": "Svedje",
      "uid": 3399277,
      "tags": {
        "amenity": "pub",
        "contact:phone": "+66 86 913 8190",
        "contact:website": "https://www.facebook.com/The-half-moon-Chiang-Mai-Thailand-206726362712830/?fref=ts",
        "name": "The Half Moon",
        "smoking": "yes",
        "sport": "billiards"
      }
    },
    {
      "type": "node",
      "id": 3385473046,
      "lat": 18.784567,
      "lon": 98.9927551,
      "timestamp": "2019-02-11T14:16:09Z",
      "version": 2,
      "changeset": 67101427,
      "user": "Johnny Carlsen",
      "uid": 38985,
      "tags": {
        "amenity": "bar",
        "name": "Tiny Corner",
        "source": "https://www.mapillary.com/map/im/LkOmWi3YIi0BQ3psD8IUUw"
      }
    },
    {
      "type": "node",
      "id": 3387749253,
      "lat": 19.1710084,
      "lon": 99.8958106,
      "timestamp": "2015-03-07T14:31:59Z",
      "version": 1,
      "changeset": 29309650,
      "user": "wotan4odin",
      "uid": 2620891,
      "tags": {
        "amenity": "pub",
        "name": "HUG"
      }
    },
    {
      "type": "node",
      "id": 3388710162,
      "lat": 18.7862244,
      "lon": 98.9782406,
      "timestamp": "2015-03-08T04:32:41Z",
      "version": 1,
      "changeset": 29321487,
      "user": "stephankn",
      "uid": 61891,
      "tags": {
        "amenity": "pub",
        "name": "Mixology",
        "opening_hours": "Tu-Fr 15:00-24:00; Sa,Su 11:00-24:00"
      }
    },
    {
      "type": "node",
      "id": 3388711771,
      "lat": 18.7841881,
      "lon": 98.9787889,
      "timestamp": "2015-03-08T04:42:19Z",
      "version": 1,
      "changeset": 29321487,
      "user": "stephankn",
      "uid": 61891,
      "tags": {
        "amenity": "pub",
        "name": "Update"
      }
    },
    {
      "type": "node",
      "id": 3414255070,
      "lat": 18.2003768,
      "lon": 98.5969662,
      "timestamp": "2015-03-23T13:05:29Z",
      "version": 1,
      "changeset": 29678319,
      "user": "Menelus",
      "uid": 2752193,
      "tags": {
        "amenity": "bar",
        "name": "Hodtato Snackbar"
      }
    },
    {
      "type": "node",
      "id": 3414272477,
      "lat": 18.7843941,
      "lon": 98.9957392,
      "timestamp": "2015-07-15T15:05:16Z",
      "version": 3,
      "changeset": 32653925,
      "user": "Johnny Carlsen",
      "uid": 38985,
      "tags": {
        "amenity": "pub",
        "name": "Friends Corner",
        "source": "http://www.mapillary.com/map/im/J68lj43C67HW5QsfT0B2ig"
      }
    },
    {
      "type": "node",
      "id": 3414272484,
      "lat": 18.7844081,
      "lon": 98.9956717,
      "timestamp": "2015-07-15T15:00:21Z",
      "version": 3,
      "changeset": 32653925,
      "user": "Johnny Carlsen",
      "uid": 38985,
      "tags": {
        "addr:city": "Muang Chiangmai",
        "addr:housenumber": "66/2",
        "addr:postcode": "50100",
        "addr:street": "ถนนลอยเคราะห์",
        "amenity": "pub",
        "name": "The Playhouse",
        "opening_hours": "Mo-Su 14:00-02:00",
        "source": "http://www.mapillary.com/map/im/XijEAL0zIFzSQMKBVfjSKA",
        "website": "http://www.playhousebarthailand.com"
      }
    },
    {
      "type": "node",
      "id": 3415499421,
      "lat": 18.7846736,
      "lon": 98.9947722,
      "timestamp": "2024-01-05T14:58:38Z",
      "version": 6,
      "changeset": 145925613,
      "user": "Russ McD",
      "uid": 346601,
      "tags": {
        "amenity": "bar",
        "cuisine": "thai",
        "internet_access": "wlan",
        "internet_access:fee": "no",
        "name": "I'm Shy Bar",
        "source": "http://www.mapillary.com/map/im/Gin5k-XKJ93h8pe9P-E1JQ"
      }
    },
    {
      "type": "node",
      "id": 3416198193,
      "lat": 16.7925341,
      "lon": 96.1419075,
      "timestamp": "2015-04-26T13:51:56Z",
      "version": 2,
      "changeset": 30503004,
      "user": "adjuva",
      "uid": 92274,
      "tags": {
        "addr:city": "Yangon",
        "addr:country": "MM",
        "amenity": "bar",
        "email": "roofalchemy@gmail.com",
        "name": "Roof Alchemy",
        "smoking": "yes",
        "website": "http://www.facebook.com/roofalchemy"
      }
    },
    {
      "type": "node",
      "id": 3416932283,
      "lat": 18.7842497,
      "lon": 98.9948482,
      "timestamp": "2015-03-25T04:31:41Z",
      "version": 1,
      "changeset": 29719469,
      "user": "stephankn",
      "uid": 61891,
      "tags": {
        "amenity": "pub",
        "name": "Basic Bar"
      }
    },
    {
      "type": "node",
      "id": 3416932289,
      "lat": 18.7842412,
      "lon": 98.994968,
      "timestamp": "2015-03-25T04:31:42Z",
      "version": 1,
      "changeset": 29719469,
      "user": "stephankn",
      "uid": 61891,
      "tags": {
        "amenity": "pub",
        "name": "Welcome 2 Gether"
      }
    },
    {
      "type": "node",
      "id": 3417032443,
      "lat": 18.7838173,
      "lon": 99.0026285,
      "timestamp": "2015-03-25T07:04:44Z",
      "version": 1,
      "changeset": 29720465,
      "user": "stephankn",
      "uid": 61891,
      "tags": {
        "amenity": "pub",
        "name": "Downunder"
      }
    },
    {
      "type": "node",
      "id": 3417032448,
      "lat": 18.7840682,
      "lon": 99.0031196,
      "timestamp": "2017-07-07T08:10:30Z",
      "version": 2,
      "changeset": 50101865,
      "user": "Pathumthani",
      "uid": 2302962,
      "tags": {
        "amenity": "pub",
        "name": "Rasta Cafe"
      }
    },
    {
      "type": "node",
      "id": 3417032451,
      "lat": 18.7841517,
      "lon": 99.0029046,
      "timestamp": "2015-03-25T07:04:44Z",
      "version": 1,
      "changeset": 29720465,
      "user": "stephankn",
      "uid": 61891,
      "tags": {
        "amenity": "pub",
        "name": "Thai Country Bar"
      }
    },
    {
      "type": "node",
      "id": 3417032452,
      "lat": 18.7841007,
      "lon": 99.0029259,
      "timestamp": "2015-03-25T07:04:44Z",
      "version": 1,
      "changeset": 29720465,
      "user": "stephankn",
      "uid": 61891,
      "tags": {
        "amenity": "pub",
        "name": "The Lotus Pub"
      }
    },
    {
      "type": "node",
      "id": 3417161538,
      "lat": 18.7848591,
      "lon": 99.0028646,
      "timestamp": "2015-12-24T10:57:37Z",
      "version": 2,
      "changeset": 36142184,
      "user": "AlaskaDave",
      "uid": 473104,
      "tags": {
        "amenity": "pub",
        "name": "Sugar Shack",
        "opening_hours": "Mo-Fr 12:00-03:00"
      }
    },
    {
      "type": "node",
      "id": 3417307168,
      "lat": 18.7845496,
      "lon": 99.0015034,
      "timestamp": "2019-10-23T17:20:06Z",
      "version": 4,
      "changeset": 76116861,
      "user": "AlaskaDave",
      "uid": 473104,
      "tags": {
        "addr:housenumber": "19/1",
        "addr:street": "ถนนเจริญประเทศ ซอย6",
        "addr:street:en": "Charoenpratet Road",
        "amenity": "pub",
        "contact:phone": "+66932703085",
        "contact:website": "http://www.2getherbar.com",
        "name": "2Gether Bar",
        "opening_hours": "Mo-Su 17:00-24:00"
      }
    },
    {
      "type": "node",
      "id": 3418990693,
      "lat": 18.792784,
      "lon": 98.9939567,
      "timestamp": "2015-03-26T05:10:14Z",
      "version": 1,
      "changeset": 29743556,
      "user": "stephankn",
      "uid": 61891,
      "tags": {
        "amenity": "pub",
        "name": "Brasserie"
      }
    },
    {
      "type": "node",
      "id": 3419499202,
      "lat": 18.7954373,
      "lon": 98.9666646,
      "timestamp": "2015-03-26T11:30:59Z",
      "version": 3,
      "changeset": 29749312,
      "user": "Johnny Carlsen",
      "uid": 38985,
      "tags": {
        "amenity": "bar",
        "name": "Nombalen",
        "source": "http://www.mapillary.com/map/im/clzuJ6qzp3CaqFtUVZNLUw"
      }
    },
    {
      "type": "node",
      "id": 3419878775,
      "lat": 18.7515861,
      "lon": 98.9405669,
      "timestamp": "2015-03-26T15:54:05Z",
      "version": 1,
      "changeset": 29756932,
      "user": "stephankn",
      "uid": 61891,
      "tags": {
        "amenity": "pub",
        "name": "Longdo"
      }
    },
    {
      "type": "node",
      "id": 3419897070,
      "lat": 18.7899799,
      "lon": 98.9600647,
      "timestamp": "2015-03-26T16:08:33Z",
      "version": 1,
      "changeset": 29757242,
      "user": "stephankn",
      "uid": 61891,
      "tags": {
        "amenity": "bar",
        "name": "22 Mini Cocktail Bar"
      }
    },
    {
      "type": "node",
      "id": 3421293917,
      "lat": 18.7950061,
      "lon": 98.9666954,
      "timestamp": "2015-03-27T10:34:29Z",
      "version": 1,
      "changeset": 29774111,
      "user": "stephankn",
      "uid": 61891,
      "tags": {
        "amenity": "pub",
        "name": "Ninety"
      }
    },
    {
      "type": "node",
      "id": 3421304671,
      "lat": 18.7953295,
      "lon": 98.9684445,
      "timestamp": "2015-03-27T10:43:39Z",
      "version": 1,
      "changeset": 29774278,
      "user": "stephankn",
      "uid": 61891,
      "tags": {
        "amenity": "pub",
        "name": "Bertini"
      }
    },
    {
      "type": "node",
      "id": 3421305619,
      "lat": 18.7960183,
      "lon": 98.968287,
      "timestamp": "2015-03-27T10:46:17Z",
      "version": 1,
      "changeset": 29774318,
      "user": "stephankn",
      "uid": 61891,
      "tags": {
        "amenity": "bar",
        "name": "No Name Now"
      }
    },
    {
      "type": "node",
      "id": 3421308696,
      "lat": 18.7960788,
      "lon": 98.9684735,
      "timestamp": "2015-03-27T10:51:14Z",
      "version": 1,
      "changeset": 29774414,
      "user": "stephankn",
      "uid": 61891,
      "tags": {
        "amenity": "pub"
      }
    },
    {
      "type": "node",
      "id": 3426415666,
      "lat": 18.7994081,
      "lon": 98.969092,
      "timestamp": "2021-11-27T03:40:14Z",
      "version": 2,
      "changeset": 114281829,
      "user": "wheelmap_visitor",
      "uid": 290680,
      "tags": {
        "amenity": "pub",
        "name": "Mix",
        "wheelchair": "limited"
      }
    },
    {
      "type": "node",
      "id": 3498410799,
      "lat": 18.7851355,
      "lon": 98.9935459,
      "timestamp": "2023-01-13T11:28:39Z",
      "version": 3,
      "changeset": 131225450,
      "user": "Russ McD",
      "uid": 346601,
      "tags": {
        "amenity": "bar",
        "name": "Cherry Blossom"
      }
    },
    {
      "type": "node",
      "id": 3498682041,
      "lat": 16.7229505,
      "lon": 98.5756048,
      "timestamp": "2015-05-05T08:46:07Z",
      "version": 1,
      "changeset": 30798230,
      "user": "Russ McD",
      "uid": 346601,
      "tags": {
        "amenity": "bar",
        "name": "The Terrace"
      }
    },
    {
      "type": "node",
      "id": 3508501043,
      "lat": 18.8107411,
      "lon": 98.9799976,
      "timestamp": "2015-05-10T13:25:23Z",
      "version": 1,
      "changeset": 30962898,
      "user": "Russ McD",
      "uid": 346601,
      "tags": {
        "amenity": "bar",
        "name": "Land Mark",
        "source": "GPS"
      }
    },
    {
      "type": "node",
      "id": 3579611295,
      "lat": 18.7746344,
      "lon": 99.0077384,
      "timestamp": "2025-04-24T08:14:30Z",
      "version": 6,
      "changeset": 165366190,
      "user": "Konmuang",
      "uid": 13253615,
      "tags": {
        "amenity": "bar",
        "name": "Namton's House Bar",
        "opening_hours": "Mo, Tu, Th-Su 15:00-23:00",
        "source": "http://www.mapillary.com/map/im/iyhPKMQe0x_ViWQ-bZ8TBw"
      }
    },
    {
      "type": "node",
      "id": 3596791667,
      "lat": 10.0845886,
      "lon": 99.8253381,
      "timestamp": "2016-09-04T14:39:42Z",
      "version": 3,
      "changeset": 41909117,
      "user": "Suzanne Bosch",
      "uid": 4518394,
      "tags": {
        "amenity": "bar",
        "internet_access": "wlan",
        "name": "Reef Bar pool table"
      }
    },