{
  "version": 0.6,
  "generator": "Overpass API 0.7.62.8 e802775f",
  "osm3s": {
    "timestamp_osm_base": "2025-10-23T19:56:30Z",
    "copyright": "The data included in this document is from www.openstreetmap.org. The data is made available under ODbL."
  },
  "elements": [
    {
      "type": "node",
      "id": 317901477,
      "lat": 11.109886,
      "lon": 7.7204357,
      "timestamp": "2008-12-11T08:00:50Z",
      "version": 1,
      "changeset": 314381,
      "user": "Anna_AG",
      "uid": 20163,
      "tags": {
        "amenity": "pub",
        "name": "BAT Club Zaria"
      }
    },
    {
      "type": "node",
      "id": 501520605,
      "lat": 13.0252292,
      "lon": 5.1926852,
      "timestamp": "2024-06-20T15:28:03Z",
      "version": 6,
      "changeset": 152951727,
      "user": "Frans S",
      "uid": 1962399,
      "tags": {
        "addr:city": "arkilla",
        "addr:street": "Abbaty",
        "alt_name": "Arkilla",
        "amenity": "bar",
        "brewery": "yes",
        "min_age": "60",
        "name": "Abbaty 2pac",
        "opening_hours:covid19": "restricted",
        "source": "streetlevel imagery",
        "source:date": "16/05/2017"
      }
    },
    {
      "type": "node",
      "id": 550079496,
      "lat": 11.1017213,
      "lon": 7.7228392,
      "timestamp": "2012-06-25T12:10:01Z",
      "version": 2,
      "changeset": 12010632,
      "user": "Anna_AG",
      "uid": 20163,
      "tags": {
        "amenity": "pub",
        "name": "Mates Bar"
      }
    },
    {
      "type": "node",
      "id": 552954016,
      "lat": 10.5437264,
      "lon": 7.4379332,
      "timestamp": "2017-06-13T12:32:50Z",
      "version": 3,
      "changeset": 49498856,
      "user": "Hadeezah Musa",
      "uid": 6158758,
      "tags": {
        "amenity": "pub",
        "name": "Kaduna Club"
      }
    },
    {
      "type": "node",
      "id": 552954722,
      "lat": 10.5527571,
      "lon": 7.4519902,
      "timestamp": "2009-11-03T12:48:05Z",
      "version": 1,
      "changeset": 3024419,
      "user": "Anna_AG",
      "uid": 20163,
      "tags": {
        "amenity": "pub",
        "name": "NAF Club"
      }
    },
    {
      "type": "node",
      "id": 557707059,
      "lat": 10.5560192,
      "lon": 7.4466199,
      "timestamp": "2009-11-06T05:49:28Z",
      "version": 1,
      "changeset": 3045791,
      "user": "Anna_AG",
      "uid": 20163,
      "tags": {
        "amenity": "pub",
        "name": "NDA Officers Mess"
      }
    },
    {
      "type": "node",
      "id": 559473222,
      "lat": 10.5308693,
      "lon": 7.4396831,
      "timestamp": "2009-11-08T13:21:18Z",
      "version": 1,
      "changeset": 3063533,
      "user": "Anna_AG",
      "uid": 20163,
      "tags": {
        "amenity": "pub",
        "name": "Kaduna Rugby Club"
      }
    },
    {
      "type": "node",
      "id": 620758476,
      "lat": 10.3517762,
      "lon": 0.4695735,
      "timestamp": "2013-08-14T17:15:17Z",
      "version": 2,
      "changeset": 17348855,
      "user": "hyacinthe Djiwonou",
      "uid": 1595908,
      "tags": {
        "amenity": "bar"
      }
    },
    {
      "type": "node",
      "id": 915447471,
      "lat": 10.3538398,
      "lon": 0.4702998,
      "timestamp": "2019-12-18T03:39:12Z",
      "version": 2,
      "changeset": 78555562,
      "user": "AKOUETE",
      "uid": 4274094,
      "tags": {
        "amenity": "pub"
      }
    },
    {
      "type": "node",
      "id": 1679175832,
      "lat": 13.5322923,
      "lon": 2.0972305,
      "timestamp": "2019-06-20T11:23:10Z",
      "version": 3,
      "changeset": 71439991,
      "user": "CISSE Mahamadou",
      "uid": 6406970,
      "tags": {
        "amenity": "bar",
        "name": "Le toulousain"
      }
    },
    {
      "type": "node",
      "id": 1699201450,
      "lat": 13.5216391,
      "lon": 2.0971299,
      "timestamp": "2022-09-18T22:15:53Z",
      "version": 5,
      "changeset": 126347427,
      "user": "mawalunga",
      "uid": 17169564,
      "tags": {
        "amenity": "pub",
        "name": "Sky Lounge",
        "name:en": "Sky Lounge"
      }
    },
    {
      "type": "node",
      "id": 2203980178,
      "lat": 10.1329449,
      "lon": 1.0837684,
      "timestamp": "2013-03-16T01:12:22Z",
      "version": 1,
      "changeset": 15379512,
      "user": "benoitberlin",
      "uid": 1197015,
      "tags": {
        "amenity": "pub",
        "name": "Buvette du Baobab"
      }
    },
    {
      "type": "node",
      "id": 2203980179,
      "lat": 10.1371085,
      "lon": 1.0806239,
      "timestamp": "2013-03-16T01:12:22Z",
      "version": 1,
      "changeset": 15379512,
      "user": "benoitberlin",
      "uid": 1197015,
      "tags": {
        "amenity": "pub",
        "name": "Buvette du Marché"
      }
    },
    {
      "type": "node",
      "id": 2204352531,
      "lat": 10.1806443,
      "lon": 1.104695,
      "timestamp": "2013-03-16T10:07:56Z",
      "version": 1,
      "changeset": 15381948,
      "user": "benoitberlin",
      "uid": 1197015,
      "tags": {
        "amenity": "pub",
        "name": "Au bout du monde"
      }
    },
    {
      "type": "node",
      "id": 2207472541,
      "lat": 10.1760147,
      "lon": 1.108557,
      "timestamp": "2013-03-17T22:32:01Z",
      "version": 1,
      "changeset": 15402404,
      "user": "benoitberlin",
      "uid": 1197015,
      "tags": {
        "amenity": "pub",
        "name": "Chez Forstain"
      }
    },
    {
      "type": "node",
      "id": 2237719405,
      "lat": 10.1777043,
      "lon": 1.1060876,
      "timestamp": "2025-03-02T21:25:10Z",
      "version": 2,
      "changeset": 163138764,
      "user": "CSRedu1",
      "uid": 21661908,
      "tags": {
        "amenity": "pub",
        "name": "Buvette Terasse"
      }
    },
    {
      "type": "node",
      "id": 2538986789,
      "lat": 13.0508819,
      "lon": 3.1883789,
      "timestamp": "2013-11-19T00:17:44Z",
      "version": 1,
      "changeset": 18985753,
      "user": "Djamz",
      "uid": 1810826,
      "tags": {
        "amenity": "bar"
      }
    },
    {
      "type": "node",
      "id": 2608233650,
      "lat": 10.3365148,
      "lon": 1.6959131,
      "timestamp": "2014-01-03T17:51:10Z",
      "version": 1,
      "changeset": 19791656,
      "user": "paulbanon",
      "uid": 1717089,
      "tags": {
        "amenity": "bar",
        "name": "Buvette sous le manguier",
        "source": "GPS"
      }
    },
    {
      "type": "node",
      "id": 2623047341,
      "lat": 10.1491796,
      "lon": 1.0775663,
      "timestamp": "2014-08-12T16:37:38Z",
      "version": 2,
      "changeset": 24705710,
      "user": "hyacinthe Djiwonou",
      "uid": 1595908,
      "tags": {
        "amenity": "pub",
        "internet_access": "no",
        "name": "Le Club du Koutammakou",
        "smoking": "no",
        "source": "bing;survey",
        "tourism": "hostel"
      }
    },
    {
      "type": "node",
      "id": 2627756937,
      "lat": 10.1137362,
      "lon": 2.4006479,
      "timestamp": "2015-10-30T13:53:33Z",
      "version": 2,
      "changeset": 34972939,
      "user": "SKald",
      "uid": 38313,
      "tags": {
        "amenity": "bar"
      }
    },
    {
      "type": "node",
      "id": 2706757097,
      "lat": 13.5095831,
      "lon": 2.1180637,
      "timestamp": "2014-03-08T09:48:40Z",
      "version": 1,
      "changeset": 20983967,
      "user": "ilasolthah",
      "uid": 1857950,
      "tags": {
        "amenity": "bar",
        "name": "Desperado"
      }
    },
    {
      "type": "node",
      "id": 2728338448,
      "lat": 13.5213267,
      "lon": 2.136095,
      "timestamp": "2014-03-20T08:19:21Z",
      "version": 1,
      "changeset": 21205759,
      "user": "ilasolthah",
      "uid": 1857950,
      "tags": {
        "amenity": "bar",
        "name": "Tafadeck"
      }
    },
    {
      "type": "node",
      "id": 3215383922,
      "lat": 13.5249629,
      "lon": 2.1093319,
      "timestamp": "2018-06-02T22:32:36Z",
      "version": 2,
      "changeset": 59495893,
      "user": "Aloy29",
      "uid": 3792390,
      "tags": {
        "amenity": "bar",
        "name": "Le Francophone"
      }
    },
    {
      "type": "node",
      "id": 3224622598,
      "lat": 13.0447546,
      "lon": 3.1929556,
      "timestamp": "2018-10-15T23:24:12Z",
      "version": 2,
      "changeset": 63558097,
      "user": "ilasolthah",
      "uid": 1857950,
      "tags": {
        "amenity": "bar",
        "name": "Koubeyni",
        "source": "survey"
      }
    },
    {
      "type": "node",
      "id": 3382412670,
      "lat": 10.5294521,
      "lon": 7.4338766,
      "timestamp": "2015-03-04T06:57:24Z",
      "version": 1,
      "changeset": 29237454,
      "user": "Dave Stanley",
      "uid": 111410,
      "tags": {
        "amenity": "bar",
        "name": "Command Guest House"
      }
    },
    {
      "type": "node",
      "id": 3647833394,
      "lat": 11.5415427,
      "lon": 0.1158914,
      "timestamp": "2015-07-12T19:26:06Z",
      "version": 1,
      "changeset": 32587534,
      "user": "Ralfhar",
      "uid": 2901859,
      "tags": {
        "amenity": "bar",
        "name": "Buvette Nabonswende",
        "source": "survey"
      }
    },
    {
      "type": "node",
      "id": 3710600628,
      "lat": 12.0597572,
      "lon": 0.3615423,
      "timestamp": "2021-07-25T00:18:00Z",
      "version": 3,
      "changeset": 108549839,
      "user": "Fred73000",
      "uid": 8101879,
      "tags": {
        "amenity": "bar",
        "name": "Choco Bar",
        "source": "survey"
      }
    },
    {
      "type": "node",
      "id": 4184423688,
      "lat": 10.3062893,
      "lon": 1.3743111,
      "timestamp": "2017-06-08T22:27:31Z",
      "version": 2,
      "changeset": 49381640,
      "user": "Clara Y",
      "uid": 5022738,
      "tags": {
        "amenity": "bar",
        "name": "Jazz Tata",
        "outdoor_seating": "yes",
        "smoking": "outside"
      }
    },
    {
      "type": "node",
      "id": 4203928490,
      "lat": 11.3332988,
      "lon": 8.7684846,
      "timestamp": "2016-05-24T07:11:50Z",
      "version": 1,
      "changeset": 39525889,
      "user": "Ahmad Maiunguwa",
      "uid": 3928724,
      "tags": {
        "amenity": "pub",
        "name": "Unguwar manzo"
      }
    },
    {
      "type": "node",
      "id": 4203928491,
      "lat": 11.3425691,
      "lon": 8.7611312,
      "timestamp": "2016-05-24T07:12:06Z",
      "version": 1,
      "changeset": 39525889,
      "user": "Ahmad Maiunguwa",
      "uid": 3928724,
      "tags": {
        "amenity": "pub",
        "name": "Burdugu"
      }
    },
    {
      "type": "node",
      "id": 4203944390,
      "lat": 11.2783367,
      "lon": 8.7277146,
      "timestamp": "2016-05-24T07:11:44Z",
      "version": 1,
      "changeset": 39525889,
      "user": "Ahmad Maiunguwa",
      "uid": 3928724,
      "tags": {
        "amenity": "pub",
        "name": "Raya 2"
      }
    },
    {
      "type": "node",
      "id": 4241774091,
      "lat": 11.3279666,
      "lon": 8.7393044,
      "timestamp": "2017-04-21T23:17:38Z",
      "version": 2,
      "changeset": 48018698,
      "user": "Johnwhelan",
      "uid": 186592,
      "tags": {
        "amenity": "pub",
        "name": "Baburi"
      }
    },
    {
      "type": "node",
      "id": 4244111089,
      "lat": 13.5222534,
      "lon": 2.0945506,
      "timestamp": "2016-06-15T09:59:37Z",
      "version": 1,
      "changeset": 40035176,
      "user": "DirtSquirrel",
      "uid": 3964292,
      "tags": {
        "amenity": "bar",
        "name": "Mooky Bar"
      }
    },
    {
      "type": "node",
      "id": 4258870544,
      "lat": 13.5092304,
      "lon": 2.1142999,
      "timestamp": "2016-06-22T16:54:11Z",
      "version": 1,
      "changeset": 40209763,
      "user": "ilasolthah",
      "uid": 1857950,
      "tags": {
        "amenity": "pub",
        "name": "King"
      }
    },
    {
      "type": "node",
      "id": 4271041989,
      "lat": 13.5082635,
      "lon": 2.1359669,
      "timestamp": "2016-06-29T05:45:09Z",
      "version": 1,
      "changeset": 40358124,
      "user": "Djika",
      "uid": 3493103,
      "tags": {
        "amenity": "bar",
        "name": "Bar Guiguinya"
      }
    },
    {
      "type": "node",
      "id": 4318254851,
      "lat": 13.4931627,
      "lon": 7.1034915,
      "timestamp": "2016-09-28T08:45:51Z",
      "version": 2,
      "changeset": 42488513,
      "user": "OrsiJenei",
      "uid": 940549,
      "tags": {
        "amenity": "bar",
        "name": "Prestige Bar Pacifique",
        "project:pdevii": "yes",
        "source": "survey"
      }
    },
    {
      "type": "node",
      "id": 4347733590,
      "lat": 11.3366573,
      "lon": 8.7943508,
      "timestamp": "2017-04-21T23:17:38Z",
      "version": 2,
      "changeset": 48018698,
      "user": "Johnwhelan",
      "uid": 186592,
      "tags": {
        "amenity": "pub",
        "name": "Dambazan Yamma"
      }
    },
    {
      "type": "node",
      "id": 4360186806,
      "lat": 10.8675715,
      "lon": 0.2029213,
      "timestamp": "2021-12-07T20:15:58Z",
      "version": 2,
      "changeset": 114675287,
      "user": "zoubinnaba",
      "uid": 5113626,
      "tags": {
        "amenity": "bar",
        "name": "One Way Lafafie Tie Jenne",
        "source": "bing;survey"
      }
    },
    {
      "type": "node",
      "id": 4397522644,
      "lat": 14.2004039,
      "lon": 1.4683918,
      "timestamp": "2016-09-12T13:21:55Z",
      "version": 1,
      "changeset": 42100972,
      "user": "OrsiJenei",
      "uid": 940549,
      "tags": {
        "amenity": "bar",
        "name": "Boite de Nuit de Stade",
        "project:pdevii": "yes",
        "source": "survey"
      }
    },
    {
      "type": "node",
      "id": 4397522649,
      "lat": 14.2114858,
      "lon": 1.4561241,
      "timestamp": "2016-09-12T13:21:55Z",
      "version": 1,
      "changeset": 42100972,
      "user": "OrsiJenei",
      "uid": 940549,
      "tags": {
        "amenity": "bar",
        "name": "Buvette Rond Point Y",
        "project:pdevii": "yes",
        "source": "survey"
      }
    },
    {
      "type": "node",
      "id": 4398614174,
      "lat": 13.4959121,
      "lon": 2.1376493,
      "timestamp": "2022-04-04T17:54:29Z",
      "version": 2,
      "changeset": 119312423,
      "user": "Jean-Marc Liotier",
      "uid": 160042,
      "tags": {
        "amenity": "biergarten",
        "name": "Maquis Le Chevalier",
        "source": "survey"
      }
    },
    {
      "type": "node",
      "id": 4405650139,
      "lat": 14.8939421,
      "lon": 5.2638358,
      "timestamp": "2017-12-08T12:48:56Z",
      "version": 2,
      "changeset": 54457971,
      "user": "Patchanka",
      "uid": 128938,
      "tags": {
        "amenity": "bar",
        "name": "Bar Ciel d'Afrique",
        "project:pdevii": "yes",
        "source": "survey",
        "survey:date": "2016-04-20"
      }
    },
    {
      "type": "node",
      "id": 4407739242,
      "lat": 14.8919167,
      "lon": 5.2771122,
      "timestamp": "2016-09-19T07:08:47Z",
      "version": 1,
      "changeset": 42262670,
      "user": "OrsiJenei",
      "uid": 940549,
      "tags": {
        "amenity": "bar",
        "name": "Galaxie Boite de Nuit",
        "project:pdevii": "yes",
        "source": "survey",
        "survey:date": "2016-04-21"
      }
    },
    {
      "type": "node",
      "id": 4418776995,
      "lat": 16.9710665,
      "lon": 7.9902366,
      "timestamp": "2016-09-26T10:17:20Z",
      "version": 1,
      "changeset": 42441300,
      "user": "OrsiJenei",
      "uid": 940549,
      "tags": {
        "amenity": "bar",
        "name": "Maquis Moussa Mai Salati",
        "project:pdevii": "yes",
        "source": "survey",
        "survey:date": "2016-04-14"
      }
    },
    {
      "type": "node",
      "id": 4418910072,
      "lat": 16.9759979,
      "lon": 7.9892719,
      "timestamp": "2016-09-26T12:11:30Z",
      "version": 1,
      "changeset": 42443718,
      "user": "OrsiJenei",
      "uid": 940549,
      "tags": {
        "amenity": "bar",
        "name": "Bar Dounia",
        "project:pdevii": "yes",
        "source": "survey",
        "survey:date": "2016-04-14"
      }
    },
    {
      "type": "node",
      "id": 4418910073,
      "lat": 16.9757429,
      "lon": 7.989487,
      "timestamp": "2016-09-26T12:11:30Z",
      "version": 1,
      "changeset": 42443718,
      "user": "OrsiJenei",
      "uid": 940549,
      "tags": {
        "amenity": "bar",
        "name": "Bar La Flotte",
        "project:pdevii": "yes",
        "source": "survey",
        "survey:date": "2016-04-14"
      }
    },
    {
      "type": "node",
      "id": 4420582946,
      "lat": 16.9824811,
      "lon": 7.9844813,
      "timestamp": "2016-09-27T15:22:30Z",
      "version": 1,
      "changeset": 42472949,
      "user": "OrsiJenei",
      "uid": 940549,
      "tags": {
        "amenity": "bar",
        "name": "Buvette Le 18",
        "project:pdevii": "yes",
        "source": "survey",
        "survey:date": "2016-04-15"
      }
    },
    {
      "type": "node",
      "id": 4443847533,
      "lat": 10.3652806,
      "lon": 2.396329,
      "timestamp": "2016-10-12T12:41:46Z",
      "version": 1,
      "changeset": 42829391,
      "user": "Jake Meyers",
      "uid": 3824291,
      "tags": {
        "amenity": "bar"
      }
    },
    {
      "type": "node",
      "id": 4496749409,
      "lat": 13.5211564,
      "lon": 2.1226648,
      "timestamp": "2016-11-12T13:09:35Z",
      "version": 1,
      "changeset": 43580989,
      "user": "ilasolthah",
      "uid": 1857950,
      "tags": {
        "amenity": "bar",
        "name": "Le Tabarin Soni"
      }
    },
    {
      "type": "node",
      "id": 4902027223,
      "lat": 10.3082683,
      "lon": 1.3785283,
      "timestamp": "2017-06-07T13:52:46Z",
      "version": 1,
      "changeset": 49336985,
      "user": "DEGBOHOUET",
      "uid": 3899115,
      "tags": {
        "amenity": "bar",
        "name": "Buvette QG",
        "name:fr": "Buvette QG"
      }
    },
    {
      "type": "node",
      "id": 4953295121,
      "lat": 11.69213,
      "lon": 9.3320833,
      "timestamp": "2017-07-05T19:07:03Z",
      "version": 1,
      "changeset": 50066275,
      "user": "Tompolo",
      "uid": 6262103,
      "tags": {
        "amenity": "bar",
        "name": "Inspector Officers Mess, Dutse, Jigawa",
        "name:en": "Inspector Officers Mess, Dutse, Jigawa"
      }
    },
    {
      "type": "node",
      "id": 4959382903,
      "lat": 13.6403235,
      "lon": 4.0446865,
      "timestamp": "2017-07-09T06:27:20Z",
      "version": 1,
      "changeset": 50144729,
      "user": "Aziz Barazé",
      "uid": 6157735,
      "tags": {
        "amenity": "pub",
        "name": "Bar Restaurant 421 Doutchi"
      }
    },
    {
      "type": "node",
      "id": 5031033263,
      "lat": 13.5148745,
      "lon": 2.1123304,
      "timestamp": "2017-11-04T09:03:25Z",
      "version": 2,
      "changeset": 53498548,
      "user": "Mahamane Abdoulkader",
      "uid": 1857589,
      "tags": {
        "amenity": "pub",
        "name": "Univers Isa Business"
      }
    },
    {
      "type": "node",
      "id": 5115485237,
      "lat": 10.872197,
      "lon": 0.2020549,
      "timestamp": "2017-09-19T14:59:07Z",
      "version": 1,
      "changeset": 52182682,
      "user": "hermann106",
      "uid": 632960,
      "tags": {
        "amenity": "pub",
        "name": "Bar Cap"
      }
    },
    {
      "type": "node",
      "id": 5115859123,
      "lat": 10.2944537,
      "lon": 1.3705268,
      "timestamp": "2017-09-19T18:39:29Z",
      "version": 1,
      "changeset": 52189796,
      "user": "W00WT",
      "uid": 6349311,
      "tags": {
        "amenity": "bar",
        "name": "Happy Club"
      }
    },
    {
      "type": "node",
      "id": 5152848499,
      "lat": 13.5140155,
      "lon": 2.1117002,
      "timestamp": "2017-10-07T02:00:06Z",
      "version": 1,
      "changeset": 52698121,
      "user": "ilasolthah",
      "uid": 1857950,
      "tags": {
        "amenity": "pub",
        "name": "Le patio"
      }
    },
    {
      "type": "node",
      "id": 5152848501,
      "lat": 13.5142308,
      "lon": 2.1118239,
      "timestamp": "2021-02-20T14:47:11Z",
      "version": 2,
      "changeset": 99645377,
      "user": "Olivia167",
      "uid": 12637784,
      "tags": {
        "amenity": "pub"
      }
    },
    {
      "type": "node",
      "id": 5242362333,
      "lat": 12.0686114,
      "lon": 0.3567092,
      "timestamp": "2017-11-22T16:30:12Z",
      "version": 2,
      "changeset": 54005789,
      "user": "Adrien1341",
      "uid": 6944322,
      "tags": {
        "amenity": "bar",
        "name": "Sous les mangiers"
      }
    },
    {
      "type": "node",
      "id": 5242790714,
      "lat": 12.0589618,
      "lon": 0.3651936,
      "timestamp": "2018-01-22T09:13:55Z",
      "version": 2,
      "changeset": 55648823,
      "user": "Adrien1341",
      "uid": 6944322,
      "tags": {
        "amenity": "bar",
        "name": "Café des Arts"
      }
    },
    {
      "type": "node",
      "id": 5242997434,
      "lat": 12.0662603,
      "lon": 0.351011,
      "timestamp": "2017-11-22T16:23:55Z",
      "version": 1,
      "changeset": 54005618,
      "user": "Adrien1341",
      "uid": 6944322,
      "tags": {
        "amenity": "bar"
      }
    },
    {
      "type": "node",
      "id": 5281733266,
      "lat": 12.0501657,
      "lon": 0.3694752,
      "timestamp": "2017-12-13T10:10:01Z",
      "version": 1,
      "changeset": 54591274,
      "user": "Adrien1341",
      "uid": 6944322,
      "tags": {
        "amenity": "bar",
        "outdoor_seating": "yes"
      }
    },
    {
      "type": "node",
      "id": 5354147321,
      "lat": 12.0617543,
      "lon": 0.3838017,
      "timestamp": "2018-01-22T08:53:54Z",
      "version": 1,
      "changeset": 55648320,
      "user": "Adrien1341",
      "uid": 6944322,
      "tags": {
        "amenity": "bar",
        "name": "King's Way"
      }
    },
    {
      "type": "node",
      "id": 5354147421,
      "lat": 12.0600856,
      "lon": 0.3741566,
      "timestamp": "2018-01-22T08:53:57Z",
      "version": 1,
      "changeset": 55648320,
      "user": "Adrien1341",
      "uid": 6944322,
      "tags": {
        "amenity": "bar",
        "name": "Calypso"
      }
    },
    {
      "type": "node",
      "id": 5356238881,
      "lat": 12.0602758,
      "lon": 0.3721969,
      "timestamp": "2018-01-23T08:25:16Z",
      "version": 1,
      "changeset": 55676768,
      "user": "Adrien1341",
      "uid": 6944322,
      "tags": {
        "amenity": "bar",
        "name": "Le Like"
      }
    },
    {
      "type": "node",
      "id": 5387380821,
      "lat": 10.2980598,
      "lon": 1.3806244,
      "timestamp": "2018-02-04T18:24:14Z",
      "version": 1,
      "changeset": 56063105,
      "user": "Clara Y",
      "uid": 5022738,
      "tags": {
        "amenity": "bar",
        "name": "Ouragan buvette",
        "name:en": "Ouragan",
        "name:es": "Ouragan"
      }
    },
    {
      "type": "node",
      "id": 5387380921,
      "lat": 10.2942085,
      "lon": 1.3865949,
      "timestamp": "2018-02-04T18:24:16Z",
      "version": 1,
      "changeset": 56063105,
      "user": "Clara Y",
      "uid": 5022738,
      "tags": {
        "amenity": "pub",
        "cuisine": "african",
        "name": "Sans soucis Le Bataclan"
      }
    },
    {
      "type": "node",
      "id": 5637084121,
      "lat": 10.4697045,
      "lon": 7.4358351,
      "timestamp": "2018-05-23T10:25:20Z",
      "version": 1,
      "changeset": 59206143,
      "user": "Izunna Ezeomah",
      "uid": 8192263,
      "tags": {
        "addr:street": "6 Somalia Crescent",
        "amenity": "pub",
        "email": "jodecinigeria@outlook.com",
        "internet_access": "wlan",
        "name": "Jodeci Lounge and Wine Bar",
        "opening_hours": "24/7",
        "phone": "08185627369"
      }
    },
    {
      "type": "node",
      "id": 5784638914,
      "lat": 10.6224563,
      "lon": 1.2731487,
      "timestamp": "2018-07-25T16:40:20Z",
      "version": 1,
      "changeset": 61061979,
      "user": "anebophil",
      "uid": 2231043,
      "tags": {
        "amenity": "pub",
        "name": "Bar Dancing App"
      }
    },
    {
      "type": "node",
      "id": 5784680071,
      "lat": 10.6211403,
      "lon": 1.2714644,
      "timestamp": "2018-07-25T17:02:32Z",
      "version": 1,
      "changeset": 61062645,
      "user": "Témitokpè ADEICHAN",
      "uid": 3465848,
      "tags": {
        "amenity": "pub",
        "name": "Buvette Pendjari"
      }
    },
    {
      "type": "node",
      "id": 5784826958,
      "lat": 10.6213448,
      "lon": 1.2709183,
      "timestamp": "2018-07-25T18:06:36Z",
      "version": 1,
      "changeset": 61064265,
      "user": "luckpogbe",
      "uid": 2207384,
      "tags": {
        "amenity": "bar",
        "name": "App communication"
      }
    },
    {
      "type": "node",
      "id": 5787205920,
      "lat": 10.6332697,
      "lon": 1.2698603,
      "timestamp": "2018-07-26T12:54:16Z",
      "version": 1,
      "changeset": 61087872,
      "user": "Louk94",
      "uid": 8589190,
      "tags": {
        "amenity": "bar",
        "name": "Jabiru"
      }
    },
    {
      "type": "node",
      "id": 5787700616,
      "lat": 10.6208585,
      "lon": 1.2612015,
      "timestamp": "2018-07-26T17:57:25Z",
      "version": 1,
      "changeset": 61096329,
      "user": "frederic ademola",
      "uid": 3462832,
      "tags": {
        "amenity": "pub",
        "name": "Cabaret"
      }
    },
    {
      "type": "node",
      "id": 5787700617,
      "lat": 10.6224043,
      "lon": 1.2615583,
      "timestamp": "2018-07-26T17:57:26Z",
      "version": 1,
      "changeset": 61096329,
      "user": "frederic ademola",
      "uid": 3462832,
      "tags": {
        "amenity": "pub",
        "name": "Cabaret la tolerence"
      }
    },
    {
      "type": "node",
      "id": 5787702700,
      "lat": 10.6211509,
      "lon": 1.2610576,
      "timestamp": "2018-07-26T17:58:39Z",
      "version": 1,
      "changeset": 61096352,
      "user": "Témitokpè ADEICHAN",
      "uid": 3465848,
      "tags": {
        "amenity": "pub",
        "name": "Cabaret Tout Droit"
      }
    },
    {
      "type": "node",
      "id": 5787702704,
      "lat": 10.6222567,
      "lon": 1.260791,
      "timestamp": "2018-07-26T17:58:39Z",
      "version": 1,
      "changeset": 61096352,
      "user": "Témitokpè ADEICHAN",
      "uid": 3465848,
      "tags": {
        "amenity": "pub",
        "name": "Cabaret"
      }
    },
    {
      "type": "node",
      "id": 5787702788,
      "lat": 10.6189779,
      "lon": 1.2630761,
      "timestamp": "2018-07-26T17:58:38Z",
      "version": 1,
      "changeset": 61096352,
      "user": "Témitokpè ADEICHAN",
      "uid": 3465848,
      "tags": {
        "amenity": "pub",
        "name": "La cour des grands"
      }
    },
    {
      "type": "node",
      "id": 5787702789,
      "lat": 10.6196788,
      "lon": 1.2612068,
      "timestamp": "2018-07-26T17:58:38Z",
      "version": 1,
      "changeset": 61096352,
      "user": "Témitokpè ADEICHAN",
      "uid": 3465848,
      "tags": {
        "amenity": "pub",
        "name": "Allez retour (Cabaret)"
      }
    },
    {
      "type": "node",
      "id": 5787702793,
      "lat": 10.6261003,
      "lon": 1.2635141,
      "timestamp": "2018-07-26T17:58:40Z",
      "version": 1,
      "changeset": 61096352,
      "user": "Témitokpè ADEICHAN",
      "uid": 3465848,
      "tags": {
        "amenity": "pub",
        "name": "Après le Boulot"
      }
    },
    {
      "type": "node",
      "id": 5787724318,
      "lat": 10.6197282,
      "lon": 1.2611385,
      "timestamp": "2018-07-26T18:20:15Z",
      "version": 1,
      "changeset": 61096893,
      "user": "anebophil",
      "uid": 2231043,
      "tags": {
        "amenity": "pub",
        "name": "Cabaret Allez retour"
      }
    },
    {
      "type": "node",
      "id": 5787736198,
      "lat": 10.6190504,
      "lon": 1.2630629,
      "timestamp": "2018-07-26T18:20:14Z",
      "version": 1,
      "changeset": 61096893,
      "user": "anebophil",
      "uid": 2231043,
      "tags": {
        "amenity": "pub",
        "name": "Cabaret La cours des grands"
      }
    },
    {
      "type": "node",
      "id": 5794026422,
      "lat": 10.6218069,
      "lon": 1.2672305,
      "timestamp": "2018-07-29T15:34:03Z",
      "version": 1,
      "changeset": 61167323,
      "user": "luckpogbe",
      "uid": 2207384,
      "tags": {
        "addr:street": "Rue 30",
        "amenity": "pub",
        "name": "Buvette Yempadou Bouama"
      }
    },
    {
      "type": "node",
      "id": 5794026426,
      "lat": 10.6214012,
      "lon": 1.2683205,
      "timestamp": "2018-07-29T15:34:06Z",
      "version": 1,
      "changeset": 61167323,
      "user": "luckpogbe",
      "uid": 2207384,
      "tags": {
        "amenity": "pub",
        "name": "Sous les Nîmes"
      }
    },
    {
      "type": "node",
      "id": 5801297357,
      "lat": 10.2571134,
      "lon": 1.3786953,
      "timestamp": "2018-08-01T12:06:26Z",
      "version": 1,
      "changeset": 61261352,
      "user": "Clara Y",
      "uid": 5022738,
      "tags": {
        "amenity": "bar",
        "name": "La persévérance"
      }
    },
    {
      "type": "node",
      "id": 5818732847,
      "lat": 11.1278484,
      "lon": 0.0094823,
      "timestamp": "2018-08-08T18:30:17Z",
      "version": 1,
      "changeset": 61477488,
      "user": "edvac",
      "uid": 121415,
      "tags": {
        "amenity": "bar",
        "description": "Bar Dancing",
        "name": "La Tolérance Plus",
        "source": "Note 1370556"
      }
    },
    {
      "type": "node",
      "id": 5919448385,
      "lat": 10.279621,
      "lon": 1.3802711,
      "timestamp": "2018-09-20T23:25:09Z",
      "version": 1,
      "changeset": 62779491,
      "user": "Clara Y",
      "uid": 5022738,
      "tags": {
        "amenity": "bar",
        "name": "L'Escale Belge"
      }
    },
    {
      "type": "node",
      "id": 6128461038,
      "lat": 13.0447188,
      "lon": 3.1929249,
      "timestamp": "2018-12-10T14:29:08Z",
      "version": 1,
      "changeset": 65346410,
      "user": "ilasolthah",
      "uid": 1857950,
      "tags": {
        "amenity": "pub",
        "name": "Koubeyni"
      }
    },
    {
      "type": "node",
      "id": 6132610685,
      "lat": 12.0578596,
      "lon": 0.3612266,
      "timestamp": "2018-12-12T13:09:25Z",
      "version": 1,
      "changeset": 65407928,
      "user": "AUXENCE_SOME",
      "uid": 9051683,
      "tags": {
        "amenity": "bar",
        "name": "FADA MIXT"
      }
    },
    {
      "type": "node",
      "id": 6137564385,
      "lat": 13.7857611,
      "lon": 9.013441,
      "timestamp": "2018-12-14T16:00:18Z",
      "version": 1,
      "changeset": 65477953,
      "user": "Moustapha Borko",
      "uid": 9034908,
      "tags": {
        "amenity": "bar",
        "name": "Foyer Gendarmerie"
      }
    },
    {
      "type": "node",
      "id": 6340384285,
      "lat": 10.2882319,
      "lon": 1.3872434,
      "timestamp": "2019-03-15T18:44:36Z",
      "version": 1,
      "changeset": 68185811,
      "user": "SebOst",
      "uid": 4669312,
      "tags": {
        "amenity": "bar",
        "name": "La tour de Nati - bar sur la montagne"
      }
    },
    {
      "type": "node",
      "id": 6465783085,
      "lat": 13.529193,
      "lon": 2.0814025,
      "timestamp": "2019-05-10T21:58:08Z",
      "version": 1,
      "changeset": 70125631,
      "user": "elfarneto",
      "uid": 9625704,
      "tags": {
        "amenity": "bar",
        "name": "Chapalodrome"
      }
    },
    {
      "type": "node",
      "id": 6518612845,
      "lat": 13.530276,
      "lon": 2.0713414,
      "timestamp": "2019-06-03T16:27:47Z",
      "version": 1,
      "changeset": 70892320,
      "user": "ilasolthah",
      "uid": 1857950,
      "tags": {
        "amenity": "pub",
        "name": "VIP"
      }
    },
    {
      "type": "node",
      "id": 6764556681,
      "lat": 13.5212119,
      "lon": 2.1178863,
      "timestamp": "2019-09-01T17:41:58Z",
      "version": 1,
      "changeset": 73978779,
      "user": "ilasolthah",
      "uid": 1857950,
      "tags": {
        "amenity": "pub"
      }
    },
    {
      "type": "node",
      "id": 6795755687,
      "lat": 13.5120182,
      "lon": 2.1346525,
      "timestamp": "2019-09-14T17:54:17Z",
      "version": 1,
      "changeset": 74480922,
      "user": "Jedos",
      "uid": 9141137,
      "tags": {
        "amenity": "bar",
        "name": "Bar la gaieté Niamey"
      }
    },
    {
      "type": "node",
      "id": 7009130986,
      "lat": 10.2211233,
      "lon": 2.6617484,
      "timestamp": "2020-09-20T08:09:51Z",
      "version": 2,
      "changeset": 91168203,
      "user": "foxandpotatoes",
      "uid": 117689,
      "tags": {
        "addr:street": "RNIE2 Route de Malanville",
        "amenity": "bar",
        "name": "Trinité",
        "name:en": "Trinity"
      }
    },
    {
      "type": "node",
      "id": 7064943879,
      "lat": 10.3511255,
      "lon": 0.468968,
      "timestamp": "2019-12-17T23:42:44Z",
      "version": 1,
      "changeset": 78549139,
      "user": "AKOUETE",
      "uid": 4274094,
      "tags": {
        "amenity": "pub",
        "name": "Bar Albatros"
      }
    },
    {
      "type": "node",
      "id": 7064950345,
      "lat": 10.360721,
      "lon": 0.4691647,
      "timestamp": "2019-12-17T23:42:41Z",
      "version": 1,
      "changeset": 78549139,
      "user": "AKOUETE",
      "uid": 4274094,
      "tags": {
        "amenity": "pub"
      }
    },
    {
      "type": "node",
      "id": 7064959145,
      "lat": 10.3611638,
      "lon": 0.4684828,
      "timestamp": "2019-12-23T12:15:24Z",
      "version": 2,
      "changeset": 78772182,
      "user": "AKOUETE",
      "uid": 4274094,
      "tags": {
        "amenity": "pub",
        "name": "Bar Tp"
      }
    },
    {
      "type": "node",
      "id": 7064971827,
      "lat": 10.353537,
      "lon": 0.4696544,
      "timestamp": "2019-12-27T12:12:19Z",
      "version": 2,
      "changeset": 78924223,
      "user": "hermann106",
      "uid": 632960,
      "tags": {
        "amenity": "pub",
        "name": "Bar Merveille"
      }
    },
    {
      "type": "node",
      "id": 7064974623,
      "lat": 10.3650766,
      "lon": 0.4644376,
      "timestamp": "2020-12-18T13:07:13Z",
      "version": 2,
      "changeset": 96072445,
      "user": "hermann106",
      "uid": 632960,
      "tags": {
        "amenity": "pub",
        "name": "Bar Equinoxe"
      }
    },
    {
      "type": "node",
      "id": 7065250426,
      "lat": 10.3607351,
      "lon": 0.4689816,
      "timestamp": "2019-12-18T03:02:14Z",
      "version": 1,
      "changeset": 78554010,
      "user": "AKOUETE",
      "uid": 4274094,
      "tags": {
        "amenity": "bar",
        "name": "Bar Mon Beau Village"
      }
    },
    {
      "type": "node",
      "id": 7065349794,
      "lat": 10.337019,
      "lon": 0.4707143,
      "timestamp": "2019-12-18T03:58:51Z",
      "version": 1,
      "changeset": 78556424,
      "user": "hermann106",
      "uid": 632960,
      "tags": {
        "amenity": "pub",
        "name": "Bar Bel Air"
      }
    },
    {
      "type": "node",
      "id": 7065349803,
      "lat": 10.3316281,
      "lon": 0.470835,
      "timestamp": "2019-12-18T03:58:51Z",
      "version": 1,
      "changeset": 78556424,
      "user": "hermann106",
      "uid": 632960,
      "tags": {
        "amenity": "pub",
        "name": "Bar la Paix"
      }
    },
    {
      "type": "node",
      "id": 7065349889,
      "lat": 10.3413068,
      "lon": 0.4666923,
      "timestamp": "2019-12-18T03:58:51Z",
      "version": 1,
      "changeset": 78556424,
      "user": "hermann106",
      "uid": 632960,
      "tags": {
        "amenity": "pub",
        "name:fr": "Bar les Retrouvailles",
        "source": "Maxar Standard;Survey"
      }
    },
    {
      "type": "node",
      "id": 7068843575,
      "lat": 10.356906,
      "lon": 0.4767452,
      "timestamp": "2019-12-19T06:47:08Z",
      "version": 1,
      "changeset": 78620278,
      "user": "hermann106",
      "uid": 632960,
      "tags": {
        "amenity": "pub",
        "name": "Maquis Yiko"
      }
    },
    {
      "type": "node",
      "id": 7070875785,
      "lat": 10.349088,
      "lon": 0.4712722,
      "timestamp": "2019-12-20T01:21:38Z",
      "version": 1,
      "changeset": 78659362,
      "user": "hermann106",
      "uid": 632960,
      "tags": {
        "amenity": "pub",
        "name": "Tout est Grâce",
        "source": "Maxar Standard;Survey"
      }
    },
    {
      "type": "node",
      "id": 7071021356,
      "lat": 10.3577147,
      "lon": 0.4698265,
      "timestamp": "2019-12-20T03:59:48Z",
      "version": 1,
      "changeset": 78663163,
      "user": "AKOUETE",
      "uid": 4274094,
      "tags": {
        "amenity": "bar",
        "name": "Bar Koumanou"
      }
    },
    {
      "type": "node",
      "id": 7073996670,
      "lat": 10.3448293,
      "lon": 0.4761739,
      "timestamp": "2019-12-21T01:36:32Z",
      "version": 1,
      "changeset": 78703141,
      "user": "hermann106",
      "uid": 632960,
      "tags": {
        "amenity": "pub",
        "name": "Bar Sawari"
      }
    },
    {
      "type": "node",
      "id": 7079558285,
      "lat": 10.3666037,
      "lon": 0.483436,
      "timestamp": "2019-12-23T10:39:46Z",
      "version": 1,
      "changeset": 78768348,
      "user": "AKOUETE",
      "uid": 4274094,
      "tags": {
        "amenity": "bar",
        "name": "Bar Splendide"
      }
    },
    {
      "type": "node",
      "id": 7079569763,
      "lat": 10.3653617,
      "lon": 0.4744627,
      "timestamp": "2019-12-23T11:10:20Z",
      "version": 1,
      "changeset": 78769561,
      "user": "AKOUETE",
      "uid": 4274094,
      "tags": {
        "amenity": "bar"
      }
    },
    {
      "type": "node",
      "id": 7082249694,
      "lat": 10.3531052,
      "lon": 0.4388563,
      "timestamp": "2019-12-24T11:38:18Z",
      "version": 1,
      "changeset": 78816741,
      "user": "AKOUETE",
      "uid": 4274094,
      "tags": {
        "amenity": "bar",
        "name": "Bar Bon Coin"
      }
    },
    {
      "type": "node",
      "id": 7082333466,
      "lat": 10.2924941,
      "lon": 0.4666816,
      "timestamp": "2019-12-24T12:31:11Z",
      "version": 1,
      "changeset": 78818638,
      "user": "AKOUETE",
      "uid": 4274094,
      "tags": {
        "amenity": "bar",
        "name": "Bar Privilège"
      }
    },
    {
      "type": "node",
      "id": 7684717786,
      "lat": 14.4621945,
      "lon": 5.2471201,
      "timestamp": "2020-07-05T10:48:16Z",
      "version": 1,
      "changeset": 87551809,
      "user": "Ousseiniasoumane",
      "uid": 11441095,
      "tags": {
        "amenity": "biergarten",
        "name": "Illela"
      }
    },
    {
      "type": "node",
      "id": 8081909117,
      "lat": 12.0543874,
      "lon": 0.3744009,
      "timestamp": "2020-11-04T17:24:36Z",
      "version": 1,
      "changeset": 93555521,
      "user": "Koadima",
      "uid": 8862310,
      "tags": {
        "amenity": "bar",
        "name": "New Kalèche"
      }
    },
    {
      "type": "node",
      "id": 8081909119,
      "lat": 12.0915606,
      "lon": 0.3590946,
      "timestamp": "2020-11-04T17:25:12Z",
      "version": 1,
      "changeset": 93555521,
      "user": "Koadima",
      "uid": 8862310,
      "tags": {
        "amenity": "bar",
        "name": "Buvette non Lotti secteur 8"
      }
    },
    {
      "type": "node",
      "id": 8096314717,
      "lat": 12.0602131,
      "lon": 0.3754525,
      "timestamp": "2020-11-09T09:21:18Z",
      "version": 1,
      "changeset": 93785584,
      "user": "AminiTs",
      "uid": 12139046,
      "tags": {
        "amenity": "bar",
        "name": "TV plus"
      }
    },
    {
      "type": "node",
      "id": 8222210265,
      "lat": 11.0383529,
      "lon": 0.1145533,
      "timestamp": "2020-12-12T14:46:30Z",
      "version": 1,
      "changeset": 95724645,
      "user": "hermann106",
      "uid": 632960,
      "tags": {
        "amenity": "pub",
        "name": "Bar sous le Pont"
      }
    },
    {
      "type": "node",
      "id": 8222227661,
      "lat": 10.8964915,
      "lon": 0.1692336,
      "timestamp": "2020-12-12T14:46:30Z",
      "version": 1,
      "changeset": 95724645,
      "user": "hermann106",
      "uid": 632960,
      "tags": {
        "amenity": "pub",
        "name": "Bar Usine"
      }
    },
    {
      "type": "node",
      "id": 8235778839,
      "lat": 10.8733889,
      "lon": 0.2033316,
      "timestamp": "2020-12-16T21:51:40Z",
      "version": 1,
      "changeset": 95965034,
      "user": "AKOUETE",
      "uid": 4274094,
      "tags": {
        "amenity": "pub",
        "tourism": "hostel"
      }
    },
    {
      "type": "node",
      "id": 8252540589,
      "lat": 10.8389433,
      "lon": 0.143255,
      "timestamp": "2020-12-22T18:40:10Z",
      "version": 1,
      "changeset": 96276232,
      "user": "AKOUETE",
      "uid": 4274094,
      "tags": {
        "amenity": "pub",
        "name": "Plage de Yanyane"
      }
    },
    {
      "type": "node",
      "id": 8626141317,
      "lat": 13.5337972,
      "lon": 2.0669618,
      "timestamp": "2021-04-13T14:34:13Z",
      "version": 2,
      "changeset": 102872247,
      "user": "Rijckaert marc",
      "uid": 13068795,
      "tags": {
        "amenity": "pub",
        "shop": "beverages"
      }
    },
    {
      "type": "node",
      "id": 8760953319,
      "lat": 12.0586313,
      "lon": 0.4032203,
      "timestamp": "2021-05-24T11:45:16Z",
      "version": 1,
      "changeset": 105223099,
      "user": "Koadima",
      "uid": 8862310,
      "tags": {
        "amenity": "bar",
        "name": "Moscou bar"
      }
    },
    {
      "type": "node",
      "id": 8787238197,
      "lat": 11.1005622,
      "lon": 0.0047234,
      "timestamp": "2021-05-31T21:55:10Z",
      "version": 1,
      "changeset": 105645843,
      "user": "Eklou Amemassovor",
      "uid": 12534373,
      "tags": {
        "amenity": "bar"
      }
    },
    {
      "type": "node",
      "id": 8797761518,
      "lat": 10.8786565,
      "lon": 0.2781048,
      "timestamp": "2021-06-04T08:38:56Z",
      "version": 1,
      "changeset": 105824258,
      "user": "ADJOGBLE Emmanuel",
      "uid": 1799293,
      "tags": {
        "amenity": "bar"
      }
    },
    {
      "type": "node",
      "id": 8798032095,
      "lat": 10.9074395,
      "lon": 0.3538156,
      "timestamp": "2021-06-04T09:25:22Z",
      "version": 1,
      "changeset": 105827468,
      "user": "Eklou Amemassovor",
      "uid": 12534373,
      "tags": {
        "amenity": "bar",
        "name": "Bar Daouda 2"
      }
    },
    {
      "type": "node",
      "id": 8798032103,
      "lat": 10.9028963,
      "lon": 0.321444,
      "timestamp": "2021-06-04T09:25:22Z",
      "version": 1,
      "changeset": 105827468,
      "user": "Eklou Amemassovor",
      "uid": 12534373,
      "tags": {
        "amenity": "bar",
        "name": "Bar la Confiance"
      }
    },
    {
      "type": "node",
      "id": 8798032106,
      "lat": 10.9102208,
      "lon": 0.3221601,
      "timestamp": "2021-06-04T09:25:22Z",
      "version": 1,
      "changeset": 105827468,
      "user": "Eklou Amemassovor",
      "uid": 12534373,
      "tags": {
        "amenity": "bar"
      }
    },
    {
      "type": "node",
      "id": 8798032107,
      "lat": 10.9094833,
      "lon": 0.3186625,
      "timestamp": "2021-06-04T09:25:22Z",
      "version": 1,
      "changeset": 105827468,
      "user": "Eklou Amemassovor",
      "uid": 12534373,
      "tags": {
        "amenity": "bar"
      }
    },
    {
      "type": "node",
      "id": 8798032111,
      "lat": 10.9134971,
      "lon": 0.3129843,
      "timestamp": "2021-06-04T09:25:22Z",
      "version": 1,
      "changeset": 105827468,
      "user": "Eklou Amemassovor",
      "uid": 12534373,
      "tags": {
        "amenity": "bar"
      }
    },
    {
      "type": "node",
      "id": 8798032112,
      "lat": 10.912923,
      "lon": 0.3119516,
      "timestamp": "2021-06-04T09:25:22Z",
      "version": 1,
      "changeset": 105827468,
      "user": "Eklou Amemassovor",
      "uid": 12534373,
      "tags": {
        "amenity": "bar",
        "name": "Bar Réferentiel"
      }
    },
    {
      "type": "node",
      "id": 8798036527,
      "lat": 10.8944285,
      "lon": 0.2782389,
      "timestamp": "2021-06-04T09:25:22Z",
      "version": 1,
      "changeset": 105827468,
      "user": "Eklou Amemassovor",
      "uid": 12534373,
      "tags": {
        "amenity": "bar"
      }
    },
    {
      "type": "node",
      "id": 8808915189,
      "lat": 10.9985761,
      "lon": 0.3771062,
      "timestamp": "2021-06-06T13:31:43Z",
      "version": 1,
      "changeset": 105917102,
      "user": "ADJOGBLE Emmanuel",
      "uid": 1799293,
      "tags": {
        "amenity": "bar"
      }
    },
    {
      "type": "node",
      "id": 8887181183,
      "lat": 10.8756775,
      "lon": 0.2048363,
      "timestamp": "2023-05-31T09:30:00Z",
      "version": 4,
      "changeset": 136780189,
      "user": "user_5359",
      "uid": 5359,
      "tags": {
        "addr:city": "Dapaong",
        "amenity": "pub",
        "name": "Savana Fiesta",
        "owner": "Mondo Gounteni Chimbiandja"
      }
    },
    {
      "type": "node",
      "id": 8964395932,
      "lat": 10.944485,
      "lon": 0.2669817,
      "timestamp": "2021-07-30T23:18:33Z",
      "version": 1,
      "changeset": 108913065,
      "user": "AKOUETE",
      "uid": 4274094,
      "tags": {
        "amenity": "pub"
      }
    },
    {
      "type": "node",
      "id": 8971445017,
      "lat": 10.8359683,
      "lon": 0.2297083,
      "timestamp": "2021-08-01T07:27:26Z",
      "version": 1,
      "changeset": 108963915,
      "user": "AKOUETE",
      "uid": 4274094,
      "tags": {
        "amenity": "pub",
        "name": "La paix"
      }
    },
    {
      "type": "node",
      "id": 8978537293,
      "lat": 10.8777833,
      "lon": 0.2006083,
      "timestamp": "2021-08-03T23:46:33Z",
      "version": 1,
      "changeset": 109117103,
      "user": "AKOUETE",
      "uid": 4274094,
      "tags": {
        "amenity": "pub"
      }
    },
    {
      "type": "node",
      "id": 9025305198,
      "lat": 10.8778266,
      "lon": 0.2006137,
      "timestamp": "2021-08-21T19:04:19Z",
      "version": 1,
      "changeset": 110039236,
      "user": "AKOUETE",
      "uid": 4274094,
      "tags": {
        "amenity": "pub"
      }
    },
    {
      "type": "node",
      "id": 9045605541,
      "lat": 10.8652367,
      "lon": 0.2044347,
      "timestamp": "2021-08-29T18:21:38Z",
      "version": 1,
      "changeset": 110423355,
      "user": "zoubinnaba",
      "uid": 5113626,
      "tags": {
        "amenity": "pub",
        "name": "Bar bon Samaritain"
      }
    },
    {
      "type": "node",
      "id": 9074173877,
      "lat": 10.8555919,
      "lon": 0.1360216,
      "timestamp": "2021-09-08T15:19:00Z",
      "version": 1,
      "changeset": 110926625,
      "user": "AKOUETE",
      "uid": 4274094,
      "tags": {
        "amenity": "pub"
      }
    },
    {
      "type": "node",
      "id": 9137201836,
      "lat": 10.8623353,
      "lon": 0.2126994,
      "timestamp": "2021-10-01T09:18:18Z",
      "version": 1,
      "changeset": 111953585,
      "user": "AKE Amazan",
      "uid": 1586794,
      "tags": {
        "amenity": "pub",
        "name": "Maquis +225"
      }
    },
    {
      "type": "node",
      "id": 9139041940,
      "lat": 10.8634177,
      "lon": 0.2079847,
      "timestamp": "2021-10-01T23:23:39Z",
      "version": 1,
      "changeset": 111984849,
      "user": "AKOUETE",
      "uid": 4274094,
      "tags": {
        "amenity": "pub",
        "name": "Alaska"
      }
    },
    {
      "type": "node",
      "id": 9170641944,
      "lat": 10.8861541,
      "lon": 0.251954,
      "timestamp": "2021-10-13T23:02:36Z",
      "version": 1,
      "changeset": 112481787,
      "user": "zoubinnaba",
      "uid": 5113626,
      "tags": {
        "amenity": "pub",
        "name": "Bar Nataan man"
      }
    },
    {
      "type": "node",
      "id": 9179718674,
      "lat": 10.878943,
      "lon": 0.1958715,
      "timestamp": "2021-10-18T09:19:09Z",
      "version": 1,
      "changeset": 112643308,
      "user": "zoubinnaba",
      "uid": 5113626,
      "tags": {
        "amenity": "pub",
        "name": "Vendome City"
      }
    },
    {
      "type": "node",
      "id": 9208228233,
      "lat": 11.8848511,
      "lon": 1.86404,
      "timestamp": "2021-10-28T17:53:54Z",
      "version": 1,
      "changeset": 113092657,
      "user": "Manu Stefan",
      "uid": 3521219,
      "tags": {
        "amenity": "bar"
      }
    },
    {
      "type": "node",
      "id": 9244214396,
      "lat": 10.2558253,
      "lon": 0.8750373,
      "timestamp": "2021-11-11T18:48:56Z",
      "version": 1,
      "changeset": 113664723,
      "user": "AKOUETE",
      "uid": 4274094,
      "tags": {
        "amenity": "pub"
      }
    },
    {
      "type": "node",
      "id": 9273139354,
      "lat": 11.9551399,
      "lon": 8.5881224,
      "timestamp": "2021-11-21T21:26:33Z",
      "version": 1,
      "changeset": 114073784,
      "user": "Dylan Connor",
      "uid": 14499333,
      "tags": {
        "amenity": "bar"
      }
    },
    {
      "type": "node",
      "id": 9291311734,
      "lat": 11.9548305,
      "lon": 8.5866767,
      "timestamp": "2023-09-23T10:28:25Z",
      "version": 2,
      "changeset": 141637973,
      "user": "Mateusz Konieczny - bot account",
      "uid": 3199858,
      "tags": {
        "addr:city": "Kureken Sani",
        "addr:housenumber": "5",
        "addr:street": "grove st",
        "amenity": "bar",
        "brewery": "yes",
        "min_age": "21",
        "name": "bar and grille",
        "opening_hours": "Mo-Su 08:00-22:00"
      }
    },
    {
      "type": "node",
      "id": 9311434376,
      "lat": 10.8821594,
      "lon": 0.1996737,
      "timestamp": "2021-12-04T23:29:55Z",
      "version": 1,
      "changeset": 114568691,
      "user": "AKOUETE",
      "uid": 4274094,
      "tags": {
        "amenity": "pub"
      }
    },
    {
      "type": "node",
      "id": 9313201209,
      "lat": 10.8439537,
      "lon": 0.1996224,
      "timestamp": "2021-12-05T22:10:11Z",
      "version": 1,
      "changeset": 114596405,
      "user": "zoubinnaba",
      "uid": 5113626,
      "tags": {
        "amenity": "pub",
        "name": "Bar la destination"
      }
    },
    {
      "type": "node",
      "id": 9314798897,
      "lat": 10.8617294,
      "lon": 0.1854921,
      "timestamp": "2021-12-06T08:49:18Z",
      "version": 1,
      "changeset": 114608988,
      "user": "zoubinnaba",
      "uid": 5113626,
      "tags": {
        "amenity": "pub",
        "name": "Bar Kapokier"
      }
    },
    {
      "type": "node",
      "id": 9316086232,
      "lat": 10.866347,
      "lon": 0.2009699,
      "timestamp": "2021-12-06T18:15:45Z",
      "version": 1,
      "changeset": 114629330,
      "user": "zoubinnaba",
      "uid": 5113626,
      "tags": {
        "amenity": "pub",
        "name": "Bar oxygène"
      }
    },
    {
      "type": "node",
      "id": 9867383031,
      "lat": 11.9603177,
      "lon": 9.448949,
      "timestamp": "2024-09-06T14:56:12Z",
      "version": 2,
      "changeset": 156279423,
      "user": "CjMalone",
      "uid": 21425661,
      "tags": {
        "amenity": "bar"
      }
    },
    {
      "type": "node",
      "id": 9951325818,
      "lat": 13.4996845,
      "lon": 2.1531508,
      "timestamp": "2022-08-13T17:56:35Z",
      "version": 1,
      "changeset": 124862822,
      "user": "Habibou ali",
      "uid": 16825138,
      "tags": {
        "amenity": "bar"
      }
    },
    {
      "type": "node",
      "id": 9951325917,
      "lat": 13.5002007,
      "lon": 2.1527783,
      "timestamp": "2022-08-13T17:53:40Z",
      "version": 1,
      "changeset": 124862718,
      "user": "Habibou ali",
      "uid": 16825138,
      "tags": {
        "amenity": "bar"
      }
    },
    {
      "type": "node",
      "id": 9951326317,
      "lat": 13.499692,
      "lon": 2.1531578,
      "timestamp": "2022-08-13T17:54:10Z",
      "version": 1,
      "changeset": 124862732,
      "user": "Habibou ali",
      "uid": 16825138,
      "tags": {
        "amenity": "bar"
      }
    },
    {
      "type": "node",
      "id": 10002573159,
      "lat": 10.89664,
      "lon": 0.1890818,
      "timestamp": "2023-01-25T10:50:26Z",
      "version": 2,
      "changeset": 131689409,
      "user": "zoubinnaba",
      "uid": 5113626,
      "tags": {
        "amenity": "pub",
        "name": "Bar 2 Manguier"
      }
    },
    {
      "type": "node",
      "id": 10053194978,
      "lat": 10.3442894,
      "lon": 2.3831653,
      "timestamp": "2022-09-26T08:58:23Z",
      "version": 1,
      "changeset": 126644796,
      "user": "saliousoft",
      "uid": 1717441,
      "tags": {
        "amenity": "pub",
        "name": "Barman"
      }
    },
    {
      "type": "node",
      "id": 10076578974,
      "lat": 12.2192423,
      "lon": 9.4390377,
      "timestamp": "2022-10-05T09:34:51Z",
      "version": 1,
      "changeset": 127038085,
      "user": "NESP_II_businesses_and_facilities_Import",
      "uid": 15064243,
      "tags": {
        "amenity": "bar",
        "source": "nigeriase4all.gov.ng",
        "source:date": "2022"
      }
    },
    {
      "type": "node",
      "id": 10101428544,
      "lat": 10.0127416,
      "lon": 8.6805135,
      "timestamp": "2022-10-14T15:41:53Z",
      "version": 1,
      "changeset": 127532601,
      "user": "NESP_II_businesses_and_facilities_Import",
      "uid": 15064243,
      "tags": {
        "amenity": "bar",
        "source": "nigeriase4all.gov.ng",
        "source:date": "2022"
      }
    },
    {
      "type": "node",
      "id": 10101428559,
      "lat": 10.012955,
      "lon": 8.6806631,
      "timestamp": "2022-10-14T15:41:53Z",
      "version": 1,
      "changeset": 127532601,
      "user": "NESP_II_businesses_and_facilities_Import",
      "uid": 15064243,
      "tags": {
        "amenity": "bar",
        "source": "nigeriase4all.gov.ng",
        "source:date": "2022"
      }
    },
    {
      "type": "node",
      "id": 10173496958,
      "lat": 12.5572379,
      "lon": 9.111577,
      "timestamp": "2022-11-10T12:35:20Z",
      "version": 1,
      "changeset": 128732010,
      "user": "NESP_II_businesses_and_facilities_Import",
      "uid": 15064243,
      "tags": {
        "amenity": "bar",
        "source": "nigeriase4all.gov.ng",
        "source:date": "2022"
      }
    },
    {
      "type": "node",
      "id": 10173524724,
      "lat": 12.0069217,
      "lon": 9.6813716,
      "timestamp": "2022-11-10T12:43:12Z",
      "version": 1,
      "changeset": 128732305,
      "user": "NESP_II_businesses_and_facilities_Import",
      "uid": 15064243,
      "tags": {
        "amenity": "bar",
        "source": "nigeriase4all.gov.ng",
        "source:date": "2022"
      }
    },
    {
      "type": "node",
      "id": 10196703270,
      "lat": 14.0107772,
      "lon": 0.7514368,
      "timestamp": "2022-11-17T09:59:41Z",
      "version": 1,
      "changeset": 129032161,
      "user": "Hamadou Soumana",
      "uid": 6783211,
      "tags": {
        "amenity": "bar",
        "name": "Bar Campement Téra"
      }
    },
    {
      "type": "node",
      "id": 10211817149,
      "lat": 14.0049003,
      "lon": 0.7558718,
      "timestamp": "2022-11-23T11:25:35Z",
      "version": 1,
      "changeset": 129277807,
      "user": "Hamadou Soumana",
      "uid": 6783211,
      "tags": {
        "amenity": "bar",
        "name": "Bar Arboudji"
      }
    },
    {
      "type": "node",
      "id": 10211823865,
      "lat": 14.0050221,
      "lon": 0.7555926,
      "timestamp": "2022-11-23T11:24:55Z",
      "version": 1,
      "changeset": 129277780,
      "user": "Hamadou Soumana",
      "uid": 6783211,
      "tags": {
        "amenity": "bar",
        "name": "Tina Bar"
      }
    },
    {
      "type": "node",
      "id": 10577361595,
      "lat": 10.8836626,
      "lon": 0.1901101,
      "timestamp": "2023-01-23T18:41:35Z",
      "version": 1,
      "changeset": 131620258,
      "user": "Badabaracine",
      "uid": 18346709,
      "tags": {
        "amenity": "pub",
        "name": "BAR RESTO PARADISSO"
      }
    },
    {
      "type": "node",
      "id": 10754680238,
      "lat": 13.494308,
      "lon": 2.1214825,
      "timestamp": "2023-12-20T10:50:13Z",
      "version": 2,
      "changeset": 145325823,
      "user": "ilasolthah",
      "uid": 1857950,
      "tags": {
        "amenity": "bar",
        "name": "Cercle Messe des Armées"
      }
    },
    {
      "type": "node",
      "id": 10957424675,
      "lat": 10.684071,
      "lon": 0.0390696,
      "timestamp": "2023-06-05T12:38:15Z",
      "version": 1,
      "changeset": 136970859,
      "user": "zoubinnaba",
      "uid": 5113626,
      "tags": {
        "amenity": "bar"
      }
    },
    {
      "type": "node",
      "id": 10960291105,
      "lat": 10.3171166,
      "lon": 1.3773238,
      "timestamp": "2023-06-06T19:41:49Z",
      "version": 1,
      "changeset": 137029145,
      "user": "dromwill",
      "uid": 11603712,
      "tags": {
        "amenity": "bar",
        "name": "AYELAWADJE"
      }
    },
    {
      "type": "node",
      "id": 10963211282,
      "lat": 13.4956419,
      "lon": 2.1243209,
      "timestamp": "2023-06-08T09:58:43Z",
      "version": 1,
      "changeset": 137089614,
      "user": "abarchi",
      "uid": 6783207,
      "tags": {
        "amenity": "pub",
        "name": "Bar",
        "opening_hours": "Mo-Su 08:00-04:00"
      }
    },
    {
      "type": "node",
      "id": 10970673433,
      "lat": 13.5248447,
      "lon": 2.1223073,
      "timestamp": "2023-06-12T09:41:14Z",
      "version": 1,
      "changeset": 137236419,
      "user": "ilasolthah",
      "uid": 1857950,
      "tags": {
        "amenity": "pub",
        "name": "Bar Restaurant Tropicana"
      }
    },
    {
      "type": "node",
      "id": 10997121528,
      "lat": 13.5088572,
      "lon": 2.1182783,
      "timestamp": "2023-06-22T11:16:29Z",
      "version": 1,
      "changeset": 137643250,
      "user": "Cartographe_volontaire",
      "uid": 17674002,
      "tags": {
        "amenity": "pub",
        "name": "Maquis Max Co"
      }
    },
    {
      "type": "node",
      "id": 11010180626,
      "lat": 10.2925167,
      "lon": 9.7919092,
      "timestamp": "2023-06-28T08:12:28Z",
      "version": 2,
      "changeset": 137866923,
      "user": "SpatialXplora",
      "uid": 16025904,
      "tags": {
        "amenity": "pub",
        "check_date": "2023-06-28",
        "name": "Dee Zuzz Garden",
        "outdoor_seating": "yes",
        "source": "local knowledge"
      }
    },
    {
      "type": "node",
      "id": 11010238561,
      "lat": 10.2720378,
      "lon": 9.7967638,
      "timestamp": "2023-06-27T12:35:05Z",
      "version": 1,
      "changeset": 137834087,
      "user": "SpatialXplora",
      "uid": 16025904,
      "tags": {
        "amenity": "pub",
        "check_date": "2023-06-27",
        "name": "Ambassador",
        "smoking": "separated"
      }
    },
    {
      "type": "node",
      "id": 11012857399,
      "lat": 13.5102404,
      "lon": 2.1037164,
      "timestamp": "2023-06-28T19:16:34Z",
      "version": 1,
      "changeset": 137892002,
      "user": "ilasolthah",
      "uid": 1857950,
      "tags": {
        "amenity": "pub",
        "name": "Concept Bar"
      }
    },
    {
      "type": "node",
      "id": 11012959220,
      "lat": 10.3137484,
      "lon": 9.8012612,
      "timestamp": "2023-06-28T20:29:59Z",
      "version": 1,
      "changeset": 137894307,
      "user": "SpatialXplora",
      "uid": 16025904,
      "tags": {
        "amenity": "pub",
        "check_date": "2023-06-28",
        "name": "Police Officers Mess"
      }
    },
    {
      "type": "node",
      "id": 11013558985,
      "lat": 10.2598465,
      "lon": 9.7805128,
      "timestamp": "2023-06-29T08:00:52Z",
      "version": 1,
      "changeset": 137907361,
      "user": "SpatialXplora",
      "uid": 16025904,
      "tags": {
        "amenity": "pub",
        "brewery": "various",
        "check_date": "2023-06-29",
        "cuisine": "regional",
        "diet:local": "yes",
        "internet_access": "no",
        "min_age": "18",
        "name": "Bubees",
        "outdoor_seating": "yes",
        "payment:mastercard": "yes",
        "payment:visa": "yes",
        "smoking": "yes",
        "source": "local knowledge"
      }
    },
    {
      "type": "node",
      "id": 11013558986,
      "lat": 10.2604215,
      "lon": 9.7795914,
      "timestamp": "2023-06-29T08:00:52Z",
      "version": 1,
      "changeset": 137907361,
      "user": "SpatialXplora",
      "uid": 16025904,
      "tags": {
        "amenity": "pub",
        "brewery": "various",
        "check_date": "2023-06-29",
        "cuisine": "regional",
        "diet:local": "yes",
        "min_age": "18",
        "name": "New Trafford",
        "outdoor_seating": "yes",
        "payment:mastercard": "yes",
        "payment:visa": "yes",
        "smoking": "yes",
        "source": "local knowledge"
      }
    },
    {
      "type": "node",
      "id": 11013588376,
      "lat": 10.3312279,
      "lon": 9.8148317,
      "timestamp": "2023-06-29T08:17:30Z",
      "version": 1,
      "changeset": 137907831,
      "user": "SpatialXplora",
      "uid": 16025904,
      "tags": {
        "amenity": "pub",
        "brewery": "various",
        "check_date": "2023-06-29",
        "name": "Sergent Mess",
        "outdoor_seating": "no",
        "smoking": "outside",
        "source": "local knowledge",
        "wheelchair": "yes"
      }
    },
    {
      "type": "node",
      "id": 11034579536,
      "lat": 10.2857883,
      "lon": 9.7849249,
      "timestamp": "2023-07-08T18:24:39Z",
      "version": 1,
      "changeset": 138273287,
      "user": "SpatialXplora",
      "uid": 16025904,
      "tags": {
        "air_conditioning": "no",
        "amenity": "bar",
        "check_date": "2023-07-08",
        "internet_access": "no",
        "microbrewery": "yes",
        "smoking": "yes",
        "source": "local knowledge"
      }
    },
    {
      "type": "node",
      "id": 11046514636,
      "lat": 13.518239,
      "lon": 2.145291,
      "timestamp": "2023-07-14T12:43:15Z",
      "version": 1,
      "changeset": 138506502,
      "user": "Souleymane Maman Nouri Souley",
      "uid": 15119588,
      "tags": {
        "addr:street": "Rue des lutteurs",
        "amenity": "pub",
        "name": "Bar G8"
      }
    },
    {
      "type": "node",
      "id": 11330096381,
      "lat": 10.3388279,
      "lon": 0.4692945,
      "timestamp": "2023-11-06T22:56:56Z",
      "version": 1,
      "changeset": 143712975,
      "user": "hermann106",
      "uid": 632960,
      "tags": {
        "amenity": "pub"
      }
    },
    {
      "type": "node",
      "id": 11348301134,
      "lat": 11.6379928,
      "lon": 1.6665973,
      "timestamp": "2023-11-14T11:50:26Z",
      "version": 1,
      "changeset": 144007132,
      "user": "Manu Stefan",
      "uid": 3521219,
      "tags": {
        "amenity": "bar"
      }
    },
    {
      "type": "node",
      "id": 11349518069,
      "lat": 11.1231749,
      "lon": 2.9258542,
      "timestamp": "2023-11-14T19:50:24Z",
      "version": 1,
      "changeset": 144024301,
      "user": "dromwill",
      "uid": 11603712,
      "tags": {
        "amenity": "bar",
        "name": "TABERA"
      }
    },
    {
      "type": "node",
      "id": 11640673172,
      "lat": 13.525392,
      "lon": 2.0982941,
      "timestamp": "2024-02-19T11:06:58Z",
      "version": 1,
      "changeset": 147644954,
      "user": "ilasolthah",
      "uid": 1857950,
      "tags": {
        "amenity": "pub",
        "name": "Code Bar"
      }
    },
    {
      "type": "node",
      "id": 12994626657,
      "lat": 10.2718704,
      "lon": 9.8009164,
      "timestamp": "2025-07-11T18:02:32Z",
      "version": 1,
      "changeset": 168808751,
      "user": "SpatialXplora",
      "uid": 16025904,
      "tags": {
        "amenity": "bar",
        "check_date": "2025-07-11",
        "name": "Hommie"
      }
    },
    {
      "type": "way",
      "id": 361437019,
      "timestamp": "2019-07-02T14:42:20Z",
      "version": 2,
      "changeset": 71825110,
      "user": "theyerl",
      "uid": 10125219,
      "center": {
        "lat": 10.3473723,
        "lon": 3.145798
      },
      "nodes": [
        3659116237,
        3659116238,
        3659116239,
        3659116240,
        3659116237
      ],
      "tags": {
        "amenity": "bar",
        "brewery": "no",
        "building": "yes",
        "outdoor_seating": "yes"
      }
    },
    {
      "type": "way",
      "id": 399591454,
      "timestamp": "2016-02-28T11:53:26Z",
      "version": 2,
      "changeset": 37497019,
      "user": "nomisonson",
      "uid": 2448570,
      "center": {
        "lat": 13.5201661,
        "lon": 2.074435
      },
      "nodes": [
        4023158283,
        4023158284,
        4023158285,
        4031107939,
        4031107938,
        4023158286,
        4023158283
      ],
      "tags": {
        "amenity": "bar",
        "building": "yes",
        "name": "Cap Banga",
        "source": "bing",
        "website": "https://www.facebook.com/capbanga/"
      }
    },
    {
      "type": "way",
      "id": 445761264,
      "timestamp": "2016-10-04T18:23:12Z",
      "version": 1,
      "changeset": 42638585,
      "user": "GraceLois7",
      "uid": 3312182,
      "center": {
        "lat": 10.8361878,
        "lon": 2.8338507
      },
      "nodes": [
        4431297264,
        4431297265,
        4431297266,
        4431297267,
        4431297264
      ],
      "tags": {
        "amenity": "bar",
        "building": "yes"
      }
    },
    {
      "type": "way",
      "id": 488029941,
      "timestamp": "2017-04-19T15:01:45Z",
      "version": 1,
      "changeset": 47942292,
      "user": "BrenFlanigan",
      "uid": 5697288,
      "center": {
        "lat": 10.2941984,
        "lon": 1.3861428
      },
      "nodes": [
        4803981197,
        4803981198,
        4803981199,
        4803981200,
        4803981201,
        4803981197
      ],
      "tags": {
        "amenity": "bar",
        "building": "yes",
        "name": "Le Basilic",
        "outdoor_seating": "yes"
      }
    },
    {
      "type": "way",
      "id": 499187432,
      "timestamp": "2017-06-08T22:59:42Z",
      "version": 1,
      "changeset": 49382041,
      "user": "Clara Y",
      "uid": 5022738,
      "center": {
        "lat": 10.2967749,
        "lon": 1.3805338
      },
      "nodes": [
        4904960856,
        4904960857,
        4904960858,
        4904960859,
        4904960856
      ],
      "tags": {
        "amenity": "bar",
        "building": "yes",
        "description": "Cocktails bar, live music, nice garden",
        "name": "Perle Noire",
        "operator": "Roy",
        "outdoor_seating": "yes",
        "phone": "+22962230945",
        "smoking": "outside"
      }
    },
    {
      "type": "way",
      "id": 542267551,
      "timestamp": "2017-11-22T14:29:06Z",
      "version": 1,
      "changeset": 54002808,
      "user": "Adrien1341",
      "uid": 6944322,
      "center": {
        "lat": 12.0559702,
        "lon": 0.3629162
      },
      "nodes": [
        5242790705,
        5242790706,
        5242790707,
        5242790708,
        5242790709,
        5242790710,
        5242790711,
        5242790712,
        5242790705
      ],
      "tags": {
        "amenity": "bar",
        "building": "yes",
        "name": "Calypso"
      }
    },
    {
      "type": "way",
      "id": 554821548,
      "timestamp": "2018-01-22T09:13:54Z",
      "version": 1,
      "changeset": 55648823,
      "user": "Adrien1341",
      "uid": 6944322,
      "center": {
        "lat": 12.0588648,
        "lon": 0.3651821
      },
      "nodes": [
        5354181848,
        5354181849,
        5354181850,
        5354181851,
        5354181848
      ],
      "tags": {
        "amenity": "bar",
        "building": "yes"
      }
    },
    {
      "type": "way",
      "id": 918748653,
      "timestamp": "2021-03-18T15:00:50Z",
      "version": 1,
      "changeset": 101268693,
      "user": "luciavp",
      "uid": 12868095,
      "center": {
        "lat": 13.5207445,
        "lon": 2.1366032
      },
      "nodes": [
        8532658527,
        8532658528,
        8532658529,
        8532658530,
        8532658527
      ],
      "tags": {
        "addr:city": "Niamey",
        "addr:street": "Boulevard Mali Bero",
        "amenity": "bar",
        "building": "yes"
      }
    }
  ]
}