{
  "version": 0.6,
  "generator": "Overpass API 0.7.62.8 e802775f",
  "osm3s": {
    "timestamp_osm_base": "2025-10-23T19:53:23Z",
    "copyright": "The data included in this document is from www.openstreetmap.org. The data is made available under ODbL."
  },
  "elements": [
    {
      "type": "node",
      "id": 658718685,
      "lat": 7.1361749,
      "lon": 80.1018563,
      "timestamp": "2010-03-01T19:48:21Z",
      "version": 2,
      "changeset": 4011637,
      "user": "PFD",
      "uid": 231305,
      "tags": {
        "amenity": "pub",
        "name": "Wathupitiwala Wine Stores",
        "opening_hours": "Mo-Fr 09:00-21:00"
      }
    },
    {
      "type": "node",
      "id": 1105822201,
      "lat": 6.87315,
      "lon": 81.04905,
      "timestamp": "2019-02-06T08:23:32Z",
      "version": 2,
      "changeset": 66956690,
      "user": "ilf",
      "uid": 261437,
      "tags": {
        "amenity": "pub",
        "name": "Ella Chop House"
      }
    },
    {
      "type": "node",
      "id": 1244065805,
      "lat": 6.1278938,
      "lon": 80.1046328,
      "timestamp": "2022-05-19T07:08:57Z",
      "version": 4,
      "changeset": 121178217,
      "user": "b-jazz-bot",
      "uid": 9451067,
      "tags": {
        "addr:housenumber": "434/3",
        "addr:street": "Galle Road",
        "amenity": "bar",
        "description": "-Surf Information -Secret Surf Tours - islandwide -Surf school -Surfboards for rent -Surfboard repairing -Accommodation and food -Transfer to/from airport -24 hour service -Wi-Fi free",
        "name": "Mambo's Surf Tours",
        "phone": "0094 915 4581312",
        "website": "https://mambo.nu/"
      }
    },
    {
      "type": "node",
      "id": 1562840855,
      "lat": 7.2931732,
      "lon": 80.6381512,
      "timestamp": "2023-06-28T07:01:34Z",
      "version": 5,
      "changeset": 137864291,
      "user": "gemsquash",
      "uid": 503169,
      "tags": {
        "addr:city": "Kandy",
        "addr:street": "Sri Dalada Veediya",
        "amenity": "pub",
        "name": "Queen's Pub"
      }
    },
    {
      "type": "node",
      "id": 1675272384,
      "lat": 6.4186706,
      "lon": 80.0024039,
      "timestamp": "2016-07-27T06:54:01Z",
      "version": 3,
      "changeset": 41054626,
      "user": "udayadmcgis",
      "uid": 4325318,
      "tags": {
        "amenity": "bar",
        "name": "Wine stores"
      }
    },
    {
      "type": "node",
      "id": 1837443840,
      "lat": 7.2952083,
      "lon": 80.6375052,
      "timestamp": "2021-04-11T19:36:40Z",
      "version": 4,
      "changeset": 102754074,
      "user": "rmeegama",
      "uid": 12931618,
      "tags": {
        "addr:city": "Kandy",
        "addr:street": "Raja Veediya",
        "amenity": "pub",
        "name": "Royal Bar",
        "tourism": "hotel"
      }
    },
    {
      "type": "node",
      "id": 1874238667,
      "lat": 6.8440553,
      "lon": 81.8315907,
      "timestamp": "2016-10-25T03:14:13Z",
      "version": 2,
      "changeset": 43147081,
      "user": "harendra_7",
      "uid": 611295,
      "tags": {
        "addr:city": "Arugam Bay",
        "addr:street": "Potuvil - Panama Road",
        "amenity": "bar",
        "name": "Lucky"
      }
    },
    {
      "type": "node",
      "id": 1980746754,
      "lat": 6.0410903,
      "lon": 80.2130096,
      "timestamp": "2017-10-22T18:05:53Z",
      "version": 2,
      "changeset": 53158073,
      "user": "Matt1984IIIIIIII",
      "uid": 6836803,
      "tags": {
        "amenity": "bar",
        "name": "Prince"
      }
    },
    {
      "type": "node",
      "id": 2096590926,
      "lat": 6.1289174,
      "lon": 80.1029085,
      "timestamp": "2014-12-22T09:29:57Z",
      "version": 2,
      "changeset": 27625976,
      "user": "harendra_7",
      "uid": 611295,
      "tags": {
        "addr:city": "Hikkaduwa",
        "amenity": "bar",
        "name": "Paradiso Cocktail Bar"
      }
    },
    {
      "type": "node",
      "id": 2096590958,
      "lat": 6.1266368,
      "lon": 80.106555,
      "timestamp": "2016-04-06T10:46:46Z",
      "version": 3,
      "changeset": 38347379,
      "user": "muperman",
      "uid": 3785439,
      "tags": {
        "addr:city": "Hikkaduwa",
        "amenity": "bar",
        "name": "Vibration"
      }
    },
    {
      "type": "node",
      "id": 2370163482,
      "lat": 6.0368491,
      "lon": 80.3916905,
      "timestamp": "2015-04-28T10:37:13Z",
      "version": 2,
      "changeset": 30576560,
      "user": "Thilina",
      "uid": 746498,
      "tags": {
        "amenity": "bar",
        "name": "Bar"
      }
    },
    {
      "type": "node",
      "id": 2611894654,
      "lat": 5.9994865,
      "lon": 80.2647979,
      "timestamp": "2014-09-13T05:18:04Z",
      "version": 2,
      "changeset": 25404122,
      "user": "harendra_7",
      "uid": 611295,
      "tags": {
        "addr:street": "Galle Road",
        "amenity": "bar",
        "name": "Fresh Coconut Bar"
      }
    },
    {
      "type": "node",
      "id": 2722414080,
      "lat": 6.0097505,
      "lon": 80.2470098,
      "timestamp": "2014-03-16T23:29:02Z",
      "version": 2,
      "changeset": 21146863,
      "user": "wohnung058",
      "uid": 912433,
      "tags": {
        "amenity": "bar",
        "name": "Chili Cafe"
      }
    },
    {
      "type": "node",
      "id": 2739101634,
      "lat": 9.3136579,
      "lon": 80.6957829,
      "timestamp": "2014-03-24T10:16:04Z",
      "version": 1,
      "changeset": 21281283,
      "user": "piravin",
      "uid": 1999711,
      "tags": {
        "amenity": "bar"
      }
    },
    {
      "type": "node",
      "id": 2838994204,
      "lat": 7.9107831,
      "lon": 80.9984767,
      "timestamp": "2014-05-06T07:36:38Z",
      "version": 1,
      "changeset": 22160653,
      "user": "Johan Perera",
      "uid": 2050391,
      "tags": {
        "amenity": "bar"
      }
    },
    {
      "type": "node",
      "id": 2916782449,
      "lat": 6.8785448,
      "lon": 80.9425475,
      "timestamp": "2014-06-15T03:19:28Z",
      "version": 1,
      "changeset": 22936803,
      "user": "Aruna Devapriya Gunasinghe",
      "uid": 2104907,
      "tags": {
        "amenity": "bar"
      }
    },
    {
      "type": "node",
      "id": 3345515413,
      "lat": 8.5678731,
      "lon": 81.2338721,
      "timestamp": "2024-01-18T08:09:40Z",
      "version": 3,
      "changeset": 146394014,
      "user": "ridrefervfesge",
      "uid": 20836692,
      "tags": {
        "addr:street": "Post Office Road",
        "amenity": "bar",
        "name": "Post Office Junction Wine Stores"
      }
    },
    {
      "type": "node",
      "id": 3393540084,
      "lat": 6.9745272,
      "lon": 80.7666794,
      "timestamp": "2024-08-29T20:21:45Z",
      "version": 2,
      "changeset": 155946334,
      "user": "heilbron",
      "uid": 78613,
      "tags": {
        "addr:city": "Nuwara Eliya",
        "amenity": "bar",
        "indoor_seating": "yes",
        "name": "Lion Pub",
        "outdoor_seating": "no"
      }
    },
    {
      "type": "node",
      "id": 3530303155,
      "lat": 9.311055,
      "lon": 80.1582511,
      "timestamp": "2016-12-20T00:51:25Z",
      "version": 2,
      "changeset": 44529395,
      "user": "Arungkaran",
      "uid": 3417920,
      "tags": {
        "amenity": "bar",
        "int_name": "கள்ளுத் தவறணை",
        "name": "Toddy Tavern",
        "source": "http://www.panoramio.com/photo/92571714"
      }
    },
    {
      "type": "node",
      "id": 3539480188,
      "lat": 9.4408465,
      "lon": 80.4073279,
      "timestamp": "2015-06-06T03:17:52Z",
      "version": 2,
      "changeset": 31759604,
      "user": "Umapathy",
      "uid": 52980,
      "tags": {
        "alt_name": "கள்ளுத் தவறணை",
        "amenity": "bar",
        "name": "Toddy Traven"
      }
    },
    {
      "type": "node",
      "id": 3555248116,
      "lat": 9.661968,
      "lon": 80.0441946,
      "timestamp": "2016-08-28T17:40:30Z",
      "version": 2,
      "changeset": 41760850,
      "user": "Arungkaran",
      "uid": 3417920,
      "tags": {
        "amenity": "bar",
        "name": "Toddy Taren",
        "name:en": "Toddy Tavern"
      }
    },
    {
      "type": "node",
      "id": 3621446521,
      "lat": 5.9569286,
      "lon": 80.5287645,
      "timestamp": "2023-06-26T05:18:19Z",
      "version": 2,
      "changeset": 137773981,
      "user": "Nuwangi",
      "uid": 19317857,
      "tags": {
        "amenity": "bar",
        "name": "Neel the Wine"
      }
    },
    {
      "type": "node",
      "id": 3730130064,
      "lat": 6.9876577,
      "lon": 80.0138408,
      "timestamp": "2015-09-05T05:22:36Z",
      "version": 1,
      "changeset": 33808208,
      "user": "Mr-psg",
      "uid": 3166580,
      "tags": {
        "addr:city": "Delgoda WP",
        "addr:street": "New Kandy Rd",
        "amenity": "bar",
        "name": "Namaluwa Wine store"
      }
    },
    {
      "type": "node",
      "id": 3731590340,
      "lat": 7.2717638,
      "lon": 80.0939474,
      "timestamp": "2015-09-06T12:51:43Z",
      "version": 1,
      "changeset": 33832152,
      "user": "kawmaniewasantha",
      "uid": 3184788,
      "tags": {
        "amenity": "bar"
      }
    },
    {
      "type": "node",
      "id": 3737292492,
      "lat": 7.1088601,
      "lon": 80.0475694,
      "timestamp": "2020-06-15T08:16:04Z",
      "version": 2,
      "changeset": 86655506,
      "user": "SL_Mapper",
      "uid": 5614912,
      "tags": {
        "addr:street": "Colombo-Kandy Road",
        "amenity": "bar",
        "name": "Montecarlo Wine Stores"
      }
    },
    {
      "type": "node",
      "id": 3753609155,
      "lat": 8.7556829,
      "lon": 80.4923524,
      "timestamp": "2015-09-21T23:00:30Z",
      "version": 1,
      "changeset": 34172413,
      "user": "Umapathy",
      "uid": 52980,
      "tags": {
        "amenity": "bar",
        "name": "Empire Hotel"
      }
    },
    {
      "type": "node",
      "id": 3876667412,
      "lat": 9.6685357,
      "lon": 80.0110548,
      "timestamp": "2015-12-04T17:27:00Z",
      "version": 1,
      "changeset": 35752457,
      "user": "Arungkaran",
      "uid": 3417920,
      "tags": {
        "amenity": "bar",
        "name": "Colombo Bar"
      }
    },
    {
      "type": "node",
      "id": 3956850606,
      "lat": 9.0631927,
      "lon": 80.6618725,
      "timestamp": "2016-03-04T17:49:32Z",
      "version": 3,
      "changeset": 37612546,
      "user": "Umapathy",
      "uid": 52980,
      "tags": {
        "amenity": "bar",
        "name": "Toddy Traven",
        "name:ta": "கள்ளுத் தவறணை",
        "shop": "bar"
      }
    },
    {
      "type": "node",
      "id": 3998690672,
      "lat": 7.4892842,
      "lon": 80.3649915,
      "timestamp": "2016-02-10T08:40:25Z",
      "version": 1,
      "changeset": 37119405,
      "user": "Sherief M I",
      "uid": 3587054,
      "tags": {
        "amenity": "bar",
        "name": "Buvaneka Hotel"
      }
    },
    {
      "type": "node",
      "id": 4059268978,
      "lat": 6.7300797,
      "lon": 80.099729,
      "timestamp": "2021-01-01T10:13:58Z",
      "version": 3,
      "changeset": 96763867,
      "user": "davidfaure_bot",
      "uid": 12169583,
      "tags": {
        "addr:city": "Gurugoda",
        "addr:street": "Rathanpura - Panadura Road",
        "amenity": "bar",
        "name": "Dhi Rest",
        "opening_hours": "09:00-22:00"
      }
    },
    {
      "type": "node",
      "id": 4102115202,
      "lat": 6.126003,
      "lon": 80.1060803,
      "timestamp": "2022-04-15T19:14:16Z",
      "version": 2,
      "changeset": 119762805,
      "user": "Сашалексо",
      "uid": 15590627,
      "tags": {
        "amenity": "bar",
        "name": "Funky de Bar",
        "name:ru": "прикольный бар,найти отель seething,рядом черепашья ферма"
      }
    },
    {
      "type": "node",
      "id": 4109825031,
      "lat": 9.6048987,
      "lon": 80.3351505,
      "timestamp": "2016-08-29T01:15:51Z",
      "version": 2,
      "changeset": 41767119,
      "user": "Arungkaran",
      "uid": 3417920,
      "tags": {
        "amenity": "bar",
        "name": "Toddy Traveen",
        "name:en": "Toddy Tavern"
      }
    },
    {
      "type": "node",
      "id": 4167484189,
      "lat": 6.1236518,
      "lon": 80.110602,
      "timestamp": "2016-12-18T11:04:46Z",
      "version": 2,
      "changeset": 44488037,
      "user": "Scrup",
      "uid": 378737,
      "tags": {
        "amenity": "bar",
        "internet_access": "wlan",
        "name": "Joint"
      }
    },
    {
      "type": "node",
      "id": 4275499390,
      "lat": 6.941127,
      "lon": 80.7441998,
      "timestamp": "2022-12-01T05:55:05Z",
      "version": 2,
      "changeset": 129586645,
      "user": "Chandrakalapc63",
      "uid": 17514208,
      "tags": {
        "amenity": "bar",
        "name": "Nanuoya Local Bar & Restaurant"
      }
    },
    {
      "type": "node",
      "id": 4350790402,
      "lat": 7.0760382,
      "lon": 80.0469041,
      "timestamp": "2016-08-15T10:03:24Z",
      "version": 1,
      "changeset": 41464248,
      "user": "Chamod Dissanayake",
      "uid": 4423425,
      "tags": {
        "amenity": "pub",
        "name": "Udumbara caters"
      }
    },
    {
      "type": "node",
      "id": 4370682687,
      "lat": 9.6649099,
      "lon": 80.0239703,
      "timestamp": "2025-10-12T18:44:15Z",
      "version": 4,
      "changeset": 173195160,
      "user": "o_s_m_app_er",
      "uid": 1175301,
      "tags": {
        "amenity": "bar",
        "name": "Seven Eleven Recreation Club"
      }
    },
    {
      "type": "node",
      "id": 4393415890,
      "lat": 6.8392489,
      "lon": 81.8356381,
      "timestamp": "2016-10-25T03:14:11Z",
      "version": 2,
      "changeset": 43147081,
      "user": "harendra_7",
      "uid": 611295,
      "tags": {
        "addr:city": "Arugam Bay",
        "amenity": "bar",
        "name": "Siripala's Place",
        "name:en": "Siripala's Place",
        "phone": "+94 77 775 7450"
      }
    },
    {
      "type": "node",
      "id": 4443541016,
      "lat": 6.8359096,
      "lon": 80.5714688,
      "timestamp": "2017-07-30T16:47:34Z",
      "version": 2,
      "changeset": 50698159,
      "user": "SL_Mapper",
      "uid": 5614912,
      "tags": {
        "addr:city": "Maskeliya",
        "amenity": "bar",
        "name": "Maskeliya Liquor Shop"
      }
    },
    {
      "type": "node",
      "id": 4451079498,
      "lat": 7.120668,
      "lon": 80.11614,
      "timestamp": "2016-10-17T00:05:09Z",
      "version": 1,
      "changeset": 42947888,
      "user": "Chamod Dissanayake",
      "uid": 4423425,
      "tags": {
        "amenity": "bar"
      }
    },
    {
      "type": "node",
      "id": 4464207388,
      "lat": 6.8740624,
      "lon": 81.0486124,
      "timestamp": "2018-05-04T17:01:42Z",
      "version": 2,
      "changeset": 58685520,
      "user": "A_Ku",
      "uid": 3423733,
      "tags": {
        "addr:city": "Ella",
        "amenity": "pub",
        "name": "wineshop",
        "shop": "alcohol"
      }
    },
    {
      "type": "node",
      "id": 4722331289,
      "lat": 8.6133776,
      "lon": 81.2180523,
      "timestamp": "2020-07-10T12:49:12Z",
      "version": 2,
      "changeset": 87818081,
      "user": "mbethke",
      "uid": 248338,
      "tags": {
        "addr:street": "Alles Garden",
        "amenity": "bar",
        "name": "Aqua Restaurant and Bar",
        "opening_hours": "Mo-Su 10:00-22:00"
      }
    },
    {
      "type": "node",
      "id": 4933606248,
      "lat": 7.7573599,
      "lon": 80.5695714,
      "timestamp": "2017-06-24T06:29:43Z",
      "version": 1,
      "changeset": 49787273,
      "user": "Mr-psg",
      "uid": 3166580,
      "tags": {
        "addr:city": "Galewela",
        "addr:street": "Kurunegala-Dambulla Road",
        "amenity": "bar",
        "name": "Ashoka Sports club & Bar"
      }
    },
    {
      "type": "node",
      "id": 5030945121,
      "lat": 6.237579,
      "lon": 80.0501581,
      "timestamp": "2017-08-12T18:05:52Z",
      "version": 1,
      "changeset": 51064502,
      "user": "Вячеслав Мелихов",
      "uid": 6472602,
      "tags": {
        "amenity": "bar",
        "cuisine": "asian;indian;chinese;coffee_shop;seafood;fish_and_chips",
        "name:en": "Green line bar"
      }
    },
    {
      "type": "node",
      "id": 5057923224,
      "lat": 6.5754214,
      "lon": 80.0087616,
      "timestamp": "2017-08-25T10:04:00Z",
      "version": 1,
      "changeset": 51429432,
      "user": "Herbert Ratnayake",
      "uid": 6543534,
      "tags": {
        "amenity": "bar",
        "name:en": "Kalutara"
      }
    },
    {
      "type": "node",
      "id": 5172840523,
      "lat": 8.6141811,
      "lon": 81.215923,
      "timestamp": "2020-07-10T12:49:12Z",
      "version": 4,
      "changeset": 87818081,
      "user": "mbethke",
      "uid": 248338,
      "tags": {
        "amenity": "bar",
        "name": "Becool Juice Bar"
      }
    },
    {
      "type": "node",
      "id": 5216406261,
      "lat": 9.648646,
      "lon": 80.0301969,
      "timestamp": "2017-11-07T16:05:02Z",
      "version": 1,
      "changeset": 53585244,
      "user": "bjung95",
      "uid": 6945119,
      "tags": {
        "amenity": "bar",
        "name": "Bar Centrale"
      }
    },
    {
      "type": "node",
      "id": 5226838104,
      "lat": 9.6625011,
      "lon": 80.0214278,
      "timestamp": "2017-11-13T18:19:33Z",
      "version": 1,
      "changeset": 53748165,
      "user": "Sineath",
      "uid": 6953522,
      "tags": {
        "amenity": "bar"
      }
    },
    {
      "type": "node",
      "id": 5226838167,
      "lat": 9.6638846,
      "lon": 80.0195225,
      "timestamp": "2017-11-13T18:19:02Z",
      "version": 1,
      "changeset": 53748144,
      "user": "Sineath",
      "uid": 6953522,
      "tags": {
        "amenity": "bar"
      }
    },
    {
      "type": "node",
      "id": 5226840266,
      "lat": 9.6630508,
      "lon": 80.0211211,
      "timestamp": "2017-11-13T18:24:09Z",
      "version": 2,
      "changeset": 53748299,
      "user": "Sineath",
      "uid": 6953522,
      "tags": {
        "amenity": "bar"
      }
    },
    {
      "type": "node",
      "id": 5226849458,
      "lat": 9.6737756,
      "lon": 80.0029209,
      "timestamp": "2017-11-13T18:25:42Z",
      "version": 1,
      "changeset": 53748338,
      "user": "Tyler Hart",
      "uid": 6953526,
      "tags": {
        "amenity": "bar"
      }
    },
    {
      "type": "node",
      "id": 5290322821,
      "lat": 5.9445761,
      "lon": 80.4548898,
      "timestamp": "2017-12-17T19:41:59Z",
      "version": 1,
      "changeset": 54712237,
      "user": "Tatka123",
      "uid": 7271200,
      "tags": {
        "amenity": "bar",
        "name": "Rovanuv dum a bar"
      }
    },
    {
      "type": "node",
      "id": 5306734221,
      "lat": 6.0264359,
      "lon": 80.2194895,
      "timestamp": "2019-01-30T14:02:37Z",
      "version": 2,
      "changeset": 66771787,
      "user": "ilf",
      "uid": 261437,
      "tags": {
        "amenity": "bar",
        "name": "Taphouse RnR",
        "name:en": "Taphouse"
      }
    },
    {
      "type": "node",
      "id": 5322020321,
      "lat": 6.9734689,
      "lon": 80.7655795,
      "timestamp": "2019-01-24T17:03:28Z",
      "version": 3,
      "changeset": 66607973,
      "user": "SL_Mapper",
      "uid": 5614912,
      "tags": {
        "amenity": "bar",
        "name": "Liquor Shop"
      }
    },
    {
      "type": "node",
      "id": 5332531921,
      "lat": 6.0276171,
      "lon": 80.7940419,
      "timestamp": "2018-01-11T06:09:37Z",
      "version": 1,
      "changeset": 55342814,
      "user": "Byron512",
      "uid": 5672340,
      "tags": {
        "amenity": "bar",
        "name:en": "wine shop"
      }
    },
    {
      "type": "node",
      "id": 5340855028,
      "lat": 6.0387541,
      "lon": 80.8106322,
      "timestamp": "2019-01-31T21:44:21Z",
      "version": 2,
      "changeset": 66815879,
      "user": "Eddie the Cartographer",
      "uid": 5347107,
      "tags": {
        "amenity": "bar",
        "name": "The Lounge"
      }
    },
    {
      "type": "node",
      "id": 5351160021,
      "lat": 7.8760736,
      "lon": 80.6512081,
      "timestamp": "2020-07-10T12:49:12Z",
      "version": 3,
      "changeset": 87818081,
      "user": "mbethke",
      "uid": 248338,
      "tags": {
        "addr:city": "Dambulla",
        "addr:street": "Jaffna - Kandy Road",
        "amenity": "pub",
        "name": "Liquor Company Pub and Bar",
        "shop": "wine"
      }
    },
    {
      "type": "node",
      "id": 5352740728,
      "lat": 5.9662327,
      "lon": 80.4518998,
      "timestamp": "2020-01-06T14:08:39Z",
      "version": 2,
      "changeset": 79251723,
      "user": "luudantot",
      "uid": 2313115,
      "tags": {
        "amenity": "bar",
        "name:en": "Dilan's Place",
        "name:ru": "Бар У Дилана",
        "opening_hours": "Mo-Su 18:00-04:00",
        "phone": "+94770342289"
      }
    },
    {
      "type": "node",
      "id": 5403958421,
      "lat": 7.8861336,
      "lon": 80.6526372,
      "timestamp": "2020-09-20T14:02:13Z",
      "version": 2,
      "changeset": 91176746,
      "user": "Theo Asselman",
      "uid": 3376234,
      "tags": {
        "amenity": "bar",
        "name:en": "Dumbara wine bar"
      }
    },
    {
      "type": "node",
      "id": 5416875321,
      "lat": 5.964869,
      "lon": 80.3844484,
      "timestamp": "2018-02-16T16:51:28Z",
      "version": 1,
      "changeset": 56419474,
      "user": "Dorka and Levi",
      "uid": 7628430,
      "tags": {
        "amenity": "bar",
        "name:en": "Wild Beach Bar"
      }
    },
    {
      "type": "node",
      "id": 5442598424,
      "lat": 6.0271922,
      "lon": 80.2157059,
      "timestamp": "2018-02-28T11:16:49Z",
      "version": 1,
      "changeset": 56752758,
      "user": "Benoit Julhan",
      "uid": 3939356,
      "tags": {
        "amenity": "bar",
        "name:en": "pilmgrims"
      }
    },
    {
      "type": "node",
      "id": 5464221224,
      "lat": 5.9643216,
      "lon": 80.689275,
      "timestamp": "2018-03-08T10:46:45Z",
      "version": 1,
      "changeset": 56995065,
      "user": "Talius",
      "uid": 7329129,
      "tags": {
        "amenity": "bar",
        "name:en": "Bar - wine shop"
      }
    },
    {
      "type": "node",
      "id": 5494531699,
      "lat": 6.009734,
      "lon": 80.2466257,
      "timestamp": "2018-03-21T19:07:32Z",
      "version": 1,
      "changeset": 57396556,
      "user": "Avocadough!",
      "uid": 6967122,
      "tags": {
        "amenity": "bar",
        "name:en": "Roof Top"
      }
    },
    {
      "type": "node",
      "id": 5582045721,
      "lat": 8.5649667,
      "lon": 81.2363861,
      "timestamp": "2020-07-10T12:49:12Z",
      "version": 2,
      "changeset": 87818081,
      "user": "mbethke",
      "uid": 248338,
      "tags": {
        "amenity": "pub",
        "cuisine": "indian",
        "name": "Maysland Bar"
      }
    },
    {
      "type": "node",
      "id": 5584394125,
      "lat": 9.6652604,
      "lon": 80.0111379,
      "timestamp": "2025-08-10T20:50:59Z",
      "version": 3,
      "changeset": 170264630,
      "user": "o_s_m_app_er",
      "uid": 1175301,
      "tags": {
        "addr:city": "Jaffna",
        "amenity": "pub",
        "name": "Toddy tavern",
        "shop": "alcohol"
      }
    },
    {
      "type": "node",
      "id": 5747031721,
      "lat": 6.876886,
      "lon": 81.0628189,
      "timestamp": "2019-06-19T18:11:44Z",
      "version": 2,
      "changeset": 71412041,
      "user": "SL_Mapper",
      "uid": 5614912,
      "tags": {
        "amenity": "bar",
        "name": "Nisee Juice Bar"
      }
    },
    {
      "type": "node",
      "id": 5884861585,
      "lat": 6.8405472,
      "lon": 81.8313095,
      "timestamp": "2024-09-11T09:56:43Z",
      "version": 2,
      "changeset": 156475109,
      "user": "SupunJ",
      "uid": 813936,
      "tags": {
        "amenity": "bar",
        "name": "Red Star",
        "name:en": "Red Star",
        "name:he": "רד סטאר"
      }
    },
    {
      "type": "node",
      "id": 6000579078,
      "lat": 7.4196469,
      "lon": 80.3281107,
      "timestamp": "2019-01-01T18:34:36Z",
      "version": 2,
      "changeset": 65939544,
      "user": "SL_Mapper",
      "uid": 5614912,
      "tags": {
        "amenity": "bar",
        "name": "Lyon Liquor Shop",
        "opening_hours": "09:00-21:00"
      }
    },
    {
      "type": "node",
      "id": 6069218092,
      "lat": 6.1276957,
      "lon": 80.1043323,
      "timestamp": "2018-11-17T20:18:52Z",
      "version": 1,
      "changeset": 64605771,
      "user": "Serjeo",
      "uid": 9109744,
      "tags": {
        "amenity": "bar",
        "internet_access": "wlan",
        "name:en": "Chill Space"
      }
    },
    {
      "type": "node",
      "id": 6102396686,
      "lat": 6.0087795,
      "lon": 80.2508519,
      "timestamp": "2018-11-29T07:35:14Z",
      "version": 2,
      "changeset": 64999694,
      "user": "Евгений Коврига",
      "uid": 4409433,
      "tags": {
        "amenity": "bar",
        "name:en": "Riddim Restaurant & Bar",
        "name:ru": "Тусовки, dj за вертушками"
      }
    },
    {
      "type": "node",
      "id": 6131997585,
      "lat": 6.0111705,
      "lon": 80.2466372,
      "timestamp": "2018-12-12T05:26:46Z",
      "version": 1,
      "changeset": 65396935,
      "user": "Евгений Коврига",
      "uid": 4409433,
      "tags": {
        "amenity": "bar",
        "name:en": "Roof top bar"
      }
    },
    {
      "type": "node",
      "id": 6180140986,
      "lat": 6.1202828,
      "lon": 80.1146433,
      "timestamp": "2025-10-18T12:42:42Z",
      "version": 2,
      "changeset": 173448643,
      "user": "o_s_m_app_er",
      "uid": 1175301,
      "tags": {
        "amenity": "bar",
        "name": "Bambo Juice Bar"
      }
    },
    {
      "type": "node",
      "id": 6213046485,
      "lat": 6.0098037,
      "lon": 80.2471764,
      "timestamp": "2019-01-16T11:55:19Z",
      "version": 1,
      "changeset": 66360735,
      "user": "Евгений Коврига",
      "uid": 4409433,
      "tags": {
        "amenity": "pub",
        "name:en": "Catamaran Pub"
      }
    },
    {
      "type": "node",
      "id": 6255316750,
      "lat": 5.9629043,
      "lon": 80.7077287,
      "timestamp": "2019-02-03T07:48:56Z",
      "version": 1,
      "changeset": 66870731,
      "user": "ilf",
      "uid": 261437,
      "tags": {
        "amenity": "bar",
        "name": "Lychee Bar"
      }
    },
    {
      "type": "node",
      "id": 6255317235,
      "lat": 5.9624458,
      "lon": 80.7067625,
      "timestamp": "2023-07-23T02:19:31Z",
      "version": 2,
      "changeset": 138876530,
      "user": "Rayon",
      "uid": 2298333,
      "tags": {
        "amenity": "bar",
        "name": "Bar Utopia"
      }
    },
    {
      "type": "node",
      "id": 6255753473,
      "lat": 5.9629039,
      "lon": 80.7087336,
      "timestamp": "2019-02-03T14:34:38Z",
      "version": 1,
      "changeset": 66877695,
      "user": "ilf",
      "uid": 261437,
      "tags": {
        "amenity": "bar"
      }
    },
    {
      "type": "node",
      "id": 6257268487,
      "lat": 6.1241363,
      "lon": 80.1098857,
      "timestamp": "2019-02-04T06:40:41Z",
      "version": 1,
      "changeset": 66894231,
      "user": "Nilk",
      "uid": 355867,
      "tags": {
        "amenity": "bar",
        "name:en": "Mambo’s"
      }
    },
    {
      "type": "node",
      "id": 6405781192,
      "lat": 6.845482,
      "lon": 81.8317101,
      "timestamp": "2019-04-15T06:43:59Z",
      "version": 1,
      "changeset": 69222750,
      "user": "Russ McD",
      "uid": 346601,
      "tags": {
        "amenity": "bar",
        "name:en": "Folly Point Bar"
      }
    },
    {
      "type": "node",
      "id": 6879109985,
      "lat": 7.2949824,
      "lon": 80.6360198,
      "timestamp": "2023-11-21T11:03:51Z",
      "version": 4,
      "changeset": 144282067,
      "user": "gemsquash",
      "uid": 503169,
      "tags": {
        "addr:city": "Kandy",
        "addr:street": "Yatinuwara Veediya",
        "amenity": "bar",
        "name": "Edo"
      }
    },
    {
      "type": "node",
      "id": 6927709785,
      "lat": 8.6150958,
      "lon": 81.2160685,
      "timestamp": "2019-10-31T05:43:23Z",
      "version": 2,
      "changeset": 76428486,
      "user": "mbethke",
      "uid": 248338,
      "tags": {
        "amenity": "bar"
      }
    },
    {
      "type": "node",
      "id": 6966352086,
      "lat": 6.0090701,
      "lon": 80.2450091,
      "timestamp": "2019-11-11T12:24:33Z",
      "version": 1,
      "changeset": 76907335,
      "user": "Loïc Swolfs",
      "uid": 10455864,
      "tags": {
        "amenity": "bar",
        "name:en": "Toddy’s"
      }
    },
    {
      "type": "node",
      "id": 6996319987,
      "lat": 7.9219896,
      "lon": 81.5687387,
      "timestamp": "2024-04-29T14:12:31Z",
      "version": 3,
      "changeset": 150665757,
      "user": "gemsquash",
      "uid": 503169,
      "tags": {
        "addr:city": "Pasikudah",
        "amenity": "pub",
        "name": "Edo",
        "name:en": "Edo",
        "name:ru": "Едо"
      }
    },
    {
      "type": "node",
      "id": 7026716985,
      "lat": 5.9611681,
      "lon": 80.7132323,
      "timestamp": "2019-12-02T17:12:17Z",
      "version": 1,
      "changeset": 77835020,
      "user": "Tom Aitken",
      "uid": 8517421,
      "tags": {
        "addr:street": "Nilwella Rd",
        "amenity": "bar",
        "name:en": "Freedom Cafe",
        "opening_hours": "Mo-Su 18:00-02:00"
      }
    },
    {
      "type": "node",
      "id": 7048613485,
      "lat": 6.0093656,
      "lon": 80.25073,
      "timestamp": "2019-12-11T07:13:51Z",
      "version": 1,
      "changeset": 78244242,
      "user": "Jurek101",
      "uid": 5776020,
      "tags": {
        "amenity": "bar",
        "name:en": "Fruit Juice Bar"
      }
    },
    {
      "type": "node",
      "id": 7071784286,
      "lat": 8.6019144,
      "lon": 81.2189986,
      "timestamp": "2020-07-10T12:49:12Z",
      "version": 2,
      "changeset": 87818081,
      "user": "mbethke",
      "uid": 248338,
      "tags": {
        "amenity": "bar"
      }
    },
    {
      "type": "node",
      "id": 7089371631,
      "lat": 6.8727926,
      "lon": 81.0496133,
      "timestamp": "2019-12-27T17:02:56Z",
      "version": 1,
      "changeset": 78935171,
      "user": "mbethke",
      "uid": 248338,
      "tags": {
        "amenity": "pub",
        "name": "Le Cheers"
      }
    },
    {
      "type": "node",
      "id": 7247622685,
      "lat": 5.9696655,
      "lon": 80.4455688,
      "timestamp": "2020-02-27T13:16:45Z",
      "version": 1,
      "changeset": 81549487,
      "user": "Marc  Deriu",
      "uid": 10563509,
      "tags": {
        "amenity": "bar",
        "name:de": "Beach bar in mangroven",
        "name:en": "Beach bar"
      }
    },
    {
      "type": "node",
      "id": 7276145886,
      "lat": 5.921464,
      "lon": 80.5935242,
      "timestamp": "2020-03-08T05:56:58Z",
      "version": 1,
      "changeset": 81915397,
      "user": "Marc  Deriu",
      "uid": 10563509,
      "tags": {
        "amenity": "bar",
        "name:en": "Juice Bar"
      }
    },
    {
      "type": "node",
      "id": 7292217888,
      "lat": 8.3162804,
      "lon": 80.4142401,
      "timestamp": "2020-03-13T15:40:25Z",
      "version": 1,
      "changeset": 82170686,
      "user": "Orfneige",
      "uid": 10895097,
      "tags": {
        "addr:housenumber": "891",
        "addr:street": "Mailagas Junction",
        "amenity": "bar",
        "name:fr": "Bar (Grand Crown Hotel)"
      }
    },
    {
      "type": "node",
      "id": 7304915385,
      "lat": 8.6927178,
      "lon": 81.183686,
      "timestamp": "2024-06-09T12:23:35Z",
      "version": 3,
      "changeset": 152452428,
      "user": "Mapminik",
      "uid": 2314473,
      "tags": {
        "amenity": "bar",
        "name": "Nilaveli Village Restaurant & Bar"
      }
    },
    {
      "type": "node",
      "id": 7682197845,
      "lat": 8.6684124,
      "lon": 81.210492,
      "timestamp": "2020-07-04T07:35:05Z",
      "version": 1,
      "changeset": 87524335,
      "user": "mbethke",
      "uid": 248338,
      "tags": {
        "amenity": "bar",
        "name": "That's Why"
      }
    },
    {
      "type": "node",
      "id": 7903763817,
      "lat": 6.1233855,
      "lon": 81.0941433,
      "timestamp": "2020-09-14T03:34:38Z",
      "version": 1,
      "changeset": 90837348,
      "user": "sanjaya49",
      "uid": 10914847,
      "tags": {
        "amenity": "bar",
        "name": "sanjaya"
      }
    },
    {
      "type": "node",
      "id": 8407091469,
      "lat": 6.7545646,
      "lon": 80.3767814,
      "timestamp": "2023-09-09T13:18:14Z",
      "version": 2,
      "changeset": 141023980,
      "user": "Mateusz Konieczny - bot account",
      "uid": 3199858,
      "tags": {
        "amenity": "bar",
        "min_age": "21",
        "name": "Machan Ratnapura"
      }
    },
    {
      "type": "node",
      "id": 8808193917,
      "lat": 6.9053988,
      "lon": 81.1234027,
      "timestamp": "2023-11-17T09:04:33Z",
      "version": 2,
      "changeset": 144129032,
      "user": "kavihari",
      "uid": 19821175,
      "tags": {
        "amenity": "bar",
        "name:en": "Egk 13"
      }
    },
    {
      "type": "node",
      "id": 8808193918,
      "lat": 6.9057096,
      "lon": 81.1232491,
      "timestamp": "2021-06-22T12:19:16Z",
      "version": 3,
      "changeset": 106776316,
      "user": "mbethke",
      "uid": 248338,
      "tags": {
        "amenity": "bar",
        "name:en": "Egk 11"
      }
    },
    {
      "type": "node",
      "id": 8810809617,
      "lat": 6.8891934,
      "lon": 81.1378221,
      "timestamp": "2021-06-23T07:12:37Z",
      "version": 3,
      "changeset": 106817580,
      "user": "mbethke",
      "uid": 248338,
      "tags": {
        "amenity": "bar",
        "name:en": "Jack 4"
      }
    },
    {
      "type": "node",
      "id": 8810822517,
      "lat": 6.8884537,
      "lon": 81.1367971,
      "timestamp": "2021-06-23T07:12:37Z",
      "version": 3,
      "changeset": 106817580,
      "user": "mbethke",
      "uid": 248338,
      "tags": {
        "amenity": "bar",
        "name:en": "Jack 1"
      }
    },
    {
      "type": "node",
      "id": 9288146352,
      "lat": 6.9382052,
      "lon": 80.6617152,
      "timestamp": "2021-11-27T13:53:26Z",
      "version": 1,
      "changeset": 114295360,
      "user": "Ashra123",
      "uid": 13888734,
      "tags": {
        "amenity": "bar"
      }
    },
    {
      "type": "node",
      "id": 9385136817,
      "lat": 6.1285262,
      "lon": 80.1043121,
      "timestamp": "2022-01-02T07:08:37Z",
      "version": 1,
      "changeset": 115659235,
      "user": "Константин Новицкий",
      "uid": 8970301,
      "tags": {
        "amenity": "bar",
        "name:en": "Sams"
      }
    },
    {
      "type": "node",
      "id": 9726649099,
      "lat": 6.0263112,
      "lon": 80.2180877,
      "timestamp": "2022-05-09T11:19:51Z",
      "version": 1,
      "changeset": 120743591,
      "user": "mbethke",
      "uid": 248338,
      "tags": {
        "amenity": "pub",
        "name": "The Ivy"
      }
    },
    {
      "type": "node",
      "id": 9776389410,
      "lat": 6.8740603,
      "lon": 80.605227,
      "timestamp": "2022-05-28T07:22:22Z",
      "version": 1,
      "changeset": 121604159,
      "user": "NADARAJ SARANYA",
      "uid": 14435737,
      "tags": {
        "amenity": "bar"
      }
    },
    {
      "type": "node",
      "id": 9776389412,
      "lat": 6.8734228,
      "lon": 80.6046783,
      "timestamp": "2022-05-28T07:22:22Z",
      "version": 1,
      "changeset": 121604159,
      "user": "NADARAJ SARANYA",
      "uid": 14435737,
      "tags": {
        "amenity": "bar"
      }
    },
    {
      "type": "node",
      "id": 9837885218,
      "lat": 5.9932716,
      "lon": 80.3115816,
      "timestamp": "2022-06-22T06:49:24Z",
      "version": 1,
      "changeset": 122695687,
      "user": "madingo",
      "uid": 11782557,
      "tags": {
        "amenity": "bar",
        "name:en": "Juice Bar"
      }
    },
    {
      "type": "node",
      "id": 10287255809,
      "lat": 8.7169737,
      "lon": 80.3633981,
      "timestamp": "2022-12-26T10:06:12Z",
      "version": 1,
      "changeset": 130509025,
      "user": "Jastien",
      "uid": 18091970,
      "tags": {
        "addr:street": "Pavatkulam Unit 4 - Poovarasankulam Cheddikulam Road",
        "amenity": "pub",
        "name": "unite 06 copncity",
        "name:en": "cop city. (பல்நோக்கு கூட்டுறவு சங்கம்)"
      }
    },
    {
      "type": "node",
      "id": 10576462760,
      "lat": 5.9616676,
      "lon": 80.3966224,
      "timestamp": "2023-01-23T11:40:21Z",
      "version": 1,
      "changeset": 131603802,
      "user": "Dmytro Moraru",
      "uid": 7197693,
      "tags": {
        "amenity": "bar",
        "name": "Cheeky Monkey"
      }
    },
    {
      "type": "node",
      "id": 10579252367,
      "lat": 5.9584896,
      "lon": 80.4133578,
      "timestamp": "2023-01-24T14:53:37Z",
      "version": 1,
      "changeset": 131655721,
      "user": "Dmytro Moraru",
      "uid": 7197693,
      "tags": {
        "amenity": "bar"
      }
    },
    {
      "type": "node",
      "id": 10636829849,
      "lat": 6.8999619,
      "lon": 80.9954617,
      "timestamp": "2024-04-24T07:31:53Z",
      "version": 2,
      "changeset": 150427922,
      "user": "Sajeevini sivajothy",
      "uid": 15741221,
      "tags": {
        "amenity": "bar",
        "name": "Neluwa Bar"
      }
    },
    {
      "type": "node",
      "id": 10692626362,
      "lat": 5.9934101,
      "lon": 80.3070984,
      "timestamp": "2023-02-25T10:14:18Z",
      "version": 1,
      "changeset": 132998943,
      "user": "Dmytro Moraru",
      "uid": 7197693,
      "tags": {
        "amenity": "bar",
        "name": "Aruma Paduma",
        "opening_hours": "Mo-Su 09:30-23:30",
        "phone": "+94768309466"
      }
    },
    {
      "type": "node",
      "id": 10712387667,
      "lat": 5.9427265,
      "lon": 80.4635626,
      "timestamp": "2023-03-05T15:12:14Z",
      "version": 1,
      "changeset": 133329041,
      "user": "Dmytro Moraru",
      "uid": 7197693,
      "tags": {
        "addr:city": "Mirissa",
        "amenity": "bar",
        "name:en": "Pappagallo"
      }
    },
    {
      "type": "node",
      "id": 11097666405,
      "lat": 6.8485475,
      "lon": 81.8304219,
      "timestamp": "2023-08-07T18:04:42Z",
      "version": 1,
      "changeset": 139577672,
      "user": "Ghislaind",
      "uid": 8612227,
      "tags": {
        "amenity": "bar",
        "name:en": "SaltyBeer"
      }
    },
    {
      "type": "node",
      "id": 11377159269,
      "lat": 6.7144426,
      "lon": 80.786839,
      "timestamp": "2023-11-26T05:45:50Z",
      "version": 1,
      "changeset": 144460592,
      "user": "Garshan u",
      "uid": 18767411,
      "tags": {
        "addr:housenumber": "1",
        "addr:street": "Inner Track SUSL",
        "amenity": "pub",
        "name:en": "Swimming pool"
      }
    },
    {
      "type": "node",
      "id": 11407189270,
      "lat": 6.988237,
      "lon": 81.0575508,
      "timestamp": "2023-12-10T10:43:20Z",
      "version": 1,
      "changeset": 144960157,
      "user": "Sajeevini sivajothy",
      "uid": 15741221,
      "tags": {
        "addr:housenumber": "31 b,32 B,33B",
        "addr:street": "New Bus stop",
        "amenity": "bar",
        "name:en": "Intercity city beer Pub",
        "opening_hours": "Mo-Su 09:00-08:29"
      }
    },
    {
      "type": "node",
      "id": 11442944371,
      "lat": 5.9781098,
      "lon": 80.3524017,
      "timestamp": "2023-12-22T08:10:40Z",
      "version": 2,
      "changeset": 145397132,
      "user": "Dmytro Moraru",
      "uid": 7197693,
      "tags": {
        "addr:city": "Ahangama",
        "amenity": "bar",
        "name": "TRAX Ahangama",
        "name:en": "TRAX Ahangama",
        "opening_hours": "Wd-Th 19:00-01:00, Fr 19:00-2:30, Sa 19:00-1:30, Su 19:00-23:00",
        "website": "https://www.instagram.com/trax_ahangama/"
      }
    },
    {
      "type": "node",
      "id": 11491435169,
      "lat": 6.1231925,
      "lon": 80.1154534,
      "timestamp": "2025-10-18T12:42:42Z",
      "version": 3,
      "changeset": 173448643,
      "user": "o_s_m_app_er",
      "uid": 1175301,
      "tags": {
        "amenity": "bar",
        "name": "MOLOKO",
        "name:ru": "Молоко"
      }
    },
    {
      "type": "node",
      "id": 11633860669,
      "lat": 6.0470815,
      "lon": 80.8265762,
      "timestamp": "2024-02-17T08:26:54Z",
      "version": 1,
      "changeset": 147560363,
      "user": "Amraga",
      "uid": 20914334,
      "tags": {
        "amenity": "bar"
      }
    },
    {
      "type": "node",
      "id": 11649734737,
      "lat": 6.036363,
      "lon": 80.8046167,
      "timestamp": "2024-02-21T17:53:59Z",
      "version": 1,
      "changeset": 147743333,
      "user": "icostan",
      "uid": 1431741,
      "tags": {
        "amenity": "bar",
        "name": "Brother's cocktail bar"
      }
    },
    {
      "type": "node",
      "id": 11662229969,
      "lat": 6.8745981,
      "lon": 81.0470465,
      "timestamp": "2024-02-25T07:54:38Z",
      "version": 1,
      "changeset": 147880259,
      "user": "Clément Van Daele",
      "uid": 8450952,
      "tags": {
        "amenity": "bar",
        "name:en": "Hiking Bar"
      }
    },
    {
      "type": "node",
      "id": 12118351095,
      "lat": 8.2934851,
      "lon": 80.7179338,
      "timestamp": "2024-08-18T12:12:15Z",
      "version": 1,
      "changeset": 155411543,
      "user": "RKN_SQUAD@78",
      "uid": 21851782,
      "tags": {
        "amenity": "bar"
      }
    },
    {
      "type": "node",
      "id": 12466394922,
      "lat": 6.0193903,
      "lon": 80.2400601,
      "timestamp": "2025-01-01T04:32:06Z",
      "version": 2,
      "changeset": 160853490,
      "user": "Godlion",
      "uid": 1624721,
      "tags": {
        "amenity": "bar"
      }
    },
    {
      "type": "node",
      "id": 12517685617,
      "lat": 5.9599471,
      "lon": 80.4029681,
      "timestamp": "2025-01-20T05:49:37Z",
      "version": 1,
      "changeset": 161548898,
      "user": "StopConsuming_StartProducing",
      "uid": 5592573,
      "tags": {
        "amenity": "bar"
      }
    },
    {
      "type": "node",
      "id": 12517693404,
      "lat": 5.9600588,
      "lon": 80.4028299,
      "timestamp": "2025-01-20T05:49:36Z",
      "version": 1,
      "changeset": 161548898,
      "user": "StopConsuming_StartProducing",
      "uid": 5592573,
      "tags": {
        "amenity": "bar",
        "name": "House Music"
      }
    },
    {
      "type": "node",
      "id": 12517694053,
      "lat": 5.9600934,
      "lon": 80.4026199,
      "timestamp": "2025-01-20T05:49:37Z",
      "version": 1,
      "changeset": 161548898,
      "user": "StopConsuming_StartProducing",
      "uid": 5592573,
      "tags": {
        "amenity": "bar"
      }
    },
    {
      "type": "node",
      "id": 12551664920,
      "lat": 7.3234248,
      "lon": 80.1139286,
      "timestamp": "2025-02-02T17:18:09Z",
      "version": 1,
      "changeset": 162055442,
      "user": "Tobias235",
      "uid": 14827393,
      "tags": {
        "amenity": "bar",
        "name": "Mahameruwa Bar and pubs"
      }
    },
    {
      "type": "node",
      "id": 12605915280,
      "lat": 5.9354232,
      "lon": 80.5205462,
      "timestamp": "2025-02-21T02:50:20Z",
      "version": 1,
      "changeset": 162762832,
      "user": "Airiver",
      "uid": 13901111,
      "tags": {
        "amenity": "bar"
      }
    },
    {
      "type": "node",
      "id": 12666474332,
      "lat": 6.0324866,
      "lon": 80.7998129,
      "timestamp": "2025-03-15T10:41:48Z",
      "version": 1,
      "changeset": 163645233,
      "user": "mapping_around",
      "uid": 175903,
      "tags": {
        "amenity": "bar",
        "opening_hours": "10:00-00:00"
      }
    },
    {
      "type": "node",
      "id": 12670068301,
      "lat": 6.0680683,
      "lon": 80.1677557,
      "timestamp": "2025-03-16T13:11:45Z",
      "version": 1,
      "changeset": 163688202,
      "user": "Druid_vrn",
      "uid": 22350337,
      "tags": {
        "amenity": "bar",
        "name": "Reggae bar"
      }
    },
    {
      "type": "node",
      "id": 12999409995,
      "lat": 6.2710824,
      "lon": 80.0932592,
      "timestamp": "2025-07-14T15:14:02Z",
      "version": 1,
      "changeset": 168922849,
      "user": "Lakshan98",
      "uid": 23094986,
      "tags": {
        "amenity": "bar",
        "name": "Munugoda Wine Store"
      }
    },
    {
      "type": "node",
      "id": 13036948801,
      "lat": 9.6793212,
      "lon": 80.0122875,
      "timestamp": "2025-07-30T09:08:55Z",
      "version": 1,
      "changeset": 169709169,
      "user": "Leireorduna",
      "uid": 21862105,
      "tags": {
        "amenity": "bar",
        "name:en": "Juice bar"
      }
    },
    {
      "type": "node",
      "id": 13081114938,
      "lat": 8.0606697,
      "lon": 80.9031691,
      "timestamp": "2025-08-19T05:32:58Z",
      "version": 1,
      "changeset": 170649115,
      "user": "BaboucheVerte",
      "uid": 6296343,
      "tags": {
        "amenity": "bar",
        "name": "Gunner's pub"
      }
    },
    {
      "type": "way",
      "id": 224208542,
      "timestamp": "2014-01-17T05:28:05Z",
      "version": 3,
      "changeset": 20045192,
      "user": "deavas",
      "uid": 1409481,
      "center": {
        "lat": 7.7104498,
        "lon": 81.6963841
      },
      "nodes": [
        2330311229,
        2330311248,
        2330311244,
        2330311224,
        2330311229
      ],
      "tags": {
        "amenity": "bar",
        "building": "yes",
        "building:foundation_height": "3",
        "building:levels": "1",
        "building:material": "plaster",
        "building:use": "commercial",
        "name": "Central Hotel",
        "roof:material": "tile",
        "roof:shape": "hipped"
      }
    },
    {
      "type": "way",
      "id": 286528283,
      "timestamp": "2023-12-11T21:39:55Z",
      "version": 5,
      "changeset": 145015512,
      "user": "gemsquash",
      "uid": 503169,
      "center": {
        "lat": 6.9917638,
        "lon": 81.0606111
      },
      "nodes": [
        2902101170,
        2902101171,
        2902101172,
        2902101173,
        2902101170
      ],
      "tags": {
        "amenity": "bar",
        "building": "yes",
        "name": "Jones Bar"
      }
    },
    {
      "type": "way",
      "id": 318194201,
      "timestamp": "2014-12-21T10:49:33Z",
      "version": 1,
      "changeset": 27606010,
      "user": "sunucsal",
      "uid": 1481703,
      "center": {
        "lat": 5.9587271,
        "lon": 80.6859689
      },
      "nodes": [
        3245888019,
        3245888024,
        3245888028,
        3245888030,
        3245888035,
        3245888038,
        3245888041,
        3245888042,
        3245888039,
        3245888036,
        3245888031,
        3245888029,
        3245888025,
        3245888020,
        3245888015,
        3245888014,
        3245888019
      ],
      "tags": {
        "amenity": "bar",
        "building": "yes"
      }
    },
    {
      "type": "way",
      "id": 318194223,
      "timestamp": "2014-12-21T10:49:34Z",
      "version": 1,
      "changeset": 27606010,
      "user": "sunucsal",
      "uid": 1481703,
      "center": {
        "lat": 5.9587439,
        "lon": 80.6861361
      },
      "nodes": [
        3245888040,
        3245888018,
        3245888017,
        3245888016,
        3245888037,
        3245888040
      ],
      "tags": {
        "amenity": "bar",
        "building": "yes"
      }
    },
    {
      "type": "way",
      "id": 385209026,
      "timestamp": "2015-12-10T06:01:27Z",
      "version": 1,
      "changeset": 35859100,
      "user": "Dharshana Thanayamwatta",
      "uid": 3428019,
      "center": {
        "lat": 6.6808167,
        "lon": 80.4056929
      },
      "nodes": [
        3885652061,
        3885652063,
        3885652064,
        3885652065,
        3885652066,
        3885652075,
        3885652067,
        3885652068,
        3885652069,
        3885652070,
        3885652061
      ],
      "tags": {
        "amenity": "bar",
        "building": "yes",
        "name": "Eagal Resturent & Bar"
      }
    },
    {
      "type": "way",
      "id": 405575458,
      "timestamp": "2016-03-25T00:59:10Z",
      "version": 1,
      "changeset": 38053186,
      "user": "Umapathy",
      "uid": 52980,
      "center": {
        "lat": 8.6383334,
        "lon": 80.3865027
      },
      "nodes": [
        4077492532,
        4077492533,
        4077492534,
        4077492535,
        4077492532
      ],
      "tags": {
        "amenity": "bar",
        "building": "yes",
        "name": "Toddy Tarven"
      }
    },
    {
      "type": "way",
      "id": 405867968,
      "timestamp": "2016-03-26T15:38:15Z",
      "version": 1,
      "changeset": 38084601,
      "user": "Umapathy",
      "uid": 52980,
      "center": {
        "lat": 9.4017859,
        "lon": 80.5351443
      },
      "nodes": [
        4080114381,
        4080114382,
        4080114383,
        4080114384,
        4080114381
      ],
      "tags": {
        "amenity": "bar",
        "building": "yes",
        "name": "Toddy Traven"
      }
    },
    {
      "type": "way",
      "id": 431488019,
      "timestamp": "2023-04-09T14:28:29Z",
      "version": 3,
      "changeset": 134690524,
      "user": "Aebo",
      "uid": 6311454,
      "center": {
        "lat": 8.6137869,
        "lon": 81.2186554
      },
      "nodes": [
        4306974625,
        4306974626,
        4306974627,
        4306974628,
        4306974625
      ],
      "tags": {
        "addr:city": "Alles Garden",
        "addr:housenumber": "41",
        "amenity": "bar",
        "internet_access": "wlan",
        "name": "Fernando's bar",
        "phone": "+94 77 854 6139",
        "wheelchair": "no"
      }
    },
    {
      "type": "way",
      "id": 452373145,
      "timestamp": "2017-03-28T07:24:36Z",
      "version": 3,
      "changeset": 47220911,
      "user": "kirisha mv",
      "uid": 4801531,
      "center": {
        "lat": 7.7899544,
        "lon": 81.5846259
      },
      "nodes": [
        4491804402,
        4491804401,
        4491804400,
        4491804399,
        4491804402
      ],
      "tags": {
        "amenity": "bar",
        "building": "yes",
        "name": "Kommathuari Liquor shop"
      }
    },
    {
      "type": "way",
      "id": 453463612,
      "timestamp": "2024-03-13T10:14:11Z",
      "version": 3,
      "changeset": 148585740,
      "user": "vijayan pushpakumar",
      "uid": 17515076,
      "center": {
        "lat": 7.7902522,
        "lon": 81.5843203
      },
      "nodes": [
        4501953580,
        4501953577,
        4501953578,
        4501953579,
        4501953580
      ],
      "tags": {
        "amenity": "bar",
        "building": "yes",
        "check_date": "2024-02-09",
        "name": "Disso wine store",
        "opening_hours": "06:00-21:00; PH off"
      }
    },
    {
      "type": "way",
      "id": 453468042,
      "timestamp": "2017-03-29T07:55:49Z",
      "version": 2,
      "changeset": 47251380,
      "user": "prins123",
      "uid": 4847574,
      "center": {
        "lat": 7.7821798,
        "lon": 81.5953774
      },
      "nodes": [
        4501990567,
        4501990564,
        4501990565,
        4501990566,
        4501990567
      ],
      "tags": {
        "amenity": "bar",
        "building": "yes",
        "name": "Shanthy Hotel & Bar"
      }
    },
    {
      "type": "way",
      "id": 482966984,
      "timestamp": "2019-07-29T18:35:46Z",
      "version": 2,
      "changeset": 72782702,
      "user": "Russ McD",
      "uid": 346601,
      "center": {
        "lat": 6.8746946,
        "lon": 81.0470907
      },
      "nodes": [
        4757342104,
        4757342103,
        4757342102,
        4757342101,
        4757342104
      ],
      "tags": {
        "amenity": "bar",
        "building": "yes",
        "name:en": "One Love"
      }
    },
    {
      "type": "way",
      "id": 491519970,
      "timestamp": "2017-05-05T06:25:32Z",
      "version": 1,
      "changeset": 48414952,
      "user": "chathura100",
      "uid": 5778695,
      "center": {
        "lat": 6.785524,
        "lon": 80.9926986
      },
      "nodes": [
        4836146965,
        4836146966,
        4836146967,
        4836146968,
        4836146965
      ],
      "tags": {
        "amenity": "bar",
        "building": "yes"
      }
    },
    {
      "type": "way",
      "id": 494580593,
      "timestamp": "2017-05-19T06:03:07Z",
      "version": 1,
      "changeset": 48810383,
      "user": "suthan123",
      "uid": 5315682,
      "center": {
        "lat": 7.5683911,
        "lon": 81.7353984
      },
      "nodes": [
        4863310645,
        4863310644,
        4863310643,
        4863310642,
        4863310641,
        4863310645
      ],
      "tags": {
        "amenity": "bar",
        "name": "New Estern Bar"
      }
    },
    {
      "type": "way",
      "id": 510935063,
      "timestamp": "2017-08-09T11:13:08Z",
      "version": 2,
      "changeset": 50969806,
      "user": "maheshika",
      "uid": 3319560,
      "center": {
        "lat": 7.4893197,
        "lon": 80.36494
      },
      "nodes": [
        4999073375,
        4999073374,
        4999073373,
        4999073372,
        4999073375
      ],
      "tags": {
        "amenity": "bar",
        "building": "yes",
        "name": "Buvaneka Hotel"
      }
    },
    {
      "type": "way",
      "id": 512165765,
      "timestamp": "2023-08-23T07:58:31Z",
      "version": 2,
      "changeset": 140262052,
      "user": "MOHOMMAD AMAS",
      "uid": 20106614,
      "center": {
        "lat": 7.478316,
        "lon": 80.374229
      },
      "nodes": [
        5008484889,
        5008484888,
        5008484887,
        5008484886,
        5008484889
      ],
      "tags": {
        "addr:city": "Kurunegala",
        "addr:postcode": "6666",
        "addr:street": "Kurunegala - Kandy Road,GETUWANA",
        "amenity": "bar",
        "brewery": "yes",
        "building": "yes",
        "min_age": "21",
        "name": "RS BAR",
        "opening_hours": "Mo-Su 09:00-21:00"
      }
    },
    {
      "type": "way",
      "id": 583660191,
      "timestamp": "2023-06-27T22:58:24Z",
      "version": 2,
      "changeset": 137855016,
      "user": "gemsquash",
      "uid": 503169,
      "center": {
        "lat": 7.28707,
        "lon": 80.6473577
      },
      "nodes": [
        3012657771,
        257926310,
        3218446403,
        3745340237,
        5580001945,
        3012657771
      ],
      "tags": {
        "addr:city": "Kandy",
        "amenity": "bar",
        "name": "The Kandy Garden Club"
      }
    },
    {
      "type": "way",
      "id": 589120285,
      "timestamp": "2019-05-05T02:59:44Z",
      "version": 3,
      "changeset": 69893330,
      "user": "mapman44",
      "uid": 2888253,
      "center": {
        "lat": 7.3494082,
        "lon": 80.6804728
      },
      "nodes": [
        5625836972,
        5625836969,
        5625836970,
        5625836971,
        5625836972
      ],
      "tags": {
        "addr:city": "Wattegama",
        "addr:country": "LK",
        "addr:postcode": "20810",
        "amenity": "pub",
        "building": "bar and restaurant",
        "building:levels": "2",
        "delivery": "no",
        "internet_access": "no",
        "internet_access:fee": "no",
        "name": "wattegama town bar",
        "smoking": "isolated",
        "takeaway": "no",
        "wheelchair": "no"
      }
    },
    {
      "type": "way",
      "id": 1002243665,
      "timestamp": "2021-11-14T11:02:41Z",
      "version": 1,
      "changeset": 113758471,
      "user": "Naveen Jayasankha",
      "uid": 14369757,
      "center": {
        "lat": 6.2743512,
        "lon": 80.1391536
      },
      "nodes": [
        9250093867,
        9250093868,
        9250093869,
        9250093870,
        9250093871,
        9250093872,
        9250093867
      ],
      "tags": {
        "amenity": "bar",
        "building": "yes"
      }
    },
    {
      "type": "way",
      "id": 1002243733,
      "timestamp": "2021-11-14T11:02:41Z",
      "version": 1,
      "changeset": 113758471,
      "user": "Naveen Jayasankha",
      "uid": 14369757,
      "center": {
        "lat": 6.2752209,
        "lon": 80.1386885
      },
      "nodes": [
        9250114942,
        9250114943,
        9250114944,
        9250114945,
        9250114946,
        9250114947,
        9250114942
      ],
      "tags": {
        "amenity": "bar",
        "building": "yes"
      }
    },
    {
      "type": "way",
      "id": 1066011916,
      "timestamp": "2022-06-02T05:20:35Z",
      "version": 1,
      "changeset": 121834766,
      "user": "NADARAJ SARANYA",
      "uid": 14435737,
      "center": {
        "lat": 6.8901711,
        "lon": 80.5984366
      },
      "nodes": [
        9789511612,
        9789511613,
        9789511614,
        9789511615,
        9789511612
      ],
      "tags": {
        "amenity": "bar",
        "area": "yes"
      }
    },
    {
      "type": "way",
      "id": 1066104676,
      "timestamp": "2023-11-24T03:51:37Z",
      "version": 2,
      "changeset": 144390025,
      "user": "OSM09WVL",
      "uid": 20481557,
      "center": {
        "lat": 6.9256509,
        "lon": 80.6078888
      },
      "nodes": [
        9790122552,
        9790122553,
        9790122554,
        9790122555,
        9790122552
      ],
      "tags": {
        "amenity": "bar",
        "name": "royal wine stores"
      }
    },
    {
      "type": "way",
      "id": 1066104679,
      "timestamp": "2023-11-24T03:51:37Z",
      "version": 2,
      "changeset": 144390025,
      "user": "OSM09WVL",
      "uid": 20481557,
      "center": {
        "lat": 6.9251079,
        "lon": 80.6074569
      },
      "nodes": [
        9790122563,
        9790122564,
        9790122565,
        9790122566,
        9790122563
      ],
      "tags": {
        "amenity": "bar",
        "name": "kotagala wine store"
      }
    },
    {
      "type": "way",
      "id": 1066132083,
      "timestamp": "2022-06-02T13:00:01Z",
      "version": 1,
      "changeset": 121851268,
      "user": "NADARAJ SARANYA",
      "uid": 14435737,
      "center": {
        "lat": 6.9264737,
        "lon": 80.6150821
      },
      "nodes": [
        9790423363,
        9790423364,
        9790423365,
        9790423366,
        9790423363
      ],
      "tags": {
        "amenity": "bar",
        "area": "yes"
      }
    },
    {
      "type": "way",
      "id": 1066132084,
      "timestamp": "2022-06-02T13:00:01Z",
      "version": 1,
      "changeset": 121851268,
      "user": "NADARAJ SARANYA",
      "uid": 14435737,
      "center": {
        "lat": 6.92642,
        "lon": 80.6150316
      },
      "nodes": [
        9790423367,
        9790423368,
        9790423369,
        9790423370,
        9790423367
      ],
      "tags": {
        "amenity": "bar",
        "area": "yes"
      }
    },
    {
      "type": "way",
      "id": 1109955388,
      "timestamp": "2022-11-03T09:57:28Z",
      "version": 1,
      "changeset": 128429539,
      "user": "Migara Sandaruwan",
      "uid": 17567471,
      "center": {
        "lat": 7.1711882,
        "lon": 81.0046686
      },
      "nodes": [
        10154281458,
        10154281457,
        10154281456,
        10154281455,
        10154281458
      ],
      "tags": {
        "amenity": "biergarten",
        "building": "yes",
        "name": "beer pub"
      }
    },
    {
      "type": "way",
      "id": 1110187250,
      "timestamp": "2022-11-04T07:36:12Z",
      "version": 3,
      "changeset": 128468884,
      "user": "lakshmanjayasiri",
      "uid": 17567767,
      "center": {
        "lat": 7.0238433,
        "lon": 81.0549355
      },
      "nodes": [
        10156201289,
        10156201288,
        10156201287,
        10156201286,
        10156201289
      ],
      "tags": {
        "amenity": "pub",
        "building": "yes",
        "name": "dunhinda ber pup",
        "tourism": "hotel"
      }
    },
    {
      "type": "way",
      "id": 1110227876,
      "timestamp": "2022-11-04T09:22:21Z",
      "version": 1,
      "changeset": 128473820,
      "user": "wellawayaps",
      "uid": 17567461,
      "center": {
        "lat": 6.9904375,
        "lon": 81.1572906
      },
      "nodes": [
        10156498270,
        10156498269,
        10156498268,
        10156498267,
        10156498266,
        10156498265,
        10156498264,
        10156498263,
        10156498262,
        10156498261,
        10156498260,
        10156498259,
        10156498258,
        10156498257,
        10156498256,
        10156498255,
        10156498254,
        10156498253,
        10156498252,
        10156498251,
        10156498250,
        10156498249,
        10156498248,
        10156498247,
        10156498246,
        10156498270
      ],
      "tags": {
        "amenity": "biergarten",
        "landuse": "farmland"
      }
    },
    {
      "type": "way",
      "id": 1115465488,
      "timestamp": "2022-11-19T11:03:00Z",
      "version": 1,
      "changeset": 129118898,
      "user": "mbethke",
      "uid": 248338,
      "center": {
        "lat": 5.9731295,
        "lon": 80.4387064
      },
      "nodes": [
        10201664305,
        10201664302,
        9721925919,
        10201664288,
        10201664305
      ],
      "tags": {
        "amenity": "bar",
        "building": "roof",
        "building:levels": "1",
        "building:material": "wood",
        "building:use": "foodservice",
        "name": "Zephyr",
        "roof:material": "thatch",
        "roof:shape": "pyramidal"
      }
    },
    {
      "type": "way",
      "id": 1159543593,
      "timestamp": "2025-01-03T12:56:14Z",
      "version": 2,
      "changeset": 160947821,
      "user": "Airiver",
      "uid": 13901111,
      "center": {
        "lat": 5.9366298,
        "lon": 80.5270132
      },
      "nodes": [
        10783345472,
        10783345488,
        10783345492,
        10783345486,
        10783345472
      ],
      "tags": {
        "amenity": "bar",
        "building": "yes",
        "name": "Reef, Wind & Fire"
      }
    },
    {
      "type": "way",
      "id": 1185761052,
      "timestamp": "2023-06-29T17:00:22Z",
      "version": 1,
      "changeset": 137927191,
      "user": "Marco de Kretser",
      "uid": 19721235,
      "center": {
        "lat": 6.5405085,
        "lon": 80.0416809
      },
      "nodes": [
        11014355074,
        11014355075,
        11014355076,
        11014355077,
        11014355074
      ],
      "tags": {
        "amenity": "bar",
        "building": "yes"
      }
    },
    {
      "type": "way",
      "id": 1228597800,
      "timestamp": "2023-12-04T10:12:44Z",
      "version": 1,
      "changeset": 144748540,
      "user": "nimalsanjayan",
      "uid": 8309981,
      "center": {
        "lat": 7.1882207,
        "lon": 81.8606258
      },
      "nodes": [
        11393757197,
        11386811340,
        11386811339,
        11393757194,
        11393757193,
        11393757192,
        11393757191,
        11393757190,
        11393757197
      ],
      "tags": {
        "amenity": "bar",
        "name": "Green Bar & Restaurant",
        "outdoor_seating": "yes",
        "smoking": "yes",
        "wheelchair": "yes"
      }
    },
    {
      "type": "way",
      "id": 1229797067,
      "timestamp": "2023-12-09T00:36:26Z",
      "version": 1,
      "changeset": 144921777,
      "user": "gemsquash",
      "uid": 503169,
      "center": {
        "lat": 6.9854215,
        "lon": 81.0583103
      },
      "nodes": [
        11404331944,
        11404331945,
        11404331946,
        5254684989,
        5254684970,
        11404331961,
        11404331944
      ],
      "tags": {
        "amenity": "biergarten"
      }
    },
    {
      "type": "way",
      "id": 1308624574,
      "timestamp": "2024-08-18T16:25:12Z",
      "version": 1,
      "changeset": 155423520,
      "user": "tanzwiese",
      "uid": 10107184,
      "center": {
        "lat": 7.9502891,
        "lon": 80.7592953
      },
      "nodes": [
        12118680364,
        12118680365,
        12118680366,
        12118680367,
        12118680364
      ],
      "tags": {
        "amenity": "pub",
        "building": "yes",
        "check_date": "2024-08-17",
        "name": "The Downtown Gastropub"
      }
    },
    {
      "type": "way",
      "id": 1370063853,
      "timestamp": "2025-03-21T17:48:38Z",
      "version": 1,
      "changeset": 163917828,
      "user": "Airiver",
      "uid": 13901111,
      "center": {
        "lat": 5.9363036,
        "lon": 80.5167436
      },
      "nodes": [
        12688202274,
        12688202271,
        12688202261,
        12688202285,
        12688202262,
        12688202275,
        12688202274
      ],
      "tags": {
        "amenity": "bar",
        "barrier": "fence",
        "name": "360° Sunset Bar"
      }
    },
    {
      "type": "way",
      "id": 1414198410,
      "timestamp": "2025-07-12T05:16:08Z",
      "version": 1,
      "changeset": 168821637,
      "user": "Paba2001",
      "uid": 22966748,
      "center": {
        "lat": 7.3286833,
        "lon": 80.0233898
      },
      "nodes": [
        5749705900,
        5749705897,
        5749705898,
        5749705899,
        5749705900
      ],
      "tags": {
        "amenity": "bar",
        "building": "yes"
      }
    }
  ]
}