{
  "version": 0.6,
  "generator": "Overpass API 0.7.62.8 e802775f",
  "osm3s": {
    "timestamp_osm_base": "2025-10-23T19:55:27Z",
    "copyright": "The data included in this document is from www.openstreetmap.org. The data is made available under ODbL."
  },
  "elements": [
    {
      "type": "node",
      "id": 303329302,
      "lat": 11.9306856,
      "lon": -85.9571098,
      "timestamp": "2011-02-04T16:21:20Z",
      "version": 4,
      "changeset": 7184555,
      "user": "keo",
      "uid": 391623,
      "tags": {
        "amenity": "pub",
        "name": "Cafe Conchis"
      }
    },
    {
      "type": "node",
      "id": 410806280,
      "lat": 14.1000982,
      "lon": -87.1840476,
      "timestamp": "2009-05-25T04:07:27Z",
      "version": 2,
      "changeset": 1312565,
      "user": "universallis",
      "uid": 104105,
      "tags": {
        "amenity": "pub",
        "name": "Papa Chacalin"
      }
    },
    {
      "type": "node",
      "id": 442754553,
      "lat": 14.0993299,
      "lon": -87.184036,
      "timestamp": "2014-06-23T21:13:39Z",
      "version": 2,
      "changeset": 23111188,
      "user": "Jolman Carcamo",
      "uid": 2105417,
      "tags": {
        "amenity": "pub"
      }
    },
    {
      "type": "node",
      "id": 442754564,
      "lat": 14.101504,
      "lon": -87.1861557,
      "timestamp": "2018-11-17T14:24:11Z",
      "version": 3,
      "changeset": 64597345,
      "user": "chachafish",
      "uid": 2237750,
      "tags": {
        "amenity": "pub",
        "name": "Rio"
      }
    },
    {
      "type": "node",
      "id": 442755676,
      "lat": 14.0859673,
      "lon": -87.174382,
      "timestamp": "2015-05-09T22:06:12Z",
      "version": 3,
      "changeset": 30949400,
      "user": "antoniolocandro",
      "uid": 1394059,
      "tags": {
        "amenity": "bar"
      }
    },
    {
      "type": "node",
      "id": 442755681,
      "lat": 14.086048,
      "lon": -87.1743846,
      "timestamp": "2015-05-09T22:06:12Z",
      "version": 2,
      "changeset": 30949400,
      "user": "antoniolocandro",
      "uid": 1394059,
      "tags": {
        "amenity": "pub"
      }
    },
    {
      "type": "node",
      "id": 471508717,
      "lat": 15.7922796,
      "lon": -86.7884352,
      "timestamp": "2011-06-26T04:17:50Z",
      "version": 3,
      "changeset": 8548401,
      "user": "xtreemze",
      "uid": 476031,
      "tags": {
        "amenity": "pub",
        "name": "Mango Tango"
      }
    },
    {
      "type": "node",
      "id": 497200577,
      "lat": 10.0033427,
      "lon": -84.164526,
      "timestamp": "2024-02-18T04:07:00Z",
      "version": 5,
      "changeset": 147594745,
      "user": "Stu D",
      "uid": 12781988,
      "tags": {
        "addr:city": "San Joaquín",
        "addr:street": "Calle La Trinidad",
        "amenity": "bar",
        "name": "Longhorn's"
      }
    },
    {
      "type": "node",
      "id": 510604309,
      "lat": 10.3325242,
      "lon": -83.9502169,
      "timestamp": "2023-01-11T19:30:13Z",
      "version": 3,
      "changeset": 131159104,
      "user": "traumwetter",
      "uid": 3825911,
      "tags": {
        "amenity": "pub",
        "description": "Before Las Horquetas",
        "name": "bar restaurant Salchis",
        "phone": "27647079"
      }
    },
    {
      "type": "node",
      "id": 540798050,
      "lat": 14.1072236,
      "lon": -87.1694584,
      "timestamp": "2009-10-26T16:01:58Z",
      "version": 1,
      "changeset": 2957360,
      "user": "universallis",
      "uid": 104105,
      "tags": {
        "amenity": "bar",
        "name": "Bungalow"
      }
    },
    {
      "type": "node",
      "id": 565047443,
      "lat": 15.784114,
      "lon": -87.4528442,
      "timestamp": "2023-07-26T00:32:03Z",
      "version": 4,
      "changeset": 139012250,
      "user": "Rodo05",
      "uid": 18042234,
      "tags": {
        "amenity": "bar",
        "name": "Arrecife",
        "source": "Reconocimiento cartográfico por KG 2016."
      }
    },
    {
      "type": "node",
      "id": 605257804,
      "lat": 14.0964145,
      "lon": -87.1942872,
      "timestamp": "2010-01-05T10:04:12Z",
      "version": 1,
      "changeset": 3543827,
      "user": "universallis",
      "uid": 104105,
      "tags": {
        "amenity": "bar",
        "name": "La Caramba"
      }
    },
    {
      "type": "node",
      "id": 630731974,
      "lat": 10.0076639,
      "lon": -84.1354188,
      "timestamp": "2021-08-25T18:29:37Z",
      "version": 4,
      "changeset": 110247399,
      "user": "joserrg12",
      "uid": 1104904,
      "tags": {
        "amenity": "bar",
        "name": "Bar Don Fer"
      }
    },
    {
      "type": "node",
      "id": 672173442,
      "lat": 15.7868404,
      "lon": -87.4470724,
      "timestamp": "2016-08-02T03:25:20Z",
      "version": 3,
      "changeset": 41182147,
      "user": "Canyonsrcool",
      "uid": 126508,
      "tags": {
        "addr:city": "Tela",
        "amenity": "bar",
        "name": "Capitan Beach Resort",
        "source": "Reconocimiento cartográfico por KG 2016."
      }
    },
    {
      "type": "node",
      "id": 743175129,
      "lat": 16.096332,
      "lon": -86.8943348,
      "timestamp": "2017-08-08T04:39:37Z",
      "version": 4,
      "changeset": 50932936,
      "user": "Davie Dean",
      "uid": 14505,
      "tags": {
        "amenity": "pub",
        "name": "La Pirata Bar & Grill"
      }
    },
    {
      "type": "node",
      "id": 744501786,
      "lat": 16.0962113,
      "lon": -86.8940949,
      "timestamp": "2010-05-22T06:06:14Z",
      "version": 2,
      "changeset": 4771648,
      "user": "tenzarelli",
      "uid": 69399,
      "tags": {
        "amenity": "pub",
        "name": "Main Street Lounge"
      }
    },
    {
      "type": "node",
      "id": 760235824,
      "lat": 10.0024426,
      "lon": -84.2154361,
      "timestamp": "2024-03-22T17:26:41Z",
      "version": 3,
      "changeset": 149023949,
      "user": "Rodo05",
      "uid": 18042234,
      "tags": {
        "addr:city": "Alajuela",
        "amenity": "pub",
        "name": "Bar Charlie's"
      }
    },
    {
      "type": "node",
      "id": 772400585,
      "lat": 10.027763,
      "lon": -84.3297897,
      "timestamp": "2017-08-02T18:44:48Z",
      "version": 3,
      "changeset": 50788139,
      "user": "joserrg12",
      "uid": 1104904,
      "tags": {
        "addr:city": "Puente de Piedra",
        "amenity": "bar",
        "name": "Bar Molanos"
      }
    },
    {
      "type": "node",
      "id": 772407905,
      "lat": 10.075348,
      "lon": -84.3110895,
      "timestamp": "2010-07-14T20:36:50Z",
      "version": 2,
      "changeset": 5221576,
      "user": "vogtgbr",
      "uid": 44547,
      "tags": {
        "addr:city": "Grecia",
        "amenity": "bar",
        "name": "Bar El Estadio"
      }
    },
    {
      "type": "node",
      "id": 772416034,
      "lat": 10.0662825,
      "lon": -84.332612,
      "timestamp": "2019-02-03T03:00:50Z",
      "version": 3,
      "changeset": 66868843,
      "user": "joserrg12",
      "uid": 1104904,
      "tags": {
        "addr:city": "Rincon de Arias",
        "amenity": "bar",
        "name": "Bar Hawai"
      }
    },
    {
      "type": "node",
      "id": 772426949,
      "lat": 10.1131157,
      "lon": -84.2880869,
      "timestamp": "2010-06-14T08:05:54Z",
      "version": 1,
      "changeset": 4985849,
      "user": "TI2KOL",
      "uid": 61957,
      "tags": {
        "amenity": "bar",
        "name": "Bar Los Gallos"
      }
    },
    {
      "type": "node",
      "id": 772426954,
      "lat": 10.1129169,
      "lon": -84.2882782,
      "timestamp": "2021-10-18T14:41:08Z",
      "version": 2,
      "changeset": 112656212,
      "user": "joserrg12",
      "uid": 1104904,
      "tags": {
        "amenity": "bar",
        "name": "Bar El Porton"
      }
    },
    {
      "type": "node",
      "id": 772432131,
      "lat": 10.1357617,
      "lon": -84.2831863,
      "timestamp": "2019-02-03T02:34:26Z",
      "version": 2,
      "changeset": 66868719,
      "user": "joserrg12",
      "uid": 1104904,
      "tags": {
        "amenity": "bar",
        "name": "Banana's Bar"
      }
    },
    {
      "type": "node",
      "id": 772433113,
      "lat": 10.1208735,
      "lon": -84.2997331,
      "timestamp": "2010-06-14T08:11:50Z",
      "version": 1,
      "changeset": 4985849,
      "user": "TI2KOL",
      "uid": 61957,
      "tags": {
        "amenity": "bar",
        "name": "Bar de Quincho"
      }
    },
    {
      "type": "node",
      "id": 772434112,
      "lat": 10.0850492,
      "lon": -84.3229262,
      "timestamp": "2023-02-20T04:56:07Z",
      "version": 3,
      "changeset": 132772935,
      "user": "Stu D",
      "uid": 12781988,
      "tags": {
        "amenity": "bar",
        "name": "Bar de Pelón"
      }
    },
    {
      "type": "node",
      "id": 772453482,
      "lat": 10.0948595,
      "lon": -84.3027854,
      "timestamp": "2017-01-30T02:31:38Z",
      "version": 2,
      "changeset": 45637599,
      "user": "joserrg12",
      "uid": 1104904,
      "tags": {
        "amenity": "bar",
        "name": "Bar Matamoros"
      }
    },
    {
      "type": "node",
      "id": 828483303,
      "lat": 12.1072581,
      "lon": -85.364204,
      "timestamp": "2013-03-10T07:05:53Z",
      "version": 2,
      "changeset": 15310265,
      "user": "alvarezbjm",
      "uid": 1257228,
      "tags": {
        "amenity": "bar",
        "name": "Arnold's Bar"
      }
    },
    {
      "type": "node",
      "id": 828504618,
      "lat": 12.1029809,
      "lon": -85.3666609,
      "timestamp": "2013-06-06T19:39:21Z",
      "version": 3,
      "changeset": 16447648,
      "user": "alvarezbjm",
      "uid": 1257228,
      "tags": {
        "amenity": "pub",
        "name": "La Yunta"
      }
    },
    {
      "type": "node",
      "id": 841182056,
      "lat": 12.1020029,
      "lon": -86.2455122,
      "timestamp": "2016-05-31T17:54:57Z",
      "version": 6,
      "changeset": 39694210,
      "user": "lishkin",
      "uid": 3237116,
      "tags": {
        "amenity": "bar",
        "name": "Claro Carretera a Masaya",
        "source": "KG Ground Survey 2016"
      }
    },
    {
      "type": "node",
      "id": 841182063,
      "lat": 12.1012297,
      "lon": -86.2454378,
      "timestamp": "2016-05-31T17:54:57Z",
      "version": 4,
      "changeset": 39694210,
      "user": "lishkin",
      "uid": 3237116,
      "tags": {
        "amenity": "bar",
        "name": "Broder",
        "source": "KG Ground Survey 2016"
      }
    },
    {
      "type": "node",
      "id": 865791751,
      "lat": 12.1020116,
      "lon": -86.2620094,
      "timestamp": "2015-04-19T03:56:40Z",
      "version": 3,
      "changeset": 30320402,
      "user": "jaakkoh",
      "uid": 24440,
      "tags": {
        "amenity": "bar",
        "level": "2",
        "wheelchair": "yes"
      }
    },
    {
      "type": "node",
      "id": 875237535,
      "lat": 10.0866165,
      "lon": -84.4758,
      "timestamp": "2025-10-21T20:35:15Z",
      "version": 3,
      "changeset": 173600866,
      "user": "TRodz",
      "uid": 23415104,
      "tags": {
        "addr:city": "San Ramón",
        "amenity": "bar",
        "name": "La KZ"
      }
    },
    {
      "type": "node",
      "id": 875251266,
      "lat": 10.099172,
      "lon": -84.471981,
      "timestamp": "2010-08-23T06:01:53Z",
      "version": 1,
      "changeset": 5567984,
      "user": "TI2KOL",
      "uid": 61957,
      "tags": {
        "amenity": "bar",
        "name": "Evolucion"
      }
    },
    {
      "type": "node",
      "id": 877302798,
      "lat": 11.9305656,
      "lon": -85.9574116,
      "timestamp": "2011-02-04T16:21:20Z",
      "version": 2,
      "changeset": 7184555,
      "user": "keo",
      "uid": 391623,
      "tags": {
        "amenity": "bar",
        "name": "Omix Bar"
      }
    },
    {
      "type": "node",
      "id": 887677031,
      "lat": 12.1194289,
      "lon": -86.2551535,
      "timestamp": "2014-02-11T00:41:54Z",
      "version": 4,
      "changeset": 20495753,
      "user": "jaakkoh",
      "uid": 24440,
      "tags": {
        "amenity": "bar",
        "name": "La Vicky",
        "tourism": "attraction"
      }
    },
    {
      "type": "node",
      "id": 928631058,
      "lat": 10.7099322,
      "lon": -85.2236826,
      "timestamp": "2021-04-26T20:22:41Z",
      "version": 5,
      "changeset": 103659739,
      "user": "joserrg12",
      "uid": 1104904,
      "tags": {
        "addr:housenumber": "2673-0363",
        "addr:street": "Calle Central",
        "amenity": "bar",
        "email": "Gilmatamoros@gmail.com",
        "internet_access": "wlan",
        "name": "Restaurante & Bar Sotavento",
        "opening_hours": "Mo-Su 11:00-22:00",
        "phone": "83292626"
      }
    },
    {
      "type": "node",
      "id": 977775128,
      "lat": 16.0636436,
      "lon": -86.9673207,
      "timestamp": "2017-08-07T13:46:20Z",
      "version": 4,
      "changeset": 50918565,
      "user": "zwombie",
      "uid": 375427,
      "tags": {
        "amenity": "pub",
        "name": "Doil's Bar"
      }
    },
    {
      "type": "node",
      "id": 992811780,
      "lat": 16.3501484,
      "lon": -86.4550222,
      "timestamp": "2010-11-17T16:02:28Z",
      "version": 1,
      "changeset": 6393689,
      "user": "Dixonhn",
      "uid": 371524,
      "tags": {
        "amenity": "bar",
        "name": "Zoila's Bar"
      }
    },
    {
      "type": "node",
      "id": 992811782,
      "lat": 16.3509151,
      "lon": -86.4530037,
      "timestamp": "2024-06-08T03:46:47Z",
      "version": 3,
      "changeset": 152398377,
      "user": "Warren Post",
      "uid": 2102012,
      "tags": {
        "amenity": "bar",
        "name": "La Pasadita"
      }
    },
    {
      "type": "node",
      "id": 1037448884,
      "lat": 10.1069156,
      "lon": -84.3871505,
      "timestamp": "2017-06-27T18:57:57Z",
      "version": 2,
      "changeset": 49870805,
      "user": "joserrg12",
      "uid": 1104904,
      "tags": {
        "amenity": "bar",
        "name": "Bar PK2"
      }
    },
    {
      "type": "node",
      "id": 1037466646,
      "lat": 10.1599683,
      "lon": -84.3743091,
      "timestamp": "2019-02-20T22:27:55Z",
      "version": 3,
      "changeset": 67409929,
      "user": "joserrg12",
      "uid": 1104904,
      "tags": {
        "amenity": "bar",
        "name": "La taberna de Leo"
      }
    },
    {
      "type": "node",
      "id": 1046802198,
      "lat": 19.2821813,
      "lon": -81.3454638,
      "timestamp": "2024-09-30T22:44:33Z",
      "version": 5,
      "changeset": 157316636,
      "user": "CrispyRhinoceros",
      "uid": 22015409,
      "tags": {
        "amenity": "pub",
        "name": "Salty's"
      }
    },
    {
      "type": "node",
      "id": 1046802205,
      "lat": 19.311101,
      "lon": -81.3846076,
      "timestamp": "2016-02-06T04:19:46Z",
      "version": 4,
      "changeset": 37034644,
      "user": "Canyonsrcool",
      "uid": 126508,
      "tags": {
        "addr:city": "West Bay",
        "addr:street": "West Bay Road",
        "amenity": "pub",
        "level": "2",
        "name": "Fidel Murphys",
        "source": "KG Ground Survey 2015"
      }
    },
    {
      "type": "node",
      "id": 1095909330,
      "lat": 12.1433415,
      "lon": -86.2758406,
      "timestamp": "2013-09-28T13:35:20Z",
      "version": 6,
      "changeset": 18076926,
      "user": "jaakkoh",
      "uid": 24440,
      "tags": {
        "amenity": "bar",
        "name": "Bar Grillito",
        "short_name": "El Grillito"
      }
    },
    {
      "type": "node",
      "id": 1118465885,
      "lat": 19.3183043,
      "lon": -81.3823755,
      "timestamp": "2016-02-06T04:17:21Z",
      "version": 4,
      "changeset": 37034644,
      "user": "Canyonsrcool",
      "uid": 126508,
      "tags": {
        "amenity": "bar",
        "name": "Aqua Beach",
        "source": "KG Ground Survey 2015"
      }
    },
    {
      "type": "node",
      "id": 1118465886,
      "lat": 19.3123818,
      "lon": -81.3850861,
      "timestamp": "2015-02-17T13:58:34Z",
      "version": 3,
      "changeset": 28909453,
      "user": "wilbur-d",
      "uid": 2082444,
      "tags": {
        "addr:housename": "Seven Mile Shops",
        "addr:street": "West Bay Road",
        "amenity": "bar",
        "name": "Nectar Bar"
      }
    },
    {
      "type": "node",
      "id": 1118465899,
      "lat": 19.3185174,
      "lon": -81.3823502,
      "timestamp": "2022-05-07T20:22:33Z",
      "version": 4,
      "changeset": 120681727,
      "user": "b-jazz-bot",
      "uid": 9451067,
      "tags": {
        "amenity": "pub",
        "email": "info@craftcayman.com",
        "name": "Craft",
        "opening_hours": "Mo-Fr 11:30+; Sa-Su  10:30+",
        "phone": "+1 345 640 0004",
        "website": "https://craftcayman.com/"
      }
    },
    {
      "type": "node",
      "id": 1122551789,
      "lat": 19.317625,
      "lon": -81.3847249,
      "timestamp": "2022-09-15T18:37:25Z",
      "version": 4,
      "changeset": 126235964,
      "user": "Kadubei",
      "uid": 16642036,
      "tags": {
        "amenity": "bar",
        "name": "Sol"
      }
    },
    {
      "type": "node",
      "id": 1133850779,
      "lat": 10.2817662,
      "lon": -83.7234645,
      "timestamp": "2021-05-21T18:40:05Z",
      "version": 5,
      "changeset": 105106024,
      "user": "joserrg12",
      "uid": 1104904,
      "tags": {
        "amenity": "bar",
        "name": "Bar Acuario"
      }
    },
    {
      "type": "node",
      "id": 1133999858,
      "lat": 10.2790451,
      "lon": -83.7263156,
      "timestamp": "2019-07-17T01:27:09Z",
      "version": 4,
      "changeset": 72327098,
      "user": "porfiriopaiz",
      "uid": 1621340,
      "tags": {
        "amenity": "pub",
        "name": "Salón Netos"
      }
    },
    {
      "type": "node",
      "id": 1140913037,
      "lat": 11.9281917,
      "lon": -85.9557149,
      "timestamp": "2014-05-28T16:46:59Z",
      "version": 3,
      "changeset": 22604077,
      "user": "jaakkoh",
      "uid": 24440,
      "tags": {
        "amenity": "bar",
        "name": "Cyberbar"
      }
    },
    {
      "type": "node",
      "id": 1145529704,
      "lat": 11.9299127,
      "lon": -85.949501,
      "timestamp": "2016-05-25T17:53:23Z",
      "version": 4,
      "changeset": 39562051,
      "user": "JuanVerde",
      "uid": 3474216,
      "tags": {
        "amenity": "bar",
        "name": "Mombacho Cigars",
        "source": "KG Ground Survey 2016"
      }
    },
    {
      "type": "node",
      "id": 1145539010,
      "lat": 11.9299095,
      "lon": -85.9505105,
      "timestamp": "2016-05-25T17:53:19Z",
      "version": 9,
      "changeset": 39562051,
      "user": "JuanVerde",
      "uid": 3474216,
      "tags": {
        "amenity": "bar",
        "name": "Coyote Bar & Grill",
        "source": "KG Ground Survey 2016"
      }
    },
    {
      "type": "node",
      "id": 1145555052,
      "lat": 11.9291369,
      "lon": -85.9535117,
      "timestamp": "2014-06-30T15:14:59Z",
      "version": 3,
      "changeset": 23351324,
      "user": "jaakkoh",
      "uid": 24440,
      "tags": {
        "amenity": "bar",
        "name": "La Gran Francia Lobby Bar"
      }
    },
    {
      "type": "node",
      "id": 1152826780,
      "lat": 15.7942839,
      "lon": -86.7854249,
      "timestamp": "2023-07-28T21:36:04Z",
      "version": 4,
      "changeset": 139153346,
      "user": "Rodo05",
      "uid": 18042234,
      "tags": {
        "amenity": "bar",
        "name": "Hibou"
      }
    },
    {
      "type": "node",
      "id": 1172702405,
      "lat": 10.6201422,
      "lon": -84.5248043,
      "timestamp": "2024-04-24T20:45:50Z",
      "version": 3,
      "changeset": 150466970,
      "user": "Rodo05",
      "uid": 18042234,
      "tags": {
        "amenity": "bar",
        "name": "Bar y Rest Doña Nena"
      }
    },
    {
      "type": "node",
      "id": 1202633348,
      "lat": 12.4140493,
      "lon": -86.8804761,
      "timestamp": "2011-03-15T03:53:18Z",
      "version": 1,
      "changeset": 7563083,
      "user": "HeinzVoerbakje",
      "uid": 417087,
      "tags": {
        "amenity": "pub",
        "name": "Gallero La Colonia"
      }
    },
    {
      "type": "node",
      "id": 1227268747,
      "lat": 16.0966923,
      "lon": -86.8957129,
      "timestamp": "2017-08-08T04:39:37Z",
      "version": 2,
      "changeset": 50932936,
      "user": "Davie Dean",
      "uid": 14505,
      "tags": {
        "amenity": "bar",
        "name": "Tranquilla"
      }
    },
    {
      "type": "node",
      "id": 1229022483,
      "lat": 10.6295434,
      "lon": -85.4387786,
      "timestamp": "2016-07-19T20:35:41Z",
      "version": 3,
      "changeset": 40879891,
      "user": "joserrg12",
      "uid": 1104904,
      "tags": {
        "addr:city": "Liberia",
        "addr:street": "Calle 2",
        "amenity": "bar",
        "name": "Guanas"
      }
    },
    {
      "type": "node",
      "id": 1229026698,
      "lat": 10.6280952,
      "lon": -85.4390917,
      "timestamp": "2016-10-21T11:38:31Z",
      "version": 3,
      "changeset": 43057183,
      "user": "Roberto Urbina Muñoz",
      "uid": 4722512,
      "tags": {
        "addr:city": "Liberia",
        "amenity": "bar",
        "name": "Bar y Restaurante Fusión Latino"
      }
    },
    {
      "type": "node",
      "id": 1230250849,
      "lat": 10.5888323,
      "lon": -85.6485779,
      "timestamp": "2017-02-15T19:09:32Z",
      "version": 2,
      "changeset": 46116298,
      "user": "joserrg12",
      "uid": 1104904,
      "tags": {
        "amenity": "bar",
        "name": "Bar El Guanacaste"
      }
    },
    {
      "type": "node",
      "id": 1230315747,
      "lat": 10.5690569,
      "lon": -85.6742221,
      "timestamp": "2016-01-05T18:14:40Z",
      "version": 4,
      "changeset": 36386545,
      "user": "Daniel M Moore",
      "uid": 3501179,
      "tags": {
        "addr:city": "Playa Hermosa",
        "amenity": "bar",
        "name": "No Problema Sport Bar"
      }
    },
    {
      "type": "node",
      "id": 1230332822,
      "lat": 10.571079,
      "lon": -85.673538,
      "timestamp": "2016-01-05T18:14:40Z",
      "version": 2,
      "changeset": 36386545,
      "user": "Daniel M Moore",
      "uid": 3501179,
      "tags": {
        "addr:city": "Playa Hermosa",
        "amenity": "bar",
        "name": "Bar Costa Cangrejo"
      }
    },
    {
      "type": "node",
      "id": 1231481872,
      "lat": 10.5284468,
      "lon": -85.6352292,
      "timestamp": "2016-06-18T22:33:51Z",
      "version": 2,
      "changeset": 40124950,
      "user": "joserrg12",
      "uid": 1104904,
      "tags": {
        "amenity": "bar",
        "name": "Bar el Sueño"
      }
    },
    {
      "type": "node",
      "id": 1231573460,
      "lat": 10.5337099,
      "lon": -85.6630614,
      "timestamp": "2025-02-14T05:49:40Z",
      "version": 3,
      "changeset": 162489805,
      "user": "Stu D",
      "uid": 12781988,
      "tags": {
        "amenity": "pub",
        "name": "Discoteca El Pirata Cojo"
      }
    },
    {
      "type": "node",
      "id": 1231971760,
      "lat": 10.4584566,
      "lon": -85.7730912,
      "timestamp": "2021-07-18T22:03:31Z",
      "version": 2,
      "changeset": 108209527,
      "user": "Le Peq",
      "uid": 2558786,
      "tags": {
        "amenity": "bar",
        "name": "Bar Las Brisas",
        "opening_hours": "Mo-Su 12:00-22:00",
        "outdoor_seating": "yes",
        "payment:credit_cards": "yes"
      }
    },
    {
      "type": "node",
      "id": 1241948620,
      "lat": 10.4397841,
      "lon": -85.7897932,
      "timestamp": "2016-02-24T21:57:20Z",
      "version": 3,
      "changeset": 37423002,
      "user": "Canyonsrcool",
      "uid": 126508,
      "tags": {
        "amenity": "bar",
        "source": "KG Ground Survey 2016"
      }
    },
    {
      "type": "node",
      "id": 1243914659,
      "lat": 16.3018026,
      "lon": -89.42056,
      "timestamp": "2021-10-17T10:23:13Z",
      "version": 2,
      "changeset": 112605519,
      "user": "Becky Candy",
      "uid": 8970545,
      "tags": {
        "amenity": "bar"
      }
    },
    {
      "type": "node",
      "id": 1245016915,
      "lat": 11.0297376,
      "lon": -84.7167339,
      "timestamp": "2015-04-17T20:05:19Z",
      "version": 3,
      "changeset": 30294134,
      "user": "joserrg12",
      "uid": 1104904,
      "tags": {
        "addr:city": "Los Chiles",
        "addr:street": "Calle 2",
        "amenity": "bar",
        "name": "Bar Rincón Cervecero"
      }
    },
    {
      "type": "node",
      "id": 1245044779,
      "lat": 10.9541151,
      "lon": -84.6633882,
      "timestamp": "2021-03-17T14:45:36Z",
      "version": 3,
      "changeset": 101197291,
      "user": "joserrg12",
      "uid": 1104904,
      "tags": {
        "amenity": "bar",
        "name": "Bar el Yugo"
      }
    },
    {
      "type": "node",
      "id": 1256946847,
      "lat": 10.0112983,
      "lon": -84.0947518,
      "timestamp": "2020-02-20T14:25:47Z",
      "version": 5,
      "changeset": 81277094,
      "user": "joserrg12",
      "uid": 1104904,
      "tags": {
        "addr:city": "Santiago",
        "amenity": "bar",
        "name": "Bar La Cubana"
      }
    },
    {
      "type": "node",
      "id": 1257164578,
      "lat": 10.0139895,
      "lon": -84.1378935,
      "timestamp": "2011-04-23T21:22:16Z",
      "version": 1,
      "changeset": 7947724,
      "user": "TI2KOL",
      "uid": 61957,
      "tags": {
        "amenity": "bar",
        "name": "Bar Leon Dorado"
      }
    },
    {
      "type": "node",
      "id": 1257711077,
      "lat": 10.8966028,
      "lon": -85.0176638,
      "timestamp": "2024-02-15T17:42:45Z",
      "version": 6,
      "changeset": 147501806,
      "user": "Rodo05",
      "uid": 18042234,
      "tags": {
        "addr:city": "Upala",
        "amenity": "bar",
        "name": "Bar Ríos"
      }
    },
    {
      "type": "node",
      "id": 1257755189,
      "lat": 10.9451529,
      "lon": -84.9644565,
      "timestamp": "2019-10-19T18:09:56Z",
      "version": 3,
      "changeset": 75936463,
      "user": "joserrg12",
      "uid": 1104904,
      "tags": {
        "addr:city": "Yolillal",
        "amenity": "bar",
        "name": "Bar San Ramón"
      }
    },
    {
      "type": "node",
      "id": 1262971447,
      "lat": 10.0025399,
      "lon": -84.0944077,
      "timestamp": "2023-07-04T00:07:28Z",
      "version": 6,
      "changeset": 138083967,
      "user": "Rodo05",
      "uid": 18042234,
      "tags": {
        "amenity": "bar",
        "name": "Bar Italia"
      }
    },
    {
      "type": "node",
      "id": 1262971449,
      "lat": 10.0008775,
      "lon": -84.0961462,
      "timestamp": "2018-02-19T13:07:25Z",
      "version": 4,
      "changeset": 56491552,
      "user": "joserrg12",
      "uid": 1104904,
      "tags": {
        "addr:city": "San Pablo",
        "addr:street": "Avenida 7",
        "amenity": "bar",
        "name": "Bar Burbujas"
      }
    },
    {
      "type": "node",
      "id": 1263107146,
      "lat": 10.0195073,
      "lon": -84.302713,
      "timestamp": "2023-02-19T20:52:26Z",
      "version": 2,
      "changeset": 132765204,
      "user": "Stu D",
      "uid": 12781988,
      "tags": {
        "amenity": "bar",
        "name": "Patos Bar"
      }
    },
    {
      "type": "node",
      "id": 1272525315,
      "lat": 14.0761239,
      "lon": -87.2015276,
      "timestamp": "2011-05-04T22:03:12Z",
      "version": 1,
      "changeset": 8053104,
      "user": "Mandino",
      "uid": 449589,
      "tags": {
        "amenity": "bar"
      }
    },
    {
      "type": "node",
      "id": 1287183816,
      "lat": 12.1416542,
      "lon": -86.2306054,
      "timestamp": "2020-03-29T00:21:25Z",
      "version": 2,
      "changeset": 82767181,
      "user": "porfiriopaiz",
      "uid": 1621340,
      "tags": {
        "amenity": "bar",
        "name": "El Clásico"
      }
    },
    {
      "type": "node",
      "id": 1295467897,
      "lat": 10.0445604,
      "lon": -84.3651354,
      "timestamp": "2017-07-01T18:11:29Z",
      "version": 4,
      "changeset": 49970282,
      "user": "joserrg12",
      "uid": 1104904,
      "tags": {
        "addr:city": "El Rosario",
        "addr:street": "Calle Pérez",
        "amenity": "bar",
        "name": "Bar Imperial"
      }
    },
    {
      "type": "node",
      "id": 1300357308,
      "lat": 10.0192699,
      "lon": -84.1934552,
      "timestamp": "2016-02-06T04:22:45Z",
      "version": 4,
      "changeset": 37034644,
      "user": "Canyonsrcool",
      "uid": 126508,
      "tags": {
        "amenity": "bar",
        "name": "Purus Bar",
        "source": "KG Ground Survey 2015"
      }
    },
    {
      "type": "node",
      "id": 1330148779,
      "lat": 10.2465005,
      "lon": -83.9185073,
      "timestamp": "2017-10-24T23:39:31Z",
      "version": 2,
      "changeset": 53222515,
      "user": "joserrg12",
      "uid": 1104904,
      "tags": {
        "amenity": "bar",
        "name": "Bar Yamis"
      }
    },
    {
      "type": "node",
      "id": 1331785484,
      "lat": 10.3671562,
      "lon": -83.8811312,
      "timestamp": "2017-10-24T03:14:40Z",
      "version": 3,
      "changeset": 53195753,
      "user": "joserrg12",
      "uid": 1104904,
      "tags": {
        "addr:city": "Las Horquetas",
        "amenity": "bar",
        "name": "Bar Los Amigos"
      }
    },
    {
      "type": "node",
      "id": 1331862095,
      "lat": 10.4370338,
      "lon": -83.9994111,
      "timestamp": "2021-10-25T18:26:47Z",
      "version": 3,
      "changeset": 112961451,
      "user": "joserrg12",
      "uid": 1104904,
      "tags": {
        "amenity": "bar",
        "name": "Bar La Machaca"
      }
    },
    {
      "type": "node",
      "id": 1331866896,
      "lat": 10.45485,
      "lon": -83.99026,
      "timestamp": "2011-06-20T02:26:38Z",
      "version": 1,
      "changeset": 8490574,
      "user": "TI2KOL",
      "uid": 61957,
      "tags": {
        "amenity": "bar",
        "name": "Bar Los Puriscaleños"
      }
    },
    {
      "type": "node",
      "id": 1331873829,
      "lat": 10.48252,
      "lon": -83.91053,
      "timestamp": "2011-06-20T02:31:16Z",
      "version": 1,
      "changeset": 8490592,
      "user": "TI2KOL",
      "uid": 61957,
      "tags": {
        "amenity": "bar",
        "name": "Bar Los Picapiedra"
      }
    },
    {
      "type": "node",
      "id": 1331892393,
      "lat": 10.3948671,
      "lon": -83.7873574,
      "timestamp": "2016-05-19T22:19:55Z",
      "version": 2,
      "changeset": 39438754,
      "user": "joserrg12",
      "uid": 1104904,
      "tags": {
        "amenity": "bar",
        "name": "Bar La Sirena"
      }
    },
    {
      "type": "node",
      "id": 1331894795,
      "lat": 10.41068,
      "lon": -83.76406,
      "timestamp": "2011-06-20T03:11:51Z",
      "version": 1,
      "changeset": 8490707,
      "user": "TI2KOL",
      "uid": 61957,
      "tags": {
        "amenity": "bar",
        "name": "Bar El Almendro"
      }
    },
    {
      "type": "node",
      "id": 1331946631,
      "lat": 10.5265192,
      "lon": -83.9612616,
      "timestamp": "2015-05-03T16:43:52Z",
      "version": 2,
      "changeset": 30753328,
      "user": "joserrg12",
      "uid": 1104904,
      "tags": {
        "amenity": "bar",
        "name": "Bar y Rancho Los Lirios"
      }
    },
    {
      "type": "node",
      "id": 1342970088,
      "lat": 10.02365,
      "lon": -83.27036,
      "timestamp": "2017-11-25T20:42:05Z",
      "version": 2,
      "changeset": 54081682,
      "user": "joserrg12",
      "uid": 1104904,
      "tags": {
        "addr:city": "Carrandí",
        "amenity": "bar",
        "name": "Bar el Comején"
      }
    },
    {
      "type": "node",
      "id": 1342970111,
      "lat": 10.0326183,
      "lon": -83.2641412,
      "timestamp": "2021-05-05T23:26:18Z",
      "version": 3,
      "changeset": 104211259,
      "user": "joserrg12",
      "uid": 1104904,
      "tags": {
        "amenity": "bar",
        "name": "Bar Rustico Los Pilones"
      }
    },
    {
      "type": "node",
      "id": 1363241437,
      "lat": 10.0209697,
      "lon": -84.8098836,
      "timestamp": "2021-04-27T19:27:38Z",
      "version": 4,
      "changeset": 103728231,
      "user": "joserrg12",
      "uid": 1104904,
      "tags": {
        "addr:city": "Pitahaya",
        "amenity": "bar",
        "name": "Bar Mary's"
      }
    },
    {
      "type": "node",
      "id": 1371610532,
      "lat": 10.0158885,
      "lon": -84.111393,
      "timestamp": "2018-05-17T15:06:22Z",
      "version": 2,
      "changeset": 59054069,
      "user": "joserrg12",
      "uid": 1104904,
      "tags": {
        "amenity": "pub",
        "name": "Complejo Paraiso"
      }
    },
    {
      "type": "node",
      "id": 1379579863,
      "lat": 10.013367,
      "lon": -84.0265221,
      "timestamp": "2011-07-31T04:35:38Z",
      "version": 1,
      "changeset": 8877383,
      "user": "Luis Carlos Solano",
      "uid": 336154,
      "tags": {
        "amenity": "bar",
        "name": "Bar y Restaurant Las Juntas"
      }
    },
    {
      "type": "node",
      "id": 1402542207,
      "lat": 10.04332,
      "lon": -84.19366,
      "timestamp": "2011-08-17T17:30:02Z",
      "version": 1,
      "changeset": 9049940,
      "user": "TI2KOL",
      "uid": 61957,
      "tags": {
        "amenity": "bar",
        "name": "Bar Tia Florita"
      }
    },
    {
      "type": "node",
      "id": 1402581700,
      "lat": 10.0643006,
      "lon": -84.1848531,
      "timestamp": "2018-09-25T20:06:40Z",
      "version": 4,
      "changeset": 62926320,
      "user": "joserrg12",
      "uid": 1104904,
      "tags": {
        "amenity": "bar",
        "name": "Bar Apolo 15"
      }
    },
    {
      "type": "node",
      "id": 1402581747,
      "lat": 10.0672564,
      "lon": -84.1833722,
      "timestamp": "2016-07-07T01:15:06Z",
      "version": 3,
      "changeset": 40532460,
      "user": "elotrojames",
      "uid": 175168,
      "tags": {
        "amenity": "bar",
        "name": "Bar Azteca"
      }
    },
    {
      "type": "node",
      "id": 1416795963,
      "lat": 10.2976453,
      "lon": -85.8426803,
      "timestamp": "2022-01-24T15:15:16Z",
      "version": 3,
      "changeset": 116545304,
      "user": "ilf",
      "uid": 261437,
      "tags": {
        "amenity": "bar",
        "name": "Babylon"
      }
    },
    {
      "type": "node",
      "id": 1416838810,
      "lat": 10.3044152,
      "lon": -85.8375383,
      "timestamp": "2022-02-16T13:51:54Z",
      "version": 6,
      "changeset": 117477992,
      "user": "ray331",
      "uid": 11726860,
      "tags": {
        "amenity": "bar",
        "name": "Crazy Money"
      }
    },
    {
      "type": "node",
      "id": 1433144057,
      "lat": 10.9573734,
      "lon": -85.1511518,
      "timestamp": "2021-11-08T15:17:39Z",
      "version": 2,
      "changeset": 113526898,
      "user": "joserrg12",
      "uid": 1104904,
      "tags": {
        "amenity": "bar",
        "name": "Bar el Escondido"
      }
    },
    {
      "type": "node",
      "id": 1433881171,
      "lat": 10.9295661,
      "lon": -85.0853561,
      "timestamp": "2018-05-08T23:33:45Z",
      "version": 2,
      "changeset": 58803381,
      "user": "joserrg12",
      "uid": 1104904,
      "tags": {
        "amenity": "bar",
        "name": "Bar El Pino"
      }
    },
    {
      "type": "node",
      "id": 1433881351,
      "lat": 10.9225113,
      "lon": -85.0634368,
      "timestamp": "2021-11-08T21:47:12Z",
      "version": 2,
      "changeset": 113540245,
      "user": "joserrg12",
      "uid": 1104904,
      "tags": {
        "amenity": "bar",
        "name": "Bar El Cacique"
      }
    },
    {
      "type": "node",
      "id": 1433882658,
      "lat": 10.91072,
      "lon": -85.04369,
      "timestamp": "2011-09-15T21:08:21Z",
      "version": 1,
      "changeset": 9311750,
      "user": "TI2KOL",
      "uid": 61957,
      "tags": {
        "amenity": "bar",
        "name": "Bar San Fernando"
      }
    },
    {
      "type": "node",
      "id": 1436800877,
      "lat": 10.0015025,
      "lon": -84.1383059,
      "timestamp": "2018-01-20T22:29:41Z",
      "version": 2,
      "changeset": 55615127,
      "user": "joserrg12",
      "uid": 1104904,
      "tags": {
        "amenity": "bar",
        "name": "Fofo's bar"
      }
    },
    {
      "type": "node",
      "id": 1437886509,
      "lat": 10.0975138,
      "lon": -83.50384,
      "timestamp": "2015-08-28T03:46:17Z",
      "version": 3,
      "changeset": 33634878,
      "user": "joserrg12",
      "uid": 1104904,
      "tags": {
        "addr:city": "Siquirres",
        "amenity": "bar",
        "internet_access": "no",
        "name": "Andrea"
      }
    },
    {
      "type": "node",
      "id": 1437886511,
      "lat": 10.0985162,
      "lon": -83.5037871,
      "timestamp": "2012-07-16T08:19:43Z",
      "version": 3,
      "changeset": 12240866,
      "user": "vogtgbr",
      "uid": 44547,
      "tags": {
        "addr:city": "Siquirres",
        "amenity": "bar",
        "internet_access": "no",
        "name": "El Yugo"
      }
    },
    {
      "type": "node",
      "id": 1437917669,
      "lat": 10.0972123,
      "lon": -83.5036174,
      "timestamp": "2012-07-16T08:19:43Z",
      "version": 2,
      "changeset": 12240866,
      "user": "vogtgbr",
      "uid": 44547,
      "tags": {
        "addr:city": "Siquirres",
        "amenity": "bar",
        "internet_access": "no",
        "name": "El Dique"
      }
    },
    {
      "type": "node",
      "id": 1457994148,
      "lat": 12.1417432,
      "lon": -86.275069,
      "timestamp": "2012-05-23T18:07:58Z",
      "version": 2,
      "changeset": 11683011,
      "user": "pantierra",
      "uid": 94253,
      "tags": {
        "amenity": "pub",
        "name": "La Lomita"
      }
    },
    {
      "type": "node",
      "id": 1460656575,
      "lat": 10.0358524,
      "lon": -84.198667,
      "timestamp": "2018-10-30T21:48:21Z",
      "version": 3,
      "changeset": 64025868,
      "user": "joserrg12",
      "uid": 1104904,
      "tags": {
        "amenity": "bar",
        "name": "Bar TKila's"
      }
    },
    {
      "type": "node",
      "id": 1460657428,
      "lat": 10.0800003,
      "lon": -84.1768504,
      "timestamp": "2023-05-12T05:03:09Z",
      "version": 3,
      "changeset": 136000937,
      "user": "Stu D",
      "uid": 12781988,
      "tags": {
        "amenity": "bar",
        "name": "Bar El Gavilán Alegre"
      }
    },
    {
      "type": "node",
      "id": 1460659031,
      "lat": 10.0788172,
      "lon": -84.1789801,
      "timestamp": "2023-05-12T05:03:09Z",
      "version": 3,
      "changeset": 136000937,
      "user": "Stu D",
      "uid": 12781988,
      "tags": {
        "amenity": "bar",
        "name": "Bar Jessy"
      }
    },
    {
      "type": "node",
      "id": 1460665186,
      "lat": 10.0523377,
      "lon": -84.1654333,
      "timestamp": "2022-07-13T14:29:39Z",
      "version": 4,
      "changeset": 123568345,
      "user": "joserrg12",
      "uid": 1104904,
      "tags": {
        "addr:city": "Purabá",
        "addr:street": "Vía 127",
        "amenity": "bar",
        "name": "Bar Los Pitufos"
      }
    },
    {
      "type": "node",
      "id": 1503159809,
      "lat": 10.0167279,
      "lon": -84.1309972,
      "timestamp": "2019-01-29T18:25:13Z",
      "version": 2,
      "changeset": 66747069,
      "user": "joserrg12",
      "uid": 1104904,
      "tags": {
        "amenity": "bar",
        "name": "Barbus"
      }
    },
    {
      "type": "node",
      "id": 1513089603,
      "lat": 10.5503332,
      "lon": -85.7000295,
      "timestamp": "2016-06-18T17:34:27Z",
      "version": 3,
      "changeset": 40120434,
      "user": "joserrg12",
      "uid": 1104904,
      "tags": {
        "amenity": "bar",
        "name": "Bar La Vida Loca"
      }
    },
    {
      "type": "node",
      "id": 1546675614,
      "lat": 13.4931554,
      "lon": -89.3845564,
      "timestamp": "2017-05-10T14:20:24Z",
      "version": 4,
      "changeset": 48563545,
      "user": "Magrac",
      "uid": 3784868,
      "tags": {
        "amenity": "bar",
        "cuisine": "fine_dining",
        "name": "Thekla, El Tunco"
      }
    },
    {
      "type": "node",
      "id": 1546675621,
      "lat": 13.494329,
      "lon": -89.3829309,
      "timestamp": "2011-12-15T03:26:16Z",
      "version": 1,
      "changeset": 10120965,
      "user": "Cartagena2011",
      "uid": 552917,
      "tags": {
        "amenity": "bar",
        "name": "Hp Bar"
      }
    },
    {
      "type": "node",
      "id": 1546675631,
      "lat": 13.4931543,
      "lon": -89.3848117,
      "timestamp": "2011-12-15T03:26:17Z",
      "version": 1,
      "changeset": 10120965,
      "user": "Cartagena2011",
      "uid": 552917,
      "tags": {
        "amenity": "bar",
        "name": "La Guitarra"
      }
    },
    {
      "type": "node",
      "id": 1546675635,
      "lat": 13.4945288,
      "lon": -89.3841947,
      "timestamp": "2016-02-06T04:17:18Z",
      "version": 4,
      "changeset": 37034644,
      "user": "Canyonsrcool",
      "uid": 126508,
      "tags": {
        "amenity": "bar",
        "name": "Antorcha Bohemia",
        "source": "KG Ground Survey 2015"
      }
    },
    {
      "type": "node",
      "id": 1546675658,
      "lat": 13.4944175,
      "lon": -89.3789398,
      "timestamp": "2011-12-15T03:26:18Z",
      "version": 1,
      "changeset": 10120965,
      "user": "Cartagena2011",
      "uid": 552917,
      "tags": {
        "amenity": "bar",
        "name": "Barlovento"
      }
    },
    {
      "type": "node",
      "id": 1554337960,
      "lat": 13.8688328,
      "lon": -89.8512259,
      "timestamp": "2012-09-16T19:43:55Z",
      "version": 2,
      "changeset": 13135413,
      "user": "Jean Michel Fouillade",
      "uid": 889049,
      "tags": {
        "amenity": "bar",
        "name": "Bar el Arky"
      }
    },
    {
      "type": "node",
      "id": 1556182206,
      "lat": 13.7036365,
      "lon": -89.2346877,
      "timestamp": "2017-12-18T02:17:40Z",
      "version": 2,
      "changeset": 54718321,
      "user": "Ghandi Navigate",
      "uid": 7272394,
      "tags": {
        "amenity": "bar",
        "name": "El Barracuda"
      }
    },
    {
      "type": "node",
      "id": 1556182403,
      "lat": 13.7042698,
      "lon": -89.2313829,
      "timestamp": "2011-12-20T19:59:22Z",
      "version": 1,
      "changeset": 10166496,
      "user": "Cartagena2011",
      "uid": 552917,
      "tags": {
        "amenity": "bar",
        "name": "Circo"
      }
    },
    {
      "type": "node",
      "id": 1618535804,
      "lat": 10.498116,
      "lon": -84.5260088,
      "timestamp": "2022-07-05T23:00:57Z",
      "version": 4,
      "changeset": 123253558,
      "user": "joserrg12",
      "uid": 1104904,
      "tags": {
        "amenity": "bar",
        "name": "Bar Los Tres Chiflados"
      }
    },
    {
      "type": "node",
      "id": 1619197421,
      "lat": 10.217297,
      "lon": -84.4007148,
      "timestamp": "2017-06-27T03:43:15Z",
      "version": 2,
      "changeset": 49851338,
      "user": "joserrg12",
      "uid": 1104904,
      "tags": {
        "amenity": "bar",
        "name": "Bar Tapezco"
      }
    },
    {
      "type": "node",
      "id": 1619214868,
      "lat": 10.30114,
      "lon": -84.42667,
      "timestamp": "2012-02-05T18:12:21Z",
      "version": 1,
      "changeset": 10596472,
      "user": "TI2KOL",
      "uid": 61957,
      "tags": {
        "amenity": "bar",
        "name": "Bar Aramacao"
      }
    },
    {
      "type": "node",
      "id": 1703809170,
      "lat": 13.734227,
      "lon": -89.2060746,
      "timestamp": "2012-04-06T03:25:26Z",
      "version": 1,
      "changeset": 11196438,
      "user": "gnburgos",
      "uid": 647075,
      "tags": {
        "amenity": "bar",
        "name": "La colmenita"
      }
    },
    {
      "type": "node",
      "id": 1719296082,
      "lat": 12.1307273,
      "lon": -86.2315224,
      "timestamp": "2025-07-18T15:07:23Z",
      "version": 2,
      "changeset": 169114474,
      "user": "Mike Ortega",
      "uid": 7965172,
      "tags": {
        "amenity": "bar",
        "name": "Cocteles Los Chilamates",
        "wifi": "no"
      }
    },
    {
      "type": "node",
      "id": 1721077119,
      "lat": 19.3469581,
      "lon": -81.0911749,
      "timestamp": "2022-07-05T06:07:16Z",
      "version": 5,
      "changeset": 123217505,
      "user": "protodrew",
      "uid": 12181312,
      "tags": {
        "amenity": "bar",
        "name": "Barefoot Man",
        "opening_hours": "Mo-Su 07:00-22:00",
        "source": "KG Ground Survey 2015"
      }
    },
    {
      "type": "node",
      "id": 1736471900,
      "lat": 10.262023,
      "lon": -83.6802308,
      "timestamp": "2019-07-17T01:27:09Z",
      "version": 3,
      "changeset": 72327098,
      "user": "porfiriopaiz",
      "uid": 1621340,
      "tags": {
        "amenity": "bar",
        "name": "Salón Centro de Amigos"
      }
    },
    {
      "type": "node",
      "id": 1738519078,
      "lat": 14.0889823,
      "lon": -87.1902883,
      "timestamp": "2015-02-12T20:47:27Z",
      "version": 2,
      "changeset": 28808120,
      "user": "andrewwiseman",
      "uid": 408282,
      "tags": {
        "addr:housename": "Marriott Tegucigalpa",
        "amenity": "bar",
        "name": "Winners",
        "source": "visit"
      }
    },
    {
      "type": "node",
      "id": 1748751269,
      "lat": 12.1195276,
      "lon": -86.2633338,
      "timestamp": "2018-11-24T01:37:27Z",
      "version": 4,
      "changeset": 64835512,
      "user": "chachafish",
      "uid": 2237750,
      "tags": {
        "amenity": "pub",
        "name": "El Parking",
        "note": "El Parking"
      }
    },
    {
      "type": "node",
      "id": 1748771740,
      "lat": 12.1244666,
      "lon": -86.2621369,
      "timestamp": "2013-09-16T00:50:05Z",
      "version": 4,
      "changeset": 17860122,
      "user": "jaakkoh",
      "uid": 24440,
      "tags": {
        "amenity": "pub",
        "karaoke": "yes",
        "name": "Claps Karaoke",
        "short_name": "Claps",
        "source": "survey"
      }
    },
    {
      "type": "node",
      "id": 1748771748,
      "lat": 12.1191042,
      "lon": -86.2629194,
      "timestamp": "2015-12-19T05:54:15Z",
      "version": 4,
      "changeset": 36039848,
      "user": "jaakkoh",
      "uid": 24440,
      "tags": {
        "amenity": "bar",
        "name": "Bar Fandango",
        "note": "Fandango"
      }
    },
    {
      "type": "node",
      "id": 1748811814,
      "lat": 12.1213298,
      "lon": -86.2665281,
      "timestamp": "2015-02-19T18:16:15Z",
      "version": 3,
      "changeset": 28961961,
      "user": "Futadict",
      "uid": 1753282,
      "tags": {
        "amenity": "bar",
        "name": "Ron Kon Rolas",
        "note": "Ron Kon Rolas"
      }
    },
    {
      "type": "node",
      "id": 1749023070,
      "lat": 12.1283008,
      "lon": -86.2711401,
      "timestamp": "2018-11-26T23:33:54Z",
      "version": 4,
      "changeset": 64915228,
      "user": "chachafish",
      "uid": 2237750,
      "tags": {
        "amenity": "pub",
        "name": "El Panal"
      }
    },
    {
      "type": "node",
      "id": 1763784800,
      "lat": 12.1331448,
      "lon": -86.2870237,
      "timestamp": "2013-09-22T04:08:20Z",
      "version": 4,
      "changeset": 17967052,
      "user": "Crisvann",
      "uid": 1434766,
      "tags": {
        "amenity": "pub",
        "name": "Cocteles Goussen"
      }
    },
    {
      "type": "node",
      "id": 1763784801,
      "lat": 12.1439428,
      "lon": -86.2812836,
      "timestamp": "2012-05-24T02:40:15Z",
      "version": 1,
      "changeset": 11686224,
      "user": "pantierra",
      "uid": 94253,
      "tags": {
        "amenity": "pub",
        "name": "El Viajero"
      }
    },
    {
      "type": "node",
      "id": 1799783981,
      "lat": 10.3602419,
      "lon": -85.7802528,
      "timestamp": "2012-06-23T19:56:51Z",
      "version": 1,
      "changeset": 11992877,
      "user": "TI2KOL",
      "uid": 61957,
      "tags": {
        "amenity": "bar",
        "name": "Bar Que Tuanis"
      }
    },
    {
      "type": "node",
      "id": 1829895328,
      "lat": 11.491159,
      "lon": -85.5409992,
      "timestamp": "2012-07-18T16:53:45Z",
      "version": 1,
      "changeset": 12289624,
      "user": "NightTsarina",
      "uid": 64381,
      "tags": {
        "amenity": "bar",
        "name": "El Descanso"
      }
    },
    {
      "type": "node",
      "id": 1830071540,
      "lat": 11.5117862,
      "lon": -85.6051791,
      "timestamp": "2012-07-18T19:21:18Z",
      "version": 1,
      "changeset": 12294566,
      "user": "NightTsarina",
      "uid": 64381,
      "tags": {
        "amenity": "bar"
      }
    },
    {
      "type": "node",
      "id": 1839000040,
      "lat": 10.3795769,
      "lon": -84.5399814,
      "timestamp": "2012-07-26T18:08:11Z",
      "version": 1,
      "changeset": 12501990,
      "user": "Cristian R C",
      "uid": 760484,
      "tags": {
        "amenity": "bar"
      }
    },
    {
      "type": "node",
      "id": 1843430426,
      "lat": 12.4372523,
      "lon": -86.879974,
      "timestamp": "2012-07-30T02:23:44Z",
      "version": 2,
      "changeset": 12542636,
      "user": "NightTsarina",
      "uid": 64381,
      "tags": {
        "amenity": "bar",
        "name": "Antorchas"
      }
    },
    {
      "type": "node",
      "id": 1843430427,
      "lat": 12.4372261,
      "lon": -86.8802851,
      "timestamp": "2022-05-21T23:29:21Z",
      "version": 4,
      "changeset": 121300863,
      "user": "porfiriopaiz",
      "uid": 1621340,
      "tags": {
        "amenity": "bar",
        "name": "Go Bar",
        "name:es": "Go Bar"
      }
    },
    {
      "type": "node",
      "id": 1843430428,
      "lat": 12.4371947,
      "lon": -86.8810469,
      "timestamp": "2012-07-30T02:23:44Z",
      "version": 2,
      "changeset": 12542636,
      "user": "NightTsarina",
      "uid": 64381,
      "tags": {
        "amenity": "bar",
        "name": "Déjà vu"
      }
    },
    {
      "type": "node",
      "id": 1893894079,
      "lat": 13.5045167,
      "lon": -84.2323125,
      "timestamp": "2012-09-01T21:27:38Z",
      "version": 1,
      "changeset": 12947176,
      "user": "MATAMOROSED",
      "uid": 402231,
      "tags": {
        "amenity": "bar",
        "name": "Bar de Alejandrina"
      }
    },
    {
      "type": "node",
      "id": 1927346245,
      "lat": 18.526178,
      "lon": -88.2880118,
      "timestamp": "2012-09-22T14:55:42Z",
      "version": 1,
      "changeset": 13208225,
      "user": "SOCCMA",
      "uid": 905202,
      "tags": {
        "amenity": "bar",
        "name": "scm laboratorio",
        "wifi": "no"
      }
    },
    {
      "type": "node",
      "id": 1965990806,
      "lat": 12.1027924,
      "lon": -86.2493509,
      "timestamp": "2024-02-16T21:02:32Z",
      "version": 4,
      "changeset": 147548831,
      "user": "Corban8",
      "uid": 4240913,
      "tags": {
        "amenity": "bar",
        "level": "2",
        "name": "Club Moods"
      }
    },
    {
      "type": "node",
      "id": 1973930791,
      "lat": 17.0878036,
      "lon": -88.9826344,
      "timestamp": "2022-06-25T00:13:41Z",
      "version": 5,
      "changeset": 122821906,
      "user": "tubroos",
      "uid": 888714,
      "tags": {
        "amenity": "bar",
        "name": "The Malfunktion Junktion",
        "website": "https://www.facebook.com/BarefootSkinnyMon"
      }
    },
    {
      "type": "node",
      "id": 1995471631,
      "lat": 11.9843915,
      "lon": -86.0969969,
      "timestamp": "2023-05-13T17:06:31Z",
      "version": 5,
      "changeset": 136061085,
      "user": "Marcarballo25",
      "uid": 19225539,
      "tags": {
        "amenity": "bar",
        "min_age": "18",
        "name": "Mystic Bar and lounge",
        "power": "yes",
        "smoking": "yes",
        "source": "KG Ground Survey 2016"
      }
    },
    {
      "type": "node",
      "id": 2000367399,
      "lat": 10.5159148,
      "lon": -85.5774869,
      "timestamp": "2021-04-23T19:20:30Z",
      "version": 3,
      "changeset": 103502455,
      "user": "joserrg12",
      "uid": 1104904,
      "tags": {
        "amenity": "bar",
        "name": "Bar Trapiche"
      }
    },
    {
      "type": "node",
      "id": 2065683669,
      "lat": 12.1390053,
      "lon": -86.2671596,
      "timestamp": "2014-06-07T22:41:32Z",
      "version": 7,
      "changeset": 22800910,
      "user": "jaakkoh",
      "uid": 24440,
      "tags": {
        "addr:street": "Del Busto José Martí 50 vrs al este",
        "alt_name": "Café Quilombo",
        "amenity": "bar",
        "internet_access": "wlan",
        "internet_access:fee": "no",
        "loc_name": "Cultura Quilombo",
        "name": "Centro Cultural Quilombo",
        "website": "http://www.culturaquilombo.org/",
        "wifi": "free"
      }
    },
    {
      "type": "node",
      "id": 2071427481,
      "lat": 10.0927823,
      "lon": -84.1076982,
      "timestamp": "2023-12-11T14:55:15Z",
      "version": 2,
      "changeset": 145003000,
      "user": "Rodo05",
      "uid": 18042234,
      "tags": {
        "amenity": "bar",
        "name": "Chagos"
      }
    },
    {
      "type": "node",
      "id": 2077755857,
      "lat": 12.1412179,
      "lon": -86.2292462,
      "timestamp": "2014-10-07T21:39:02Z",
      "version": 3,
      "changeset": 25928167,
      "user": "jaakkoh",
      "uid": 24440,
      "tags": {
        "alt_name": "Champs Sports Bar",
        "amenity": "pub",
        "name": "Champs Bar"
      }
    },
    {
      "type": "node",
      "id": 2081686725,
      "lat": 12.1194749,
      "lon": -86.2553341,
      "timestamp": "2014-02-11T00:41:54Z",
      "version": 3,
      "changeset": 20495753,
      "user": "jaakkoh",
      "uid": 24440,
      "tags": {
        "amenity": "bar",
        "name": "Aché Bar"
      }
    },
    {
      "type": "node",
      "id": 2082916763,
      "lat": 13.6928292,
      "lon": -89.2368547,
      "timestamp": "2012-12-26T05:16:39Z",
      "version": 1,
      "changeset": 14408410,
      "user": "JamesVlad",
      "uid": 1139445,
      "tags": {
        "amenity": "bar",
        "name": "Zanzibar"
      }
    },
    {
      "type": "node",
      "id": 2083463003,
      "lat": 10.0119844,
      "lon": -84.1182619,
      "timestamp": "2018-05-17T13:05:15Z",
      "version": 3,
      "changeset": 59050534,
      "user": "joserrg12",
      "uid": 1104904,
      "tags": {
        "addr:city": "Santa Lucía",
        "amenity": "bar",
        "name": "Salón Italia"
      }
    },
    {
      "type": "node",
      "id": 2085405086,
      "lat": 13.6798558,
      "lon": -89.2485895,
      "timestamp": "2012-12-28T06:51:34Z",
      "version": 1,
      "changeset": 14434313,
      "user": "JamesVlad",
      "uid": 1139445,
      "tags": {
        "amenity": "bar"
      }
    },
    {
      "type": "node",
      "id": 2106327258,
      "lat": 13.6748162,
      "lon": -89.2352007,
      "timestamp": "2025-04-02T19:06:53Z",
      "version": 4,
      "changeset": 164435625,
      "user": "ca11anza",
      "uid": 22703411,
      "tags": {
        "amenity": "bar",
        "cuisine": "regional",
        "name": "Bar",
        "source": "KG Ground Survey 2016"
      }
    },
    {
      "type": "node",
      "id": 2110022107,
      "lat": 12.1448919,
      "lon": -86.2327815,
      "timestamp": "2013-01-14T01:21:47Z",
      "version": 1,
      "changeset": 14643253,
      "user": "leogg",
      "uid": 374227,
      "tags": {
        "amenity": "bar",
        "name": "Blue Marlin"
      }
    },
    {
      "type": "node",
      "id": 2115119573,
      "lat": 10.0328585,
      "lon": -84.1274757,
      "timestamp": "2013-01-17T02:19:14Z",
      "version": 2,
      "changeset": 14679636,
      "user": "TI2KOL",
      "uid": 61957,
      "tags": {
        "amenity": "bar",
        "name": "Rancho de Berny"
      }
    },
    {
      "type": "node",
      "id": 2115121685,
      "lat": 10.0355628,
      "lon": -84.1290257,
      "timestamp": "2013-01-17T02:23:32Z",
      "version": 1,
      "changeset": 14679636,
      "user": "TI2KOL",
      "uid": 61957,
      "tags": {
        "amenity": "bar",
        "name": "Centro de Amigos"
      }
    },
    {
      "type": "node",
      "id": 2117357665,
      "lat": 13.637596,
      "lon": -89.379278,
      "timestamp": "2013-01-18T06:31:43Z",
      "version": 1,
      "changeset": 14692968,
      "user": "guille1087",
      "uid": 1203530,
      "tags": {
        "amenity": "bar"
      }
    },
    {
      "type": "node",
      "id": 2135326269,
      "lat": 16.9247957,
      "lon": -89.8971992,
      "timestamp": "2013-01-30T20:39:34Z",
      "version": 1,
      "changeset": 14852020,
      "user": "andasolo",
      "uid": 695091,
      "tags": {
        "amenity": "bar"
      }
    },
    {
      "type": "node",
      "id": 2136828248,
      "lat": 13.675101,
      "lon": -89.2849772,
      "timestamp": "2016-02-24T18:11:56Z",
      "version": 3,
      "changeset": 37418098,
      "user": "Canyonsrcool",
      "uid": 126508,
      "tags": {
        "amenity": "bar",
        "name": "Hard Bar",
        "source": "KG Ground Survey 2016"
      }
    },
    {
      "type": "node",
      "id": 2177762815,
      "lat": 10.4385514,
      "lon": -85.7923133,
      "timestamp": "2013-02-27T23:22:57Z",
      "version": 2,
      "changeset": 15191540,
      "user": "Glassman",
      "uid": 447903,
      "tags": {
        "amenity": "pub",
        "name": "Magazines Pool Bar"
      }
    },
    {
      "type": "node",
      "id": 2177819392,
      "lat": 10.4389535,
      "lon": -85.7925322,
      "timestamp": "2013-02-27T23:22:56Z",
      "version": 1,
      "changeset": 15191540,
      "user": "Glassman",
      "uid": 447903,
      "tags": {
        "amenity": "bar",
        "name": "Sunset Lounge"
      }
    },
    {
      "type": "node",
      "id": 2193741414,
      "lat": 12.1091346,
      "lon": -85.3615576,
      "timestamp": "2022-12-05T18:48:26Z",
      "version": 2,
      "changeset": 129752853,
      "user": "dodgese",
      "uid": 5530641,
      "tags": {
        "addr:city": "Juigalpa",
        "addr:street": "Calle de los Bomberos",
        "amenity": "pub",
        "name": "Restaurante Palo Solo",
        "opening_hours": "Mo-Su 11:00-22:00"
      }
    },
    {
      "type": "node",
      "id": 2245896079,
      "lat": 12.1412101,
      "lon": -86.2662468,
      "timestamp": "2013-07-26T00:06:33Z",
      "version": 2,
      "changeset": 17095891,
      "user": "pantierra",
      "uid": 94253,
      "tags": {
        "amenity": "pub",
        "name": "Bienvenidos"
      }
    },
    {
      "type": "node",
      "id": 2287112577,
      "lat": 14.4606739,
      "lon": -87.6407314,
      "timestamp": "2017-02-11T20:02:11Z",
      "version": 4,
      "changeset": 46006028,
      "user": "Warren Post",
      "uid": 2102012,
      "tags": {
        "addr:street": "5a Calle NE",
        "amenity": "bar",
        "name": "Gota de Limón"
      }
    },
    {
      "type": "node",
      "id": 2295430787,
      "lat": 10.4360698,
      "lon": -84.5678639,
      "timestamp": "2017-09-27T20:29:25Z",
      "version": 2,
      "changeset": 52425304,
      "user": "joserrg12",
      "uid": 1104904,
      "tags": {
        "amenity": "bar",
        "name": "Bar El Ramo"
      }
    },
    {
      "type": "node",
      "id": 2323371998,
      "lat": 10.0038018,
      "lon": -84.3710147,
      "timestamp": "2025-04-23T22:40:01Z",
      "version": 4,
      "changeset": 165354548,
      "user": "Rodo05",
      "uid": 18042234,
      "tags": {
        "addr:city": "Santa Eulalia",
        "addr:street": "Ruta Nacional 716",
        "amenity": "bar",
        "name": "Bar La I Griega"
      }
    },
    {
      "type": "node",
      "id": 2325667451,
      "lat": 15.4384234,
      "lon": -88.0099981,
      "timestamp": "2013-05-30T14:31:03Z",
      "version": 1,
      "changeset": 16352469,
      "user": "andrewwiseman",
      "uid": 408282,
      "tags": {
        "amenity": "pub",
        "name": "Billar",
        "sport": "billiards"
      }
    },
    {
      "type": "node",
      "id": 2326326523,
      "lat": 15.4314709,
      "lon": -88.0167492,
      "timestamp": "2013-05-30T20:48:11Z",
      "version": 1,
      "changeset": 16357294,
      "user": "andrewwiseman",
      "uid": 408282,
      "tags": {
        "amenity": "pub",
        "sport": "billiards"
      }
    },
    {
      "type": "node",
      "id": 2326326528,
      "lat": 15.4322163,
      "lon": -88.0163769,
      "timestamp": "2013-05-30T20:48:11Z",
      "version": 1,
      "changeset": 16357294,
      "user": "andrewwiseman",
      "uid": 408282,
      "tags": {
        "amenity": "pub"
      }
    },
    {
      "type": "node",
      "id": 2339598044,
      "lat": 14.1032157,
      "lon": -87.1969265,
      "timestamp": "2023-08-30T04:12:42Z",
      "version": 2,
      "changeset": 140567543,
      "user": "Rodo05",
      "uid": 18042234,
      "tags": {
        "amenity": "pub",
        "food": "no",
        "internet_access": "wlan",
        "name": "Angry Beaver",
        "outdoor_seating": "yes",
        "source": "Survey"
      }
    },
    {
      "type": "node",
      "id": 2342955397,
      "lat": 18.0837526,
      "lon": -88.5589386,
      "timestamp": "2022-08-02T15:14:59Z",
      "version": 3,
      "changeset": 124396797,
      "user": "CharliePlett",
      "uid": 4751364,
      "tags": {
        "amenity": "bar",
        "name": "Ft Mundi Bar"
      }
    },
    {
      "type": "node",
      "id": 2356338013,
      "lat": 10.1157076,
      "lon": -84.2711698,
      "timestamp": "2021-10-18T17:07:52Z",
      "version": 3,
      "changeset": 112662340,
      "user": "joserrg12",
      "uid": 1104904,
      "tags": {
        "amenity": "bar",
        "name": "Tumbas"
      }
    },
    {
      "type": "node",
      "id": 2358073178,
      "lat": 10.0752438,
      "lon": -84.27638,
      "timestamp": "2013-06-24T05:02:23Z",
      "version": 2,
      "changeset": 16678682,
      "user": "vogtgbr",
      "uid": 44547,
      "tags": {
        "addr:city": "Santa Gertrudis Sur",
        "amenity": "bar",
        "name": "Bar El Rio"
      }
    },
    {
      "type": "node",
      "id": 2358073179,
      "lat": 10.1023573,
      "lon": -84.2739106,
      "timestamp": "2019-02-02T22:33:54Z",
      "version": 2,
      "changeset": 66866457,
      "user": "joserrg12",
      "uid": 1104904,
      "tags": {
        "amenity": "bar",
        "name": "Bar La Clandestina"
      }
    },
    {
      "type": "node",
      "id": 2358174203,
      "lat": 10.0918617,
      "lon": -84.2558583,
      "timestamp": "2015-11-12T23:57:53Z",
      "version": 3,
      "changeset": 35274439,
      "user": "joserrg12",
      "uid": 1104904,
      "tags": {
        "addr:city": "San Rafael",
        "amenity": "bar",
        "name": "Bar El Rey"
      }
    },
    {
      "type": "node",
      "id": 2360965769,
      "lat": 10.6231969,
      "lon": -84.5251424,
      "timestamp": "2024-04-25T15:59:41Z",
      "version": 4,
      "changeset": 150503722,
      "user": "Rodo05",
      "uid": 18042234,
      "tags": {
        "amenity": "bar",
        "name": "Bar, Rest y Disco Junior"
      }
    },
    {
      "type": "node",
      "id": 2361967311,
      "lat": 10.6417581,
      "lon": -84.5300716,
      "timestamp": "2019-01-24T14:14:58Z",
      "version": 2,
      "changeset": 66603131,
      "user": "joserrg12",
      "uid": 1104904,
      "tags": {
        "amenity": "bar",
        "name": "Bar Olafos"
      }
    },
    {
      "type": "node",
      "id": 2361975271,
      "lat": 10.6243715,
      "lon": -84.5244262,
      "timestamp": "2017-06-27T21:50:39Z",
      "version": 2,
      "changeset": 49874491,
      "user": "joserrg12",
      "uid": 1104904,
      "tags": {
        "amenity": "bar",
        "name": "Bar y Rest Herradura"
      }
    },
    {
      "type": "node",
      "id": 2371339516,
      "lat": 11.1220024,
      "lon": -84.7781724,
      "timestamp": "2013-07-02T21:54:05Z",
      "version": 1,
      "changeset": 16798313,
      "user": "Creando",
      "uid": 132740,
      "tags": {
        "amenity": "bar",
        "name": "La Champa"
      }
    },
    {
      "type": "node",
      "id": 2379285189,
      "lat": 12.1386576,
      "lon": -86.2668514,
      "timestamp": "2024-11-13T14:02:41Z",
      "version": 4,
      "changeset": 159092927,
      "user": "Awo",
      "uid": 196556,
      "tags": {
        "addr:city": "Managua",
        "addr:street": "Paseo José Martí",
        "amenity": "pub",
        "name": "Parador Criollo"
      }
    },
    {
      "type": "node",
      "id": 2394275046,
      "lat": 10.105911,
      "lon": -84.2809289,
      "timestamp": "2013-07-23T19:08:49Z",
      "version": 1,
      "changeset": 17066023,
      "user": "vogtgbr",
      "uid": 44547,
      "tags": {
        "amenity": "bar",
        "name": "Charli's"
      }
    },
    {
      "type": "node",
      "id": 2394409114,
      "lat": 17.0712387,
      "lon": -89.1402773,
      "timestamp": "2017-03-15T03:26:35Z",
      "version": 2,
      "changeset": 46858102,
      "user": "CharliePlett",
      "uid": 4751364,
      "tags": {
        "amenity": "bar",
        "name": "Deja Vu Nite Club"
      }
    },
    {
      "type": "node",
      "id": 2394409117,
      "lat": 17.0657555,
      "lon": -89.134891,
      "timestamp": "2013-07-23T20:20:07Z",
      "version": 1,
      "changeset": 17067005,
      "user": "Alex Leon",
      "uid": 1672762,
      "tags": {
        "amenity": "bar",
        "name": "Flores Villas"
      }
    },
    {
      "type": "node",
      "id": 2395522497,
      "lat": 14.1038119,
      "lon": -87.1972325,
      "timestamp": "2023-08-30T04:12:42Z",
      "version": 2,
      "changeset": 140567543,
      "user": "Rodo05",
      "uid": 18042234,
      "tags": {
        "amenity": "bar",
        "name": "Mirador"
      }
    },
    {
      "type": "node",
      "id": 2418424430,
      "lat": 13.0806513,
      "lon": -85.995969,
      "timestamp": "2016-03-22T17:37:38Z",
      "version": 2,
      "changeset": 38004190,
      "user": "jaakkoh",
      "uid": 24440,
      "tags": {
        "amenity": "bar",
        "name": "Bar Colocho"
      }
    },
    {
      "type": "node",
      "id": 2418433965,
      "lat": 13.0809936,
      "lon": -85.9957599,
      "timestamp": "2013-08-14T01:58:59Z",
      "version": 1,
      "changeset": 17339179,
      "user": "Shariad",
      "uid": 1586531,
      "tags": {
        "amenity": "bar",
        "name": "Billar"
      }
    },
    {
      "type": "node",
      "id": 2431536214,
      "lat": 10.1423396,
      "lon": -85.4525296,
      "timestamp": "2018-02-19T19:46:11Z",
      "version": 4,
      "changeset": 56501504,
      "user": "quetzal-cr",
      "uid": 6835150,
      "tags": {
        "amenity": "pub",
        "internet_access": "no",
        "name": "Bar Le Chilé",
        "smoking": "no",
        "source": "KG Ground Survey 2015",
        "wheelchair": "yes"
      }
    },
    {
      "type": "node",
      "id": 2431536215,
      "lat": 10.1409127,
      "lon": -85.4572602,
      "timestamp": "2019-09-24T13:16:47Z",
      "version": 3,
      "changeset": 74857889,
      "user": "joserrg12",
      "uid": 1104904,
      "tags": {
        "amenity": "bar",
        "internet_access": "no",
        "name": "Bar Mi Limón",
        "smoking": "no",
        "wheelchair": "yes"
      }
    },
    {
      "type": "node",
      "id": 2434341180,
      "lat": 10.1531379,
      "lon": -85.4559032,
      "timestamp": "2023-07-07T15:03:08Z",
      "version": 4,
      "changeset": 138233171,
      "user": "Rodo05",
      "uid": 18042234,
      "tags": {
        "amenity": "pub",
        "internet_access": "no",
        "name": "Bar Lupita",
        "smoking": "no"
      }
    },
    {
      "type": "node",
      "id": 2447744844,
      "lat": 12.1170534,
      "lon": -86.2653599,
      "timestamp": "2014-02-23T03:00:19Z",
      "version": 2,
      "changeset": 20725440,
      "user": "roirobo",
      "uid": 463462,
      "tags": {
        "alt_name": "Irish Pub",
        "amenity": "pub",
        "name": "The Temple Bar",
        "source": "survey"
      }
    },
    {
      "type": "node",
      "id": 2448554584,
      "lat": 12.1278463,
      "lon": -86.2664613,
      "timestamp": "2021-06-11T20:29:22Z",
      "version": 4,
      "changeset": 106231815,
      "user": "FRANK0209",
      "uid": 4323731,
      "tags": {
        "addr:city": "Managua",
        "addr:housename": "La Selva",
        "addr:postcode": "14002",
        "addr:street": "25a Calle S.E.",
        "amenity": "bar",
        "name": "2 QUE 3 Sport Bar"
      }
    },
    {
      "type": "node",
      "id": 2448578225,
      "lat": 12.1215945,
      "lon": -86.2590553,
      "timestamp": "2023-11-04T02:02:31Z",
      "version": 3,
      "changeset": 143596661,
      "user": "miluethi",
      "uid": 19488,
      "tags": {
        "amenity": "bar",
        "name": "Pool Ocho",
        "sport": "pool"
      }
    },
    {
      "type": "node",
      "id": 2459993710,
      "lat": 10.2237402,
      "lon": -83.7858354,
      "timestamp": "2021-05-26T16:41:13Z",
      "version": 4,
      "changeset": 105370731,
      "user": "joserrg12",
      "uid": 1104904,
      "tags": {
        "amenity": "bar",
        "name": "Bar Tia Tere"
      }
    },
    {
      "type": "node",
      "id": 2460751030,
      "lat": 12.7313542,
      "lon": -86.3788089,
      "timestamp": "2013-09-16T18:59:24Z",
      "version": 1,
      "changeset": 17873745,
      "user": "RotBlau",
      "uid": 357344,
      "tags": {
        "amenity": "bar"
      }
    },
    {
      "type": "node",
      "id": 2474535174,
      "lat": 11.8991868,
      "lon": -86.6085618,
      "timestamp": "2013-09-27T22:42:09Z",
      "version": 1,
      "changeset": 18069890,
      "user": "jaakkoh",
      "uid": 24440,
      "tags": {
        "amenity": "bar",
        "source": "survey"
      }
    },
    {
      "type": "node",
      "id": 2474745226,
      "lat": 11.920898,
      "lon": -86.5466412,
      "timestamp": "2013-09-28T03:02:03Z",
      "version": 1,
      "changeset": 18070927,
      "user": "jaakkoh",
      "uid": 24440,
      "tags": {
        "amenity": "bar",
        "name": "Bar Mari",
        "source": "survey"
      }
    },
    {
      "type": "node",
      "id": 2474745230,
      "lat": 11.9207899,
      "lon": -86.5462386,
      "timestamp": "2013-09-28T03:02:03Z",
      "version": 1,
      "changeset": 18070927,
      "user": "jaakkoh",
      "uid": 24440,
      "tags": {
        "amenity": "bar",
        "name": "Bar Susana",
        "source": "survey"
      }
    },
    {
      "type": "node",
      "id": 2476105944,
      "lat": 12.1043584,
      "lon": -86.2657106,
      "timestamp": "2013-11-02T17:28:58Z",
      "version": 2,
      "changeset": 18678900,
      "user": "jaakkoh",
      "uid": 24440,
      "tags": {
        "amenity": "bar",
        "level": "2",
        "name": "Altana lounge restaurant bar"
      }
    },
    {
      "type": "node",
      "id": 2481348590,
      "lat": 16.9304664,
      "lon": -89.9117201,
      "timestamp": "2021-11-05T09:06:38Z",
      "version": 2,
      "changeset": 113399563,
      "user": "Steve J H",
      "uid": 10947284,
      "tags": {
        "amenity": "bar"
      }
    },
    {
      "type": "node",
      "id": 2481348592,
      "lat": 16.9301123,
      "lon": -89.9122352,
      "timestamp": "2013-10-03T16:15:21Z",
      "version": 1,
      "changeset": 18164109,
      "user": "andasolo",
      "uid": 695091,
      "tags": {
        "amenity": "bar"
      }
    },
    {
      "type": "node",
      "id": 2484617709,
      "lat": 12.1197052,
      "lon": -86.25624,
      "timestamp": "2018-10-02T21:11:13Z",
      "version": 3,
      "changeset": 63139023,
      "user": "mumblin",
      "uid": 8792850,
      "tags": {
        "amenity": "bar",
        "name": "Mi Vieja Habana",
        "note": "La Habana"
      }
    },
    {
      "type": "node",
      "id": 2490516100,
      "lat": 12.0927884,
      "lon": -86.2370139,
      "timestamp": "2013-11-25T02:58:10Z",
      "version": 2,
      "changeset": 19102822,
      "user": "jaakkoh",
      "uid": 24440,
      "tags": {
        "amenity": "bar",
        "name": "Duff bar",
        "source": "survey"
      }
    },
    {
      "type": "node",
      "id": 2493353233,
      "lat": 12.140789,
      "lon": -86.2408556,
      "timestamp": "2013-10-12T03:27:47Z",
      "version": 1,
      "changeset": 18307884,
      "user": "leogg",
      "uid": 374227,
      "tags": {
        "amenity": "pub",
        "name": "Jardín Central"
      }
    },
    {
      "type": "node",
      "id": 2509561778,
      "lat": 16.98164,
      "lon": -89.8994465,
      "timestamp": "2013-10-26T17:07:52Z",
      "version": 1,
      "changeset": 18554571,
      "user": "andasolo",
      "uid": 695091,
      "tags": {
        "amenity": "bar"
      }
    },
    {
      "type": "node",
      "id": 2511863790,
      "lat": 16.9295759,
      "lon": -89.8933609,
      "timestamp": "2014-01-24T01:20:10Z",
      "version": 2,
      "changeset": 20170287,
      "user": "RussNelson",
      "uid": 3962,
      "tags": {
        "amenity": "bar",
        "name": "Bill's Bar"
      }
    },
    {
      "type": "node",
      "id": 2511874485,
      "lat": 16.9263179,
      "lon": -89.8910819,
      "timestamp": "2013-10-28T18:57:26Z",
      "version": 1,
      "changeset": 18589796,
      "user": "andasolo",
      "uid": 695091,
      "tags": {
        "amenity": "bar"
      }
    },
    {
      "type": "node",
      "id": 2526083859,
      "lat": 10.7324283,
      "lon": -85.0534948,
      "timestamp": "2013-11-10T05:27:43Z",
      "version": 1,
      "changeset": 18810458,
      "user": "markpierce",
      "uid": 326703,
      "tags": {
        "amenity": "bar",
        "name": "Bar La Gaviota"
      }
    },
    {
      "type": "node",
      "id": 2526183001,
      "lat": 10.7667382,
      "lon": -85.0336404,
      "timestamp": "2018-05-07T18:47:50Z",
      "version": 2,
      "changeset": 58767351,
      "user": "joserrg12",
      "uid": 1104904,
      "tags": {
        "amenity": "bar",
        "name": "El Mirador"
      }
    },
    {
      "type": "node",
      "id": 2529801988,
      "lat": 16.0003348,
      "lon": -88.9185082,
      "timestamp": "2014-05-05T19:54:29Z",
      "version": 6,
      "changeset": 22153819,
      "user": "tubroos",
      "uid": 888714,
      "tags": {
        "amenity": "bar",
        "name": "Ms Antoinette's",
        "note": "try Barranco Guiness"
      }
    },
    {
      "type": "node",
      "id": 2539247448,
      "lat": 11.9726901,
      "lon": -86.0264932,
      "timestamp": "2014-05-28T16:46:58Z",
      "version": 2,
      "changeset": 22604077,
      "user": "jaakkoh",
      "uid": 24440,
      "tags": {
        "amenity": "bar",
        "name": "Bar La Fuente"
      }
    },
    {
      "type": "node",
      "id": 2542543706,
      "lat": 10.7343948,
      "lon": -83.9696165,
      "timestamp": "2019-04-26T12:54:08Z",
      "version": 3,
      "changeset": 69599200,
      "user": "joserrg12",
      "uid": 1104904,
      "tags": {
        "addr:city": "Cureña",
        "amenity": "bar",
        "name": "Bar California"
      }
    },
    {
      "type": "node",
      "id": 2551983135,
      "lat": 12.1138578,
      "lon": -86.2717139,
      "timestamp": "2013-11-26T04:04:55Z",
      "version": 1,
      "changeset": 19120790,
      "user": "jaakkoh",
      "uid": 24440,
      "tags": {
        "amenity": "bar",
        "name": "Swing"
      }
    },
    {
      "type": "node",
      "id": 2551983144,
      "lat": 12.0991489,
      "lon": -86.2265382,
      "timestamp": "2014-02-10T23:19:32Z",
      "version": 2,
      "changeset": 20494985,
      "user": "jaakkoh",
      "uid": 24440,
      "tags": {
        "amenity": "bar",
        "name": "Bar La Amistad"
      }
    },
    {
      "type": "node",
      "id": 2560871518,
      "lat": 12.1040749,
      "lon": -86.2491363,
      "timestamp": "2013-12-02T05:40:56Z",
      "version": 1,
      "changeset": 19227545,
      "user": "jaakkoh",
      "uid": 24440,
      "tags": {
        "amenity": "bar",
        "description": "Wine bar",
        "name": "Enoteca"
      }
    },
    {
      "type": "node",
      "id": 2560871525,
      "lat": 12.1015848,
      "lon": -86.245558,
      "timestamp": "2016-05-31T17:55:01Z",
      "version": 3,
      "changeset": 39694210,
      "user": "lishkin",
      "uid": 3237116,
      "tags": {
        "amenity": "bar",
        "name": "Music Town Karaoke Bar",
        "source": "KG Ground Survey 2016"
      }
    },
    {
      "type": "node",
      "id": 2560871612,
      "lat": 11.945831,
      "lon": -86.048114,
      "timestamp": "2014-02-11T18:07:24Z",
      "version": 2,
      "changeset": 20508115,
      "user": "jaakkoh",
      "uid": 24440,
      "tags": {
        "amenity": "bar",
        "name": "El Miradorcito",
        "source": "survey"
      }
    },
    {
      "type": "node",
      "id": 2571516127,
      "lat": 12.7634024,
      "lon": -87.4734647,
      "timestamp": "2013-12-08T15:09:57Z",
      "version": 1,
      "changeset": 19342168,
      "user": "worldwidewolford",
      "uid": 395416,
      "tags": {
        "amenity": "bar",
        "name": "Bar Zulema"
      }
    },
    {
      "type": "node",
      "id": 2571516140,
      "lat": 12.7288543,
      "lon": -87.4395828,
      "timestamp": "2013-12-08T15:09:59Z",
      "version": 1,
      "changeset": 19342168,
      "user": "worldwidewolford",
      "uid": 395416,
      "tags": {
        "amenity": "bar",
        "name": "Vista del Pacifico"
      }
    },
    {
      "type": "node",
      "id": 2581913746,
      "lat": 13.0899657,
      "lon": -86.3561709,
      "timestamp": "2013-12-16T00:38:33Z",
      "version": 1,
      "changeset": 19474646,
      "user": "worldwidewolford",
      "uid": 395416,
      "tags": {
        "amenity": "bar",
        "name": "Evolution Bar"
      }
    },
    {
      "type": "node",
      "id": 2605452967,
      "lat": 11.9362075,
      "lon": -86.0526856,
      "timestamp": "2019-01-15T06:24:25Z",
      "version": 2,
      "changeset": 66322786,
      "user": "porfiriopaiz",
      "uid": 1621340,
      "tags": {
        "amenity": "bar",
        "name": "Bar María"
      }
    },
    {
      "type": "node",
      "id": 2610439603,
      "lat": 11.8521785,
      "lon": -86.0201033,
      "timestamp": "2014-01-05T03:46:16Z",
      "version": 1,
      "changeset": 19816999,
      "user": "jaakkoh",
      "uid": 24440,
      "tags": {
        "amenity": "bar",
        "name": "Dilan's bar"
      }
    },
    {
      "type": "node",
      "id": 2611477742,
      "lat": 12.0105649,
      "lon": -83.7617835,
      "timestamp": "2022-10-02T01:56:33Z",
      "version": 2,
      "changeset": 126877610,
      "user": "Kadubei",
      "uid": 16642036,
      "tags": {
        "addr:city": "Bluefields",
        "addr:housename": "Bo. Punta Fria",
        "amenity": "bar",
        "name": "Bar Bamboo"
      }
    },
    {
      "type": "node",
      "id": 2615852448,
      "lat": 16.2742192,
      "lon": -86.5970651,
      "timestamp": "2014-01-09T04:34:31Z",
      "version": 1,
      "changeset": 19894120,
      "user": "edred",
      "uid": 329962,
      "tags": {
        "amenity": "pub",
        "name": "Hungry Munkey"
      }
    },
    {
      "type": "node",
      "id": 2618801334,
      "lat": 12.1185756,
      "lon": -86.2523196,
      "timestamp": "2016-05-25T18:02:15Z",
      "version": 3,
      "changeset": 39562267,
      "user": "bpowell1",
      "uid": 3317733,
      "tags": {
        "addr:city": "Managua",
        "addr:country": "NI",
        "addr:street": "Avenida Principal de Altamira",
        "amenity": "pub",
        "food": "yes",
        "name": "Daryush",
        "source": "KG Ground Survey 2016"
      }
    },
    {
      "type": "node",
      "id": 2621753376,
      "lat": 12.1178721,
      "lon": -86.2579134,
      "timestamp": "2016-03-13T18:56:10Z",
      "version": 2,
      "changeset": 37805699,
      "user": "roirobo",
      "uid": 463462,
      "tags": {
        "amenity": "pub",
        "name": "Hot Shots Sports Bar"
      }
    },
    {
      "type": "node",
      "id": 2622496040,
      "lat": 12.1191971,
      "lon": -86.2565879,
      "timestamp": "2015-09-09T06:33:30Z",
      "version": 2,
      "changeset": 33900157,
      "user": "Crisvann",
      "uid": 1434766,
      "tags": {
        "amenity": "bar",
        "name": "Billares Time-Off",
        "sport": "billiards"
      }
    },
    {
      "type": "node",
      "id": 2622559428,
      "lat": 12.1235953,
      "lon": -86.2635234,
      "timestamp": "2018-11-25T16:57:02Z",
      "version": 3,
      "changeset": 64871702,
      "user": "chachafish",
      "uid": 2237750,
      "tags": {
        "amenity": "bar",
        "food": "yes",
        "name": "Conchas Negras"
      }
    },
    {
      "type": "node",
      "id": 2623010734,
      "lat": 12.1276254,
      "lon": -86.2667438,
      "timestamp": "2014-01-15T03:15:34Z",
      "version": 1,
      "changeset": 20006035,
      "user": "pantierra",
      "uid": 94253,
      "tags": {
        "amenity": "bar",
        "cuisine": "seafood",
        "food": "yes",
        "name": "Don Pargo"
      }
    },
    {
      "type": "node",
      "id": 2623010735,
      "lat": 12.1275618,
      "lon": -86.2668426,
      "timestamp": "2023-04-16T03:20:18Z",
      "version": 2,
      "changeset": 134960522,
      "user": "Juan2016",
      "uid": 4795816,
      "tags": {
        "amenity": "pub",
        "name": "Happy Hour",
        "opening_hours": "Mo-Sa 00:00-14:00,00:00-22:15"
      }
    },
    {
      "type": "node",
      "id": 2623010738,
      "lat": 12.1285407,
      "lon": -86.2713142,
      "timestamp": "2014-01-15T03:15:34Z",
      "version": 1,
      "changeset": 20006035,
      "user": "pantierra",
      "uid": 94253,
      "tags": {
        "amenity": "pub",
        "name": "Pool Planet"
      }
    },
    {
      "type": "node",
      "id": 2632510494,
      "lat": 10.8120433,
      "lon": -85.1815727,
      "timestamp": "2023-07-11T23:36:46Z",
      "version": 4,
      "changeset": 138398744,
      "user": "Rodo05",
      "uid": 18042234,
      "tags": {
        "addr:city": "Aguas Claras",
        "addr:street": "Ruta Nacional 164",
        "amenity": "bar",
        "name": "El Higuerón"
      }
    },
    {
      "type": "node",
      "id": 2636963225,
      "lat": 18.7145026,
      "lon": -87.70868,
      "timestamp": "2015-01-14T17:21:49Z",
      "version": 5,
      "changeset": 28143068,
      "user": "opksteve",
      "uid": 2538098,
      "tags": {
        "amenity": "bar",
        "name": "Pez Quadro"
      }
    },
    {
      "type": "node",
      "id": 2637287826,
      "lat": 18.7148473,
      "lon": -87.7081625,
      "timestamp": "2015-01-14T17:12:55Z",
      "version": 2,
      "changeset": 28142605,
      "user": "opksteve",
      "uid": 2538098,
      "tags": {
        "amenity": "bar",
        "name": "Chikitas"
      }
    },
    {
      "type": "node",
      "id": 2637293812,
      "lat": 18.7153827,
      "lon": -87.7077136,
      "timestamp": "2014-12-30T02:13:55Z",
      "version": 2,
      "changeset": 27791197,
      "user": "opksteve",
      "uid": 2538098,
      "tags": {
        "amenity": "bar",
        "name": "Caribbean's Life Bar"
      }
    },
    {
      "type": "node",
      "id": 2637310407,
      "lat": 18.7169918,
      "lon": -87.7069727,
      "timestamp": "2015-01-14T17:11:03Z",
      "version": 5,
      "changeset": 28142507,
      "user": "opksteve",
      "uid": 2538098,
      "tags": {
        "amenity": "bar",
        "name": "Tapas"
      }
    },
    {
      "type": "node",
      "id": 2637312767,
      "lat": 18.7168234,
      "lon": -87.7069931,
      "timestamp": "2015-01-14T17:11:03Z",
      "version": 2,
      "changeset": 28142507,
      "user": "opksteve",
      "uid": 2538098,
      "tags": {
        "amenity": "bar",
        "name": "Big Mama"
      }
    },
    {
      "type": "node",
      "id": 2637313112,
      "lat": 18.7165949,
      "lon": -87.707044,
      "timestamp": "2014-01-25T20:50:06Z",
      "version": 1,
      "changeset": 20199749,
      "user": "wlinch",
      "uid": 209334,
      "tags": {
        "amenity": "bar",
        "name": "Green Iguana"
      }
    },
    {
      "type": "node",
      "id": 2637313114,
      "lat": 18.7167132,
      "lon": -87.7070202,
      "timestamp": "2015-01-01T21:48:56Z",
      "version": 2,
      "changeset": 27850153,
      "user": "opksteve",
      "uid": 2538098,
      "tags": {
        "amenity": "bar",
        "name": "El Capitan Mono"
      }
    },
    {
      "type": "node",
      "id": 2637315526,
      "lat": 18.7164694,
      "lon": -87.7070846,
      "timestamp": "2015-01-01T21:48:56Z",
      "version": 2,
      "changeset": 27850153,
      "user": "opksteve",
      "uid": 2538098,
      "tags": {
        "amenity": "bar",
        "name": "El Delfin"
      }
    },
    {
      "type": "node",
      "id": 2637315527,
      "lat": 18.7151335,
      "lon": -87.7079074,
      "timestamp": "2019-05-04T03:46:00Z",
      "version": 4,
      "changeset": 69865352,
      "user": "T0mmy",
      "uid": 119790,
      "tags": {
        "amenity": "bar",
        "name": "Yaya"
      }
    },
    {
      "type": "node",
      "id": 2640204423,
      "lat": 12.1501607,
      "lon": -86.2381798,
      "timestamp": "2014-01-27T21:53:53Z",
      "version": 1,
      "changeset": 20237688,
      "user": "jaakkoh",
      "uid": 24440,
      "tags": {
        "amenity": "bar",
        "name": "Joseph Bar"
      }
    },
    {
      "type": "node",
      "id": 2640204507,
      "lat": 12.1321103,
      "lon": -86.2752186,
      "timestamp": "2014-01-27T21:54:00Z",
      "version": 1,
      "changeset": 20237688,
      "user": "jaakkoh",
      "uid": 24440,
      "tags": {
        "amenity": "bar",
        "name": "Rumba Bar"
      }
    },
    {
      "type": "node",
      "id": 2642235174,
      "lat": 12.1211401,
      "lon": -86.2246231,
      "timestamp": "2014-02-02T07:04:30Z",
      "version": 2,
      "changeset": 20329015,
      "user": "jaakkoh",
      "uid": 24440,
      "tags": {
        "amenity": "bar",
        "name": "Mi Viejo Bar"
      }
    },
    {
      "type": "node",
      "id": 2648681539,
      "lat": 14.0374463,
      "lon": -83.3842242,
      "timestamp": "2014-02-01T23:24:35Z",
      "version": 1,
      "changeset": 20325936,
      "user": "McLean",
      "uid": 1840308,
      "tags": {
        "addr:street": "Bo. Moravo",
        "amenity": "bar",
        "name": "El Escondite",
        "wifi": "no"
      }
    },
    {
      "type": "node",
      "id": 2653323265,
      "lat": 12.128098,
      "lon": -86.2357789,
      "timestamp": "2016-05-05T10:02:38Z",
      "version": 2,
      "changeset": 39116864,
      "user": "Ramón Ramírez Rivas",
      "uid": 3921522,
      "tags": {
        "addr:street": "Pista de la Solidaridad",
        "amenity": "bar",
        "name": "Bar Nicarao"
      }
    },
    {
      "type": "node",
      "id": 2661533956,
      "lat": 12.1544955,
      "lon": -86.3058176,
      "timestamp": "2014-02-08T17:38:09Z",
      "version": 1,
      "changeset": 20450903,
      "user": "chinox1990",
      "uid": 1771506,
      "tags": {
        "amenity": "bar",
        "name": "Casa Membreño"
      }
    },
    {
      "type": "node",
      "id": 2661534466,
      "lat": 12.1561002,
      "lon": -86.3081216,
      "timestamp": "2014-02-08T17:38:27Z",
      "version": 1,
      "changeset": 20450907,
      "user": "chinox1990",
      "uid": 1771506,
      "tags": {
        "amenity": "bar",
        "name": "K-50"
      }
    },
    {
      "type": "node",
      "id": 2666292377,
      "lat": 12.1194418,
      "lon": -86.255203,
      "timestamp": "2014-02-11T00:41:44Z",
      "version": 1,
      "changeset": 20495753,
      "user": "jaakkoh",
      "uid": 24440,
      "tags": {
        "amenity": "pub",
        "name": "Only One Pub",
        "source": "Map Note by xamanu"
      }
    },
    {
      "type": "node",
      "id": 2673992795,
      "lat": 11.391305,
      "lon": -86.032628,
      "timestamp": "2014-02-16T00:54:45Z",
      "version": 1,
      "changeset": 20587554,
      "user": "jaakkoh",
      "uid": 24440,
      "tags": {
        "amenity": "bar"
      }
    },
    {
      "type": "node",
      "id": 2676352451,
      "lat": 11.4111001,
      "lon": -86.0089324,
      "timestamp": "2014-02-17T04:40:08Z",
      "version": 1,
      "changeset": 20608765,
      "user": "jaakkoh",
      "uid": 24440,
      "tags": {
        "amenity": "bar"
      }
    },
    {
      "type": "node",
      "id": 2676352455,
      "lat": 11.4067116,
      "lon": -86.0476972,
      "timestamp": "2014-02-17T04:40:13Z",
      "version": 1,
      "changeset": 20608765,
      "user": "jaakkoh",
      "uid": 24440,
      "tags": {
        "amenity": "bar"
      }
    },
    {
      "type": "node",
      "id": 2677357555,
      "lat": 16.318146,
      "lon": -86.526912,
      "timestamp": "2014-02-17T18:03:30Z",
      "version": 1,
      "changeset": 20620450,
      "user": "andrewwiseman",
      "uid": 408282,
      "tags": {
        "amenity": "bar",
        "food": "yes",
        "name": "Larry & Luey's Roatan Fly High Bar",
        "outdoor_seating": "no"
      }
    },
    {
      "type": "node",
      "id": 2678001267,
      "lat": 16.3065942,
      "lon": -86.5925824,
      "timestamp": "2021-03-25T17:56:49Z",
      "version": 3,
      "changeset": 101737102,
      "user": "Dodko",
      "uid": 1944033,
      "tags": {
        "amenity": "bar",
        "cuisine": "caribbean",
        "name": "Sundowners",
        "source": "survey"
      }
    },
    {
      "type": "node",
      "id": 2682436187,
      "lat": 13.7223285,
      "lon": -89.2233491,
      "timestamp": "2019-07-15T01:51:31Z",
      "version": 5,
      "changeset": 72245766,
      "user": "HubMiner",
      "uid": 238419,
      "tags": {
        "addr:city": "San Salvador",
        "addr:housenumber": "79",
        "addr:street": "Paseo Miralvalle",
        "amenity": "bar",
        "designation": "retro",
        "name": "Vinyl Café",
        "opening_hours": "Tu-Sa",
        "smoking": "isolated"
      }
    },
    {
      "type": "node",
      "id": 2683725504,
      "lat": 14.1022741,
      "lon": -87.190039,
      "timestamp": "2022-02-18T05:26:44Z",
      "version": 5,
      "changeset": 117546664,
      "user": "TheXDS",
      "uid": 10069443,
      "tags": {
        "amenity": "bar",
        "name": "Emergente Bar and Club",
        "source": "KG Ground Survey 2016"
      }
    },
    {
      "type": "node",
      "id": 2685682105,
      "lat": 12.1138519,
      "lon": -86.2717338,
      "timestamp": "2014-02-23T05:17:53Z",
      "version": 2,
      "changeset": 20726131,
      "user": "roirobo",
      "uid": 463462,
      "tags": {
        "addr:housename": "Plaza Brasil",
        "amenity": "bar",
        "name": "Ron Kon Rolas"
      }
    },
    {
      "type": "node",
      "id": 2685933557,
      "lat": 12.1216852,
      "lon": -86.2663701,
      "timestamp": "2020-09-27T03:11:56Z",
      "version": 3,
      "changeset": 91568274,
      "user": "porfiriopaiz",
      "uid": 1621340,
      "tags": {
        "addr:city": "Managua",
        "amenity": "bar",
        "name": "In da house rock bar"
      }
    },
    {
      "type": "node",
      "id": 2685950740,
      "lat": 12.1116728,
      "lon": -86.2482038,
      "timestamp": "2014-02-23T00:01:44Z",
      "version": 1,
      "changeset": 20724347,
      "user": "hades_ni",
      "uid": 1807926,
      "tags": {
        "addr:city": "Managua",
        "addr:housename": "Barcanal",
        "amenity": "bar",
        "name": "Barcanal"
      }
    },
    {
      "type": "node",
      "id": 2685952029,
      "lat": 12.1124245,
      "lon": -86.2485689,
      "timestamp": "2014-02-23T00:03:20Z",
      "version": 1,
      "changeset": 20724358,
      "user": "hades_ni",
      "uid": 1807926,
      "tags": {
        "addr:city": "Managua",
        "addr:housename": "La Criollita",
        "amenity": "bar",
        "name": "Bar La Criollita"
      }
    },
    {
      "type": "node",
      "id": 2686027333,
      "lat": 12.108875,
      "lon": -86.3165455,
      "timestamp": "2014-02-23T02:14:26Z",
      "version": 1,
      "changeset": 20725251,
      "user": "roirobo",
      "uid": 463462,
      "tags": {
        "amenity": "pub",
        "name": "Nejapa Bar & Grill"
      }
    },
    {
      "type": "node",
      "id": 2686101188,
      "lat": 12.1139603,
      "lon": -86.2719304,
      "timestamp": "2014-02-23T05:17:52Z",
      "version": 1,
      "changeset": 20726131,
      "user": "roirobo",
      "uid": 463462,
      "tags": {
        "addr:housename": "Plaza Brasil",
        "amenity": "bar",
        "name": "Amnesia"
      }
    },
    {
      "type": "node",
      "id": 2691251906,
      "lat": 15.7801118,
      "lon": -87.4642476,
      "timestamp": "2017-02-11T22:07:35Z",
      "version": 2,
      "changeset": 46008146,
      "user": "AtonX",
      "uid": 383309,
      "tags": {
        "amenity": "bar"
      }
    },
    {
      "type": "node",
      "id": 2695632182,
      "lat": 12.0228557,
      "lon": -86.1543089,
      "timestamp": "2014-02-28T23:38:09Z",
      "version": 1,
      "changeset": 20837259,
      "user": "jaakkoh",
      "uid": 24440,
      "tags": {
        "amenity": "bar",
        "name": "Bar Nena"
      }
    },
    {
      "type": "node",
      "id": 2695642469,
      "lat": 12.1445043,
      "lon": -86.228031,
      "timestamp": "2014-02-28T23:55:30Z",
      "version": 1,
      "changeset": 20837451,
      "user": "pantierra",
      "uid": 94253,
      "tags": {
        "amenity": "pub",
        "name": "Four Brothers"
      }
    },
    {
      "type": "node",
      "id": 2695661699,
      "lat": 12.1446156,
      "lon": -86.2339735,
      "timestamp": "2014-07-09T04:54:16Z",
      "version": 2,
      "changeset": 24038257,
      "user": "Alex Pérez",
      "uid": 1842655,
      "tags": {
        "amenity": "pub",
        "building": "yes",
        "name": "Rincón Costeño"
      }
    },
    {
      "type": "node",
      "id": 2705197198,
      "lat": 11.5404736,
      "lon": -85.7004462,
      "timestamp": "2017-05-18T02:36:48Z",
      "version": 2,
      "changeset": 48776974,
      "user": "John Bek",
      "uid": 3800987,
      "tags": {
        "addr:city": "Moyogalpa",
        "addr:street": "Calle Santa Ana",
        "amenity": "bar",
        "cuisine": "local",
        "name": "El Puerto",
        "name:en": "Bar El Puerto"
      }
    },
    {
      "type": "node",
      "id": 2705197221,
      "lat": 11.5394077,
      "lon": -85.6974273,
      "timestamp": "2014-03-07T06:04:09Z",
      "version": 1,
      "changeset": 20963524,
      "user": "exxos",
      "uid": 1443963,
      "tags": {
        "addr:city": "Moyogalpa",
        "amenity": "bar",
        "name": "Cocibolca"
      }
    },
    {
      "type": "node",
      "id": 2712574245,
      "lat": 12.1261896,
      "lon": -86.2045,
      "timestamp": "2014-03-11T14:49:38Z",
      "version": 1,
      "changeset": 21046352,
      "user": "jaakkoh",
      "uid": 24440,
      "tags": {
        "amenity": "bar",
        "name": "Bar El Manglar",
        "source": "map note by xamanu"
      }
    },
    {
      "type": "node",
      "id": 2712720348,
      "lat": 12.1487241,
      "lon": -86.1990729,
      "timestamp": "2018-12-01T01:09:49Z",
      "version": 4,
      "changeset": 65061728,
      "user": "chachafish",
      "uid": 2237750,
      "tags": {
        "amenity": "bar",
        "name": "Bar El Gato #2 / El Churrasco",
        "source": "map note by xamanu"
      }
    },
    {
      "type": "node",
      "id": 2712720354,
      "lat": 12.1480504,
      "lon": -86.1938859,
      "timestamp": "2014-03-11T17:03:58Z",
      "version": 1,
      "changeset": 21048638,
      "user": "jaakkoh",
      "uid": 24440,
      "tags": {
        "amenity": "bar",
        "name": "Leo's Bar",
        "source": "map note by xamanu"
      }
    },
    {
      "type": "node",
      "id": 2713189977,
      "lat": 12.1499548,
      "lon": -86.2390563,
      "timestamp": "2014-03-11T21:31:22Z",
      "version": 1,
      "changeset": 21053629,
      "user": "jaakkoh",
      "uid": 24440,
      "tags": {
        "amenity": "bar",
        "name": "Bar Waka Waka"
      }
    },
    {
      "type": "node",
      "id": 2713190163,
      "lat": 12.1436599,
      "lon": -86.2790382,
      "timestamp": "2014-03-11T21:31:27Z",
      "version": 1,
      "changeset": 21053629,
      "user": "jaakkoh",
      "uid": 24440,
      "tags": {
        "amenity": "bar",
        "name": "Bar El Gran Chef"
      }
    },
    {
      "type": "node",
      "id": 2715045520,
      "lat": 12.0253628,
      "lon": -86.2097885,
      "timestamp": "2014-03-13T05:14:42Z",
      "version": 1,
      "changeset": 21076811,
      "user": "jaakkoh",
      "uid": 24440,
      "tags": {
        "amenity": "bar",
        "name": "Chele's Bar"
      }
    },
    {
      "type": "node",
      "id": 2715045521,
      "lat": 12.0223267,
      "lon": -86.2082127,
      "timestamp": "2014-03-13T05:14:43Z",
      "version": 1,
      "changeset": 21076811,
      "user": "jaakkoh",
      "uid": 24440,
      "tags": {
        "amenity": "bar",
        "name": "Alex Bar Restaurante"
      }
    },
    {
      "type": "node",
      "id": 2719992521,
      "lat": 11.9095537,
      "lon": -86.1432887,
      "timestamp": "2018-08-03T00:38:38Z",
      "version": 2,
      "changeset": 61313010,
      "user": "Lenin23",
      "uid": 8622034,
      "tags": {
        "amenity": "bar",
        "name": "Chaparro's Bar"
      }
    },
    {
      "type": "node",
      "id": 2727411280,
      "lat": 12.1321915,
      "lon": -86.28346,
      "timestamp": "2014-04-09T06:31:00Z",
      "version": 2,
      "changeset": 21583208,
      "user": "jaakkoh",
      "uid": 24440,
      "tags": {
        "amenity": "bar",
        "name": "Bar La Esquinita"
      }
    },
    {
      "type": "node",
      "id": 2734390407,
      "lat": 12.117499,
      "lon": -86.2040054,
      "timestamp": "2019-01-01T22:12:11Z",
      "version": 3,
      "changeset": 65944123,
      "user": "mayorgatellez",
      "uid": 1299518,
      "tags": {
        "amenity": "pub",
        "source": "local knowledge",
        "sport": "billiards"
      }
    },