{
  "version": 0.6,
  "generator": "Overpass API 0.7.62.8 e802775f",
  "osm3s": {
    "timestamp_osm_base": "2025-10-23T19:53:23Z",
    "copyright": "The data included in this document is from www.openstreetmap.org. The data is made available under ODbL."
  },
  "elements": [
    {
      "type": "node",
      "id": 340083650,
      "lat": 4.2682233,
      "lon": 73.4907343,
      "timestamp": "2018-02-24T09:20:42Z",
      "version": 4,
      "changeset": 56631530,
      "user": "Asensancho",
      "uid": 4830081,
      "tags": {
        "amenity": "bar",
        "name": "Pool Bar",
        "wheelchair": "yes"
      }
    },
    {
      "type": "node",
      "id": 583580926,
      "lat": 4.589434,
      "lon": 73.414721,
      "timestamp": "2014-01-18T08:37:47Z",
      "version": 3,
      "changeset": 20062718,
      "user": "Josef73",
      "uid": 213831,
      "tags": {
        "amenity": "bar",
        "name": "Eriyadu",
        "opening_hours": "Mo-Su 07:30+"
      }
    },
    {
      "type": "node",
      "id": 598204847,
      "lat": 4.1936878,
      "lon": 72.8189761,
      "timestamp": "2009-12-22T16:31:11Z",
      "version": 1,
      "changeset": 3428499,
      "user": "olti",
      "uid": 75192,
      "tags": {
        "amenity": "bar"
      }
    },
    {
      "type": "node",
      "id": 620383457,
      "lat": 6.9115132,
      "lon": 79.8499189,
      "timestamp": "2014-09-19T06:42:32Z",
      "version": 3,
      "changeset": 25534711,
      "user": "harendra_7",
      "uid": 611295,
      "tags": {
        "addr:city": "Colombo 03",
        "addr:street": "Galle Road",
        "amenity": "bar",
        "name": "Bally's Club"
      }
    },
    {
      "type": "node",
      "id": 653125700,
      "lat": 9.9669795,
      "lon": 76.2419146,
      "timestamp": "2023-08-14T06:34:24Z",
      "version": 5,
      "changeset": 139854957,
      "user": "DryDay",
      "uid": 19896001,
      "tags": {
        "addr:city": "Fort Kochi",
        "addr:district": "Ernakulam",
        "addr:housename": "XL Hotel",
        "addr:postcode": "682001",
        "addr:street": "Rose Street",
        "air_conditioning": "no",
        "amenity": "bar",
        "brewery": "no",
        "check_date": "2022-12-07",
        "microbrewery": "no",
        "name": "XL Bar",
        "not:name": "Excel Bar;Excel Hotel",
        "outdoor_seating": "no",
        "smoking": "separated",
        "source": "survey;local knowledge",
        "wheelchair": "no"
      }
    },
    {
      "type": "node",
      "id": 669256900,
      "lat": 6.9194507,
      "lon": 79.8500303,
      "timestamp": "2011-04-26T17:55:09Z",
      "version": 4,
      "changeset": 7977498,
      "user": "Amila Silva",
      "uid": 445045,
      "tags": {
        "amenity": "bar",
        "atm": "yes",
        "name": "White Horse"
      }
    },
    {
      "type": "node",
      "id": 682245433,
      "lat": 4.0834858,
      "lon": 73.5120292,
      "timestamp": "2010-04-02T19:47:30Z",
      "version": 1,
      "changeset": 4307385,
      "user": "mabapla",
      "uid": 24748,
      "tags": {
        "amenity": "bar"
      }
    },
    {
      "type": "node",
      "id": 944904156,
      "lat": 9.9788447,
      "lon": 76.3334513,
      "timestamp": "2023-08-14T07:02:16Z",
      "version": 2,
      "changeset": 139855982,
      "user": "DryDay",
      "uid": 19896001,
      "tags": {
        "addr:city": "Thripunithura",
        "addr:district": "Ernakulam",
        "addr:street": "Eroor Road",
        "amenity": "pub",
        "brand": "Toddy Shop",
        "brand:wikidata": "Q7812761",
        "drink:palm_wine": "yes",
        "name": "Toddy Shop"
      }
    },
    {
      "type": "node",
      "id": 959179006,
      "lat": 4.3538529,
      "lon": 73.6177141,
      "timestamp": "2024-03-24T22:10:22Z",
      "version": 4,
      "changeset": 149107829,
      "user": "GPSDiver",
      "uid": 1058013,
      "tags": {
        "access": "private",
        "amenity": "bar",
        "name": "Beach Bar"
      }
    },
    {
      "type": "node",
      "id": 1051698479,
      "lat": 9.156727,
      "lon": 76.7300231,
      "timestamp": "2014-05-25T11:50:13Z",
      "version": 2,
      "changeset": 22541696,
      "user": "Prasanth Rajan",
      "uid": 634020,
      "tags": {
        "amenity": "bar",
        "name": "Yamuna Bar"
      }
    },
    {
      "type": "node",
      "id": 1088353262,
      "lat": 9.7123269,
      "lon": 76.6830552,
      "timestamp": "2011-01-07T14:30:17Z",
      "version": 2,
      "changeset": 6892797,
      "user": "matthayichen",
      "uid": 377762,
      "tags": {
        "amenity": "bar"
      }
    },
    {
      "type": "node",
      "id": 1190898913,
      "lat": 9.9441762,
      "lon": 76.3729175,
      "timestamp": "2011-03-07T11:07:57Z",
      "version": 1,
      "changeset": 7482870,
      "user": "Geordee Naliyath",
      "uid": 82396,
      "tags": {
        "amenity": "bar",
        "name": "Thiruvankulam Tourist Home"
      }
    },
    {
      "type": "node",
      "id": 1190898918,
      "lat": 9.94704,
      "lon": 76.3760073,
      "timestamp": "2011-03-12T09:43:03Z",
      "version": 2,
      "changeset": 7531180,
      "user": "Geordee Naliyath",
      "uid": 82396,
      "tags": {
        "amenity": "bar",
        "name": "Joyes Bar"
      }
    },
    {
      "type": "node",
      "id": 1249816171,
      "lat": 6.8416438,
      "lon": 79.8668393,
      "timestamp": "2016-10-21T06:09:44Z",
      "version": 3,
      "changeset": 43051118,
      "user": "harendra_7",
      "uid": 611295,
      "tags": {
        "addr:city": "Mount Lavinia",
        "addr:street": "Galle Road",
        "amenity": "pub",
        "name": "Lion Pub"
      }
    },
    {
      "type": "node",
      "id": 1252555411,
      "lat": 6.7738867,
      "lon": 79.9022339,
      "timestamp": "2011-04-20T15:55:52Z",
      "version": 1,
      "changeset": 7916966,
      "user": "dilukperera",
      "uid": 220858,
      "tags": {
        "amenity": "pub",
        "name": "Royal Colombo Yatch Club"
      }
    },
    {
      "type": "node",
      "id": 1315020324,
      "lat": 4.2835262,
      "lon": 73.4273925,
      "timestamp": "2011-06-07T12:31:15Z",
      "version": 1,
      "changeset": 8369599,
      "user": "Trex2001",
      "uid": 384894,
      "tags": {
        "amenity": "bar",
        "name": "Satay Bar"
      }
    },
    {
      "type": "node",
      "id": 1434108416,
      "lat": 6.9096969,
      "lon": 79.8765832,
      "timestamp": "2019-03-09T06:06:00Z",
      "version": 3,
      "changeset": 67949378,
      "user": "mbethke",
      "uid": 248338,
      "tags": {
        "amenity": "pub",
        "name": "Mintage"
      }
    },
    {
      "type": "node",
      "id": 1474204577,
      "lat": 9.9455973,
      "lon": 76.346865,
      "timestamp": "2014-06-19T11:35:16Z",
      "version": 2,
      "changeset": 23021251,
      "user": "Prasanth Rajan",
      "uid": 634020,
      "tags": {
        "amenity": "bar",
        "name": "Kottavathil Tourist home"
      }
    },
    {
      "type": "node",
      "id": 1487261260,
      "lat": 4.2603524,
      "lon": 72.9852216,
      "timestamp": "2011-10-31T13:18:40Z",
      "version": 1,
      "changeset": 9703415,
      "user": "OndrejLedrer",
      "uid": 359096,
      "tags": {
        "amenity": "bar",
        "name": "Fung Bar"
      }
    },
    {
      "type": "node",
      "id": 1487261293,
      "lat": 4.2594484,
      "lon": 72.9785509,
      "timestamp": "2011-10-31T13:18:42Z",
      "version": 1,
      "changeset": 9703415,
      "user": "OndrejLedrer",
      "uid": 359096,
      "tags": {
        "amenity": "bar",
        "name": "Dhoni Bar"
      }
    },
    {
      "type": "node",
      "id": 1491254205,
      "lat": 8.7327302,
      "lon": 76.706631,
      "timestamp": "2012-05-25T10:17:48Z",
      "version": 2,
      "changeset": 11697076,
      "user": "cquest",
      "uid": 158826,
      "tags": {
        "addr:housename": "Hindustan Beach Retreat",
        "addr:postcode": "695141",
        "addr:street": "Varkala Beach",
        "amenity": "bar",
        "website": "www.hindustanbeachretreat.com",
        "wifi": "no"
      }
    },
    {
      "type": "node",
      "id": 1650222147,
      "lat": 6.8527487,
      "lon": 79.9156684,
      "timestamp": "2014-12-05T05:26:28Z",
      "version": 3,
      "changeset": 27254624,
      "user": "harendra_7",
      "uid": 611295,
      "tags": {
        "addr:city": "Maharagama",
        "amenity": "pub",
        "name": "Sun Rest"
      }
    },
    {
      "type": "node",
      "id": 1651231507,
      "lat": 6.8508769,
      "lon": 79.9218199,
      "timestamp": "2016-11-02T09:40:21Z",
      "version": 6,
      "changeset": 43346733,
      "user": "harendra_7",
      "uid": 611295,
      "tags": {
        "addr:city": "Wattegedara Junction",
        "addr:street": "High Level Road",
        "amenity": "bar",
        "name": "Wine Stores"
      }
    },
    {
      "type": "node",
      "id": 1655634066,
      "lat": 6.9066868,
      "lon": 79.8503231,
      "timestamp": "2019-05-29T11:28:54Z",
      "version": 2,
      "changeset": 70729978,
      "user": "rashini_slt",
      "uid": 10034640,
      "tags": {
        "amenity": "pub",
        "name": "Star Dust"
      }
    },
    {
      "type": "node",
      "id": 1683000772,
      "lat": 8.4400549,
      "lon": 76.9562655,
      "timestamp": "2012-03-20T09:07:16Z",
      "version": 1,
      "changeset": 11038962,
      "user": "sreejithsreekumar",
      "uid": 633893,
      "tags": {
        "amenity": "bar",
        "name": "Archana Hotel"
      }
    },
    {
      "type": "node",
      "id": 1694289605,
      "lat": 8.5299061,
      "lon": 76.9304614,
      "timestamp": "2012-03-28T07:31:07Z",
      "version": 1,
      "changeset": 11123910,
      "user": "shagintv",
      "uid": 623067,
      "tags": {
        "amenity": "bar",
        "name": "Mayura Park"
      }
    },
    {
      "type": "node",
      "id": 1694289645,
      "lat": 8.5302191,
      "lon": 76.930166,
      "timestamp": "2012-03-28T07:31:34Z",
      "version": 1,
      "changeset": 11123910,
      "user": "shagintv",
      "uid": 623067,
      "tags": {
        "amenity": "bar",
        "name": "Park rajadhani"
      }
    },
    {
      "type": "node",
      "id": 1723588918,
      "lat": 6.8774293,
      "lon": 79.8797496,
      "timestamp": "2021-08-07T15:22:44Z",
      "version": 3,
      "changeset": 109314963,
      "user": "Carlos_N",
      "uid": 3242739,
      "tags": {
        "amenity": "bar",
        "name": "Kirulapone Wine Stores"
      }
    },
    {
      "type": "node",
      "id": 1814511531,
      "lat": 6.9049522,
      "lon": 79.8536861,
      "timestamp": "2019-05-31T06:36:45Z",
      "version": 6,
      "changeset": 70794501,
      "user": "rashini_slt",
      "uid": 10034640,
      "tags": {
        "addr:city": "Colombo 03",
        "addr:street": "R. A. De Mel Mawatha",
        "amenity": "pub",
        "name": "Bellagio Cassino",
        "name:nl": "Bellagio Casino",
        "wheelchair": "no"
      }
    },
    {
      "type": "node",
      "id": 1907098855,
      "lat": 9.9684737,
      "lon": 76.2848368,
      "timestamp": "2024-09-28T13:44:32Z",
      "version": 11,
      "changeset": 157211611,
      "user": "54-46",
      "uid": 20004482,
      "tags": {
        "addr:city": "Ernakulam",
        "addr:district": "Ernakulam",
        "addr:postcode": "682011",
        "addr:street": "Rama Varma Club, Club Road",
        "air_conditioning": "yes",
        "amenity": "bar",
        "brewery": "no",
        "check_date": "2024-03-27",
        "indoor_seating": "yes",
        "microbrewery": "no",
        "name": "Spiritus",
        "outdoor_seating": "no",
        "payment:credit_cards": "yes",
        "payment:debit_cards": "yes",
        "smoking": "isolated",
        "source": "survey;local knowledge",
        "wheelchair": "yes"
      }
    },
    {
      "type": "node",
      "id": 1934839419,
      "lat": 6.8403823,
      "lon": 79.9669078,
      "timestamp": "2015-03-02T11:03:51Z",
      "version": 2,
      "changeset": 29196067,
      "user": "harendra_7",
      "uid": 611295,
      "tags": {
        "addr:city": "Kottawa",
        "amenity": "bar",
        "name": "Panorama"
      }
    },
    {
      "type": "node",
      "id": 1954318865,
      "lat": 9.7503134,
      "lon": 76.3927085,
      "timestamp": "2012-10-09T06:19:46Z",
      "version": 1,
      "changeset": 13421893,
      "user": "കുമാർ വൈക്കം",
      "uid": 961101,
      "tags": {
        "amenity": "bar",
        "name": "Hotel Easwary Bar"
      }
    },
    {
      "type": "node",
      "id": 1956829622,
      "lat": 3.9029019,
      "lon": 73.3586976,
      "timestamp": "2015-04-10T16:37:10Z",
      "version": 2,
      "changeset": 30121805,
      "user": "geocachen08",
      "uid": 593021,
      "tags": {
        "amenity": "bar",
        "microbrewery": "no",
        "name": "Cocktail Bar (AI)"
      }
    },
    {
      "type": "node",
      "id": 1956829650,
      "lat": 3.9028631,
      "lon": 73.3560707,
      "timestamp": "2015-04-10T16:37:10Z",
      "version": 2,
      "changeset": 30121805,
      "user": "geocachen08",
      "uid": 593021,
      "tags": {
        "amenity": "bar",
        "microbrewery": "no"
      }
    },
    {
      "type": "node",
      "id": 1973307116,
      "lat": 5.2078683,
      "lon": 73.0819736,
      "timestamp": "2012-10-19T02:51:29Z",
      "version": 1,
      "changeset": 13551814,
      "user": "Abllo",
      "uid": 109414,
      "tags": {
        "addr:housename": "Sand Bar",
        "amenity": "bar",
        "name": "Sand Bar",
        "wifi": "free"
      }
    },
    {
      "type": "node",
      "id": 2010843913,
      "lat": 3.2121949,
      "lon": 73.0368972,
      "timestamp": "2013-01-23T14:37:01Z",
      "version": 2,
      "changeset": 14757831,
      "user": "GeroldUder",
      "uid": 1205550,
      "tags": {
        "amenity": "bar",
        "name": "Main bar"
      }
    },
    {
      "type": "node",
      "id": 2011253998,
      "lat": 3.2128106,
      "lon": 73.0339389,
      "timestamp": "2013-01-22T16:32:37Z",
      "version": 3,
      "changeset": 14747389,
      "user": "GeroldUder",
      "uid": 1205550,
      "tags": {
        "amenity": "bar",
        "name": "Sunset Bar"
      }
    },
    {
      "type": "node",
      "id": 2039619139,
      "lat": 3.5028225,
      "lon": 72.9009425,
      "timestamp": "2012-11-29T09:02:37Z",
      "version": 1,
      "changeset": 14083591,
      "user": "tellmy@gmx_net",
      "uid": 8045,
      "tags": {
        "amenity": "bar"
      }
    },
    {
      "type": "node",
      "id": 2039619157,
      "lat": 3.4981455,
      "lon": 72.8947037,
      "timestamp": "2012-11-29T09:05:19Z",
      "version": 2,
      "changeset": 14083591,
      "user": "tellmy@gmx_net",
      "uid": 8045,
      "tags": {
        "amenity": "bar",
        "name": "Veli Pool Bar",
        "name:en": "Veli Pool Bar"
      }
    },
    {
      "type": "node",
      "id": 2039619187,
      "lat": 3.5021388,
      "lon": 72.9014296,
      "timestamp": "2019-12-02T03:18:54Z",
      "version": 2,
      "changeset": 77796833,
      "user": "Vauxhall8",
      "uid": 9625188,
      "tags": {
        "amenity": "bar",
        "name": "East Bar",
        "name:en": "East Bar"
      }
    },
    {
      "type": "node",
      "id": 2045847022,
      "lat": 6.8420989,
      "lon": 79.96225,
      "timestamp": "2019-09-18T03:45:39Z",
      "version": 4,
      "changeset": 74604221,
      "user": "mbethke",
      "uid": 248338,
      "tags": {
        "addr:city": "Kottawa",
        "amenity": "pub",
        "name": "Casamara"
      }
    },
    {
      "type": "node",
      "id": 2045863190,
      "lat": 6.842263,
      "lon": 79.9620363,
      "timestamp": "2019-09-18T03:45:39Z",
      "version": 3,
      "changeset": 74604221,
      "user": "mbethke",
      "uid": 248338,
      "tags": {
        "addr:city": "Kottawa",
        "amenity": "pub",
        "name": "Casablanca"
      }
    },
    {
      "type": "node",
      "id": 2091781295,
      "lat": 6.8469249,
      "lon": 79.9263003,
      "timestamp": "2015-08-13T07:05:12Z",
      "version": 4,
      "changeset": 33305671,
      "user": "harendra_7",
      "uid": 611295,
      "tags": {
        "addr:city": "Maharagama",
        "addr:street": "Maharagama-Dehiwala Road",
        "amenity": "bar",
        "name": "Sinthao"
      }
    },
    {
      "type": "node",
      "id": 2097616840,
      "lat": 6.9098902,
      "lon": 79.9047237,
      "timestamp": "2013-01-06T08:04:28Z",
      "version": 2,
      "changeset": 14545414,
      "user": "damith74",
      "uid": 471250,
      "tags": {
        "amenity": "pub",
        "name": "Machan"
      }
    },
    {
      "type": "node",
      "id": 2124717814,
      "lat": 6.9324818,
      "lon": 79.8903168,
      "timestamp": "2015-03-17T04:21:22Z",
      "version": 2,
      "changeset": 29532544,
      "user": "harendra_7",
      "uid": 611295,
      "tags": {
        "addr:city": "Kolonnawa",
        "amenity": "bar",
        "name": "Fresh Juice"
      }
    },
    {
      "type": "node",
      "id": 2124735845,
      "lat": 6.9069947,
      "lon": 79.929174,
      "timestamp": "2013-01-23T06:02:32Z",
      "version": 1,
      "changeset": 14753217,
      "user": "damith74",
      "uid": 471250,
      "tags": {
        "amenity": "bar"
      }
    },
    {
      "type": "node",
      "id": 2124737401,
      "lat": 6.8958644,
      "lon": 79.9246089,
      "timestamp": "2013-01-23T06:07:48Z",
      "version": 1,
      "changeset": 14753469,
      "user": "damith74",
      "uid": 471250,
      "tags": {
        "amenity": "pub"
      }
    },
    {
      "type": "node",
      "id": 2149732506,
      "lat": 5.1104213,
      "lon": 73.0760665,
      "timestamp": "2013-02-10T22:21:04Z",
      "version": 1,
      "changeset": 14988052,
      "user": "eiger",
      "uid": 221846,
      "tags": {
        "amenity": "bar",
        "name": "Barabara"
      }
    },
    {
      "type": "node",
      "id": 2159688816,
      "lat": 5.1122383,
      "lon": 73.0799088,
      "timestamp": "2013-02-17T17:01:49Z",
      "version": 1,
      "changeset": 15066366,
      "user": "eiger",
      "uid": 221846,
      "tags": {
        "amenity": "bar"
      }
    },
    {
      "type": "node",
      "id": 2192007289,
      "lat": 9.6298029,
      "lon": 77.8158092,
      "timestamp": "2013-03-09T06:53:45Z",
      "version": 1,
      "changeset": 15298387,
      "user": "RAADAN RAJA",
      "uid": 1253070,
      "tags": {
        "amenity": "bar"
      }
    },
    {
      "type": "node",
      "id": 2262767878,
      "lat": 8.3362438,
      "lon": 77.865644,
      "timestamp": "2013-04-11T14:05:09Z",
      "version": 1,
      "changeset": 15690275,
      "user": "zer0c00l",
      "uid": 205308,
      "tags": {
        "amenity": "bar",
        "name": "Nellai bar"
      }
    },
    {
      "type": "node",
      "id": 2265953692,
      "lat": 3.8767994,
      "lon": 73.3680019,
      "timestamp": "2024-04-19T18:50:39Z",
      "version": 2,
      "changeset": 150237419,
      "user": "-io-",
      "uid": 441215,
      "tags": {
        "amenity": "bar"
      }
    },
    {
      "type": "node",
      "id": 2373652438,
      "lat": 8.1825195,
      "lon": 77.4303787,
      "timestamp": "2013-07-04T15:35:41Z",
      "version": 1,
      "changeset": 16824512,
      "user": "arunisaac",
      "uid": 1581711,
      "tags": {
        "amenity": "pub",
        "name": "Maharaja Bar"
      }
    },
    {
      "type": "node",
      "id": 2376833103,
      "lat": 9.9337591,
      "lon": 76.3863837,
      "timestamp": "2020-04-29T11:13:24Z",
      "version": 2,
      "changeset": 84333644,
      "user": "Amitha k Biju",
      "uid": 10388660,
      "tags": {
        "amenity": "bar",
        "name": "Loveland Beer & Wine Parlour"
      }
    },
    {
      "type": "node",
      "id": 2405880117,
      "lat": 9.9675239,
      "lon": 76.3071936,
      "timestamp": "2024-11-15T08:38:27Z",
      "version": 9,
      "changeset": 159159921,
      "user": "54-46",
      "uid": 20004482,
      "tags": {
        "air_conditioning": "no",
        "amenity": "bar",
        "indoor_seating": "no",
        "name": "High Bar",
        "outdoor_seating": "terrace",
        "smoking": "separated"
      }
    },
    {
      "type": "node",
      "id": 2423771597,
      "lat": 6.8576247,
      "lon": 79.9451868,
      "timestamp": "2014-07-28T08:18:10Z",
      "version": 2,
      "changeset": 24397400,
      "user": "harendra_7",
      "uid": 611295,
      "tags": {
        "amenity": "bar",
        "name": "Havi Restaurant & Bar"
      }
    },
    {
      "type": "node",
      "id": 2431042943,
      "lat": 4.2686911,
      "lon": 73.4888667,
      "timestamp": "2013-08-25T13:07:38Z",
      "version": 1,
      "changeset": 17499075,
      "user": "Headbanger",
      "uid": 53145,
      "tags": {
        "amenity": "bar",
        "name": "Sundowner Bar"
      }
    },
    {
      "type": "node",
      "id": 2457797708,
      "lat": 4.5425493,
      "lon": 73.4045518,
      "timestamp": "2013-09-14T09:42:18Z",
      "version": 1,
      "changeset": 17829992,
      "user": "Vespucci767",
      "uid": 1744541,
      "tags": {
        "amenity": "bar",
        "name": "Sunset Beach Bar"
      }
    },
    {
      "type": "node",
      "id": 2559528441,
      "lat": 3.6520391,
      "lon": 72.8227982,
      "timestamp": "2024-03-20T08:54:30Z",
      "version": 3,
      "changeset": 148899332,
      "user": "GerGel",
      "uid": 482167,
      "tags": {
        "amenity": "bar",
        "name": "Beach Bar"
      }
    },
    {
      "type": "node",
      "id": 2581145606,
      "lat": 9.0237647,
      "lon": 76.8470381,
      "timestamp": "2015-04-27T08:12:55Z",
      "version": 2,
      "changeset": 30529912,
      "user": "Akhilan",
      "uid": 572158,
      "tags": {
        "amenity": "bar",
        "name": "Beverages Outlet"
      }
    },
    {
      "type": "node",
      "id": 2662286839,
      "lat": 3.9049118,
      "lon": 73.4734738,
      "timestamp": "2015-05-11T10:35:00Z",
      "version": 3,
      "changeset": 31000189,
      "user": "SK53",
      "uid": 84681,
      "tags": {
        "amenity": "bar",
        "name": "Lounge Bar"
      }
    },
    {
      "type": "node",
      "id": 2666380309,
      "lat": 3.9044929,
      "lon": 73.4731548,
      "timestamp": "2021-03-26T21:15:21Z",
      "version": 2,
      "changeset": 101817981,
      "user": "Daneel76",
      "uid": 9057313,
      "tags": {
        "amenity": "bar",
        "name": "Bokurra Coffee Club",
        "phone": "+960 664-0511"
      }
    },
    {
      "type": "node",
      "id": 2694399005,
      "lat": 8.5704972,
      "lon": 76.871426,
      "timestamp": "2020-01-04T14:22:56Z",
      "version": 4,
      "changeset": 79190140,
      "user": "Arun Madhavan",
      "uid": 5661639,
      "tags": {
        "addr:city": "Kazhakuttam",
        "amenity": "bar",
        "capacity": "50",
        "cuisine": "regional",
        "name": "KTDC Beer Parlour and Restaurant",
        "opening_hours": "10:00-22:00",
        "smoking": "outside"
      }
    },
    {
      "type": "node",
      "id": 2722414048,
      "lat": 6.933907,
      "lon": 79.8434571,
      "timestamp": "2024-12-26T03:28:45Z",
      "version": 5,
      "changeset": 160622074,
      "user": "Chau",
      "uid": 394045,
      "tags": {
        "addr:city": "Colombo 01",
        "amenity": "bar",
        "check_date": "2024-12-25",
        "name": "Taphouse"
      }
    },
    {
      "type": "node",
      "id": 2985574830,
      "lat": 3.6454481,
      "lon": 73.4872668,
      "timestamp": "2014-07-29T06:57:17Z",
      "version": 1,
      "changeset": 24415875,
      "user": "efred",
      "uid": 125339,
      "tags": {
        "amenity": "bar",
        "name": "Bararea",
        "surface": "wood"
      }
    },
    {
      "type": "node",
      "id": 3113001703,
      "lat": 3.884139,
      "lon": 72.7274646,
      "timestamp": "2014-10-05T19:09:18Z",
      "version": 2,
      "changeset": 25883072,
      "user": "quast",
      "uid": 379158,
      "tags": {
        "amenity": "bar",
        "name": "Totem Bar"
      }
    },
    {
      "type": "node",
      "id": 3113001712,
      "lat": 3.8851152,
      "lon": 72.7285013,
      "timestamp": "2014-10-05T16:07:08Z",
      "version": 1,
      "changeset": 25878572,
      "user": "quast",
      "uid": 379158,
      "tags": {
        "amenity": "bar",
        "name": "Manta Bar",
        "wifi": "free"
      }
    },
    {
      "type": "node",
      "id": 3139538429,
      "lat": 7.2429538,
      "lon": 79.8418747,
      "timestamp": "2025-06-03T01:06:11Z",
      "version": 3,
      "changeset": 167113243,
      "user": "mWije",
      "uid": 14229605,
      "tags": {
        "addr:city": "Negombo",
        "amenity": "bar",
        "name": "Centre Point Grill & Bar"
      }
    },
    {
      "type": "node",
      "id": 3139577055,
      "lat": 7.2264864,
      "lon": 79.840978,
      "timestamp": "2014-10-20T07:30:13Z",
      "version": 1,
      "changeset": 26207416,
      "user": "harendra_7",
      "uid": 611295,
      "tags": {
        "addr:city": "Negombo",
        "amenity": "pub",
        "name": "Peacock Pub & Sea Food"
      }
    },
    {
      "type": "node",
      "id": 3274114997,
      "lat": 9.4984072,
      "lon": 76.3382099,
      "timestamp": "2015-01-07T06:31:52Z",
      "version": 1,
      "changeset": 27970555,
      "user": "YOz",
      "uid": 251445,
      "tags": {
        "amenity": "bar",
        "name": "Royal Pavallion"
      }
    },
    {
      "type": "node",
      "id": 3285726125,
      "lat": 6.8410535,
      "lon": 79.862881,
      "timestamp": "2015-01-13T12:56:34Z",
      "version": 1,
      "changeset": 28109781,
      "user": "kaigonaej7xaiphuu",
      "uid": 2571788,
      "tags": {
        "amenity": "bar",
        "name": "Jo-Jo's"
      }
    },
    {
      "type": "node",
      "id": 3358201638,
      "lat": 9.9807275,
      "lon": 76.2764239,
      "timestamp": "2023-12-13T18:31:59Z",
      "version": 2,
      "changeset": 145085435,
      "user": "54-46",
      "uid": 20004482,
      "tags": {
        "amenity": "pub",
        "brand": "Toddy Shop",
        "drink:palm_wine": "yes",
        "name": "Toddy Shop"
      }
    },
    {
      "type": "node",
      "id": 3512712789,
      "lat": 9.1454972,
      "lon": 76.7659089,
      "timestamp": "2021-07-03T17:29:58Z",
      "version": 3,
      "changeset": 107363294,
      "user": "ARSHA S S",
      "uid": 13617467,
      "tags": {
        "amenity": "bar",
        "name": "park residency",
        "opening_hours": "PH,Mo-Sa 08:00-19:00"
      }
    },
    {
      "type": "node",
      "id": 3520745155,
      "lat": 8.5055925,
      "lon": 76.9939687,
      "timestamp": "2020-09-26T09:22:54Z",
      "version": 3,
      "changeset": 91544388,
      "user": "Safwan Nattukallingal",
      "uid": 11023334,
      "tags": {
        "amenity": "bar",
        "name": "City Palace"
      }
    },
    {
      "type": "node",
      "id": 3522855860,
      "lat": 9.0051218,
      "lon": 76.7837619,
      "timestamp": "2020-08-15T06:13:14Z",
      "version": 4,
      "changeset": 89436657,
      "user": "AneeshA820",
      "uid": 11600439,
      "tags": {
        "amenity": "bar",
        "name": "Ambalakkara Regency Kottarakara"
      }
    },
    {
      "type": "node",
      "id": 3522855861,
      "lat": 9.0051822,
      "lon": 76.783579,
      "timestamp": "2021-01-09T06:41:42Z",
      "version": 3,
      "changeset": 97200510,
      "user": "Anson444",
      "uid": 12455864,
      "tags": {
        "amenity": "bar",
        "name": "Akash hut"
      }
    },
    {
      "type": "node",
      "id": 3522971022,
      "lat": 9.0259896,
      "lon": 76.8509489,
      "timestamp": "2015-05-17T05:53:31Z",
      "version": 1,
      "changeset": 31217885,
      "user": "Akhilan",
      "uid": 572158,
      "tags": {
        "amenity": "bar"
      }
    },
    {
      "type": "node",
      "id": 3645479498,
      "lat": 2.3127824,
      "lon": 73.3007622,
      "timestamp": "2016-01-13T03:03:39Z",
      "version": 2,
      "changeset": 36542241,
      "user": "MapMakinMeyers",
      "uid": 193291,
      "tags": {
        "addr:housename": "Maalifushi",
        "amenity": "bar",
        "designation": "Staff Bar",
        "name": "Staff Bar",
        "wifi": "free"
      }
    },
    {
      "type": "node",
      "id": 3662797778,
      "lat": 6.846286,
      "lon": 79.9469076,
      "timestamp": "2016-12-23T09:32:46Z",
      "version": 2,
      "changeset": 44616260,
      "user": "harendra_7",
      "uid": 611295,
      "tags": {
        "addr:city": "Pannipitiya",
        "addr:street": "High Level Road",
        "amenity": "bar",
        "name": "MACHAN",
        "operator": "AD",
        "smoking": "outside"
      }
    },
    {
      "type": "node",
      "id": 3711965877,
      "lat": 9.9716173,
      "lon": 76.3242623,
      "timestamp": "2023-08-15T07:23:44Z",
      "version": 2,
      "changeset": 139899978,
      "user": "DryDay",
      "uid": 19896001,
      "tags": {
        "addr:city": "Kochi",
        "addr:district": "Ernakulam",
        "addr:housename": "Mermaid Inn",
        "addr:street": "Kaniyampuzha Road",
        "addr:suburb": "Vyttila",
        "amenity": "bar",
        "name": "Drunken Coconut"
      }
    },
    {
      "type": "node",
      "id": 4017684150,
      "lat": 5.2339776,
      "lon": 73.1120192,
      "timestamp": "2016-02-21T11:03:14Z",
      "version": 1,
      "changeset": 37344434,
      "user": "Seandebasti",
      "uid": 550560,
      "tags": {
        "amenity": "bar"
      }
    },
    {
      "type": "node",
      "id": 4084666279,
      "lat": 7.1041066,
      "lon": 79.8841363,
      "timestamp": "2016-06-30T06:15:28Z",
      "version": 2,
      "changeset": 40382480,
      "user": "Eric Xavier",
      "uid": 3319556,
      "tags": {
        "amenity": "pub",
        "name": "Madushi vine shop"
      }
    },
    {
      "type": "node",
      "id": 4122261690,
      "lat": 9.7759767,
      "lon": 76.6128155,
      "timestamp": "2016-04-15T02:15:06Z",
      "version": 1,
      "changeset": 38575667,
      "user": "Samsayan",
      "uid": 3827058,
      "tags": {
        "addr:street": "Kurichithanam - Uzhavoor Road",
        "amenity": "bar",
        "name": "Toddy shop",
        "opening_hours": "Mo-Su 09:00-20:00"
      }
    },
    {
      "type": "node",
      "id": 4233205609,
      "lat": 6.9344583,
      "lon": 79.8435427,
      "timestamp": "2024-12-26T03:29:02Z",
      "version": 3,
      "changeset": 160622074,
      "user": "Chau",
      "uid": 394045,
      "tags": {
        "addr:city": "Colombo 01",
        "addr:street": "Chatham Street",
        "amenity": "bar",
        "check_date": "2024-12-25",
        "name": "Shamrock Club & Lounge"
      }
    },
    {
      "type": "node",
      "id": 4292150794,
      "lat": 9.7364204,
      "lon": 76.5100046,
      "timestamp": "2016-07-09T05:24:59Z",
      "version": 1,
      "changeset": 40605575,
      "user": "Joice George",
      "uid": 4232027,
      "tags": {
        "addr:street": "Kuruppamthara - Kallara Road",
        "amenity": "bar",
        "name": "Toddy Bar"
      }
    },
    {
      "type": "node",
      "id": 4338760656,
      "lat": 6.9374881,
      "lon": 79.8450855,
      "timestamp": "2016-08-06T17:59:36Z",
      "version": 1,
      "changeset": 41291400,
      "user": "Sadira",
      "uid": 3830202,
      "tags": {
        "amenity": "pub",
        "name": "Stallion Pub"
      }
    },
    {
      "type": "node",
      "id": 4338760657,
      "lat": 6.937363,
      "lon": 79.8450753,
      "timestamp": "2024-12-26T03:28:55Z",
      "version": 2,
      "changeset": 160622074,
      "user": "Chau",
      "uid": 394045,
      "tags": {
        "amenity": "bar",
        "check_date": "2024-12-25",
        "name": "Tap Bar"
      }
    },
    {
      "type": "node",
      "id": 4405561591,
      "lat": 4.2598138,
      "lon": 72.9729666,
      "timestamp": "2016-09-17T11:35:06Z",
      "version": 1,
      "changeset": 42225074,
      "user": "vtv",
      "uid": 420891,
      "tags": {
        "amenity": "bar",
        "name": "Champagne Loft"
      }
    },
    {
      "type": "node",
      "id": 4405561593,
      "lat": 4.2592261,
      "lon": 72.9785188,
      "timestamp": "2016-09-17T11:35:06Z",
      "version": 1,
      "changeset": 42225074,
      "user": "vtv",
      "uid": 420891,
      "tags": {
        "amenity": "bar",
        "name": "Havana Club Wine & Cigar Bar"
      }
    },
    {
      "type": "node",
      "id": 4405561598,
      "lat": 4.2597724,
      "lon": 72.9730766,
      "timestamp": "2016-09-17T11:35:06Z",
      "version": 1,
      "changeset": 42225074,
      "user": "vtv",
      "uid": 420891,
      "tags": {
        "amenity": "bar",
        "name": "Laguna Bar & Pool"
      }
    },
    {
      "type": "node",
      "id": 4405561601,
      "lat": 4.2592568,
      "lon": 72.9756139,
      "timestamp": "2016-09-17T11:35:06Z",
      "version": 1,
      "changeset": 42225074,
      "user": "vtv",
      "uid": 420891,
      "tags": {
        "amenity": "bar",
        "name": "Pool Bar"
      }
    },
    {
      "type": "node",
      "id": 4405561602,
      "lat": 4.2604832,
      "lon": 72.9854268,
      "timestamp": "2016-09-17T11:35:06Z",
      "version": 1,
      "changeset": 42225074,
      "user": "vtv",
      "uid": 420891,
      "tags": {
        "amenity": "bar",
        "name": "Sand Bar"
      }
    },
    {
      "type": "node",
      "id": 4433428109,
      "lat": 4.2838754,
      "lon": 73.4272194,
      "timestamp": "2016-10-05T22:27:41Z",
      "version": 1,
      "changeset": 42670823,
      "user": "utack",
      "uid": 512903,
      "tags": {
        "amenity": "bar",
        "name": "Sails Bar",
        "outdoor_seating": "yes"
      }
    },
    {
      "type": "node",
      "id": 4433431740,
      "lat": 6.8486604,
      "lon": 73.1539548,
      "timestamp": "2016-10-05T22:32:51Z",
      "version": 1,
      "changeset": 42670913,
      "user": "utack",
      "uid": 512903,
      "tags": {
        "amenity": "bar",
        "name": "Bliss Bar",
        "source": "http://maldives.at/alidhoo/alidhoomap-m.png"
      }
    },
    {
      "type": "node",
      "id": 4447913698,
      "lat": 9.5645754,
      "lon": 76.7558539,
      "timestamp": "2016-10-14T16:35:49Z",
      "version": 1,
      "changeset": 42900853,
      "user": "praMu",
      "uid": 204916,
      "tags": {
        "amenity": "pub",
        "name": "Daivasahayam beer & wine parlour"
      }
    },
    {
      "type": "node",
      "id": 4454333992,
      "lat": 9.3725428,
      "lon": 76.5506378,
      "timestamp": "2016-10-19T02:11:25Z",
      "version": 1,
      "changeset": 42999238,
      "user": "dinny",
      "uid": 1894452,
      "tags": {
        "amenity": "bar",
        "name": "Beverages corp",
        "name:en": "Beverages corp"
      }
    },
    {
      "type": "node",
      "id": 4455906090,
      "lat": 9.5652581,
      "lon": 76.7500508,
      "timestamp": "2020-10-01T11:23:56Z",
      "version": 2,
      "changeset": 91823214,
      "user": "chethanaPunni",
      "uid": 10797536,
      "tags": {
        "amenity": "pub",
        "name": "Ktdc Beer & Wine Parlour"
      }
    },
    {
      "type": "node",
      "id": 4461625251,
      "lat": 9.5647412,
      "lon": 76.756595,
      "timestamp": "2016-10-24T11:20:55Z",
      "version": 1,
      "changeset": 43120162,
      "user": "praMu",
      "uid": 204916,
      "tags": {
        "amenity": "pub",
        "name": "Medas Beer & Wine Parlour"
      }
    },
    {
      "type": "node",
      "id": 4487878440,
      "lat": 9.5033292,
      "lon": 76.641202,
      "timestamp": "2020-05-14T10:57:32Z",
      "version": 3,
      "changeset": 85196978,
      "user": "Jijo Johnson",
      "uid": 11119714,
      "tags": {
        "addr:street": "Kottayam-Kozhencherry Highway",
        "amenity": "pub",
        "name": "KTDC Beer & Wine Parlour"
      }
    },
    {
      "type": "node",
      "id": 4517505091,
      "lat": 9.9184226,
      "lon": 76.3112109,
      "timestamp": "2023-08-02T05:36:31Z",
      "version": 2,
      "changeset": 139328126,
      "user": "DryDay",
      "uid": 19896001,
      "tags": {
        "addr:city": "Kochi",
        "addr:district": "Ernakulam",
        "addr:neighbourhood": "Nettoor",
        "addr:street": "Kumbalam - Nettor bridge",
        "addr:suburb": "Maradu",
        "amenity": "pub",
        "brand": "Toddy Shop",
        "brand:wikidata": "Q7812761",
        "drink:palm_wine": "yes",
        "name": "Nettoor Toddy Shop",
        "name:ml": "നെട്ടൂർ കള്ള് ഷാപ്പ്"
      }
    },
    {
      "type": "node",
      "id": 4523657389,
      "lat": 9.4912368,
      "lon": 76.3191511,
      "timestamp": "2016-11-26T17:50:45Z",
      "version": 1,
      "changeset": 43968371,
      "user": "Slique",
      "uid": 4888086,
      "tags": {
        "amenity": "bar",
        "name": "The Harbour Restaurant",
        "name:en": "The Harbour Restaurant"
      }
    },
    {
      "type": "node",
      "id": 4546946581,
      "lat": 9.5919968,
      "lon": 77.953847,
      "timestamp": "2024-10-23T10:31:22Z",
      "version": 2,
      "changeset": 158246290,
      "user": "NaanAvanIllai",
      "uid": 14062769,
      "tags": {
        "amenity": "bar",
        "check_date": "2024-10-23",
        "name": "Marees Bar"
      }
    },
    {
      "type": "node",
      "id": 4591969390,
      "lat": 7.2399931,
      "lon": 79.8417386,
      "timestamp": "2017-01-06T04:32:44Z",
      "version": 1,
      "changeset": 44943477,
      "user": "Obiwan10g",
      "uid": 3167146,
      "tags": {
        "addr:street": "Poruthota Road",
        "amenity": "pub",
        "name:en": "Rodeo"
      }
    },
    {
      "type": "node",
      "id": 4603491513,
      "lat": 9.9203683,
      "lon": 78.1404215,
      "timestamp": "2017-01-12T10:42:40Z",
      "version": 1,
      "changeset": 45100379,
      "user": "Muralintc",
      "uid": 5116455,
      "tags": {
        "addr:street": "Kurivikaran Road",
        "amenity": "bar",
        "name:en": "Tasmac"
      }
    },
    {
      "type": "node",
      "id": 4603678090,
      "lat": 9.9170534,
      "lon": 78.1329515,
      "timestamp": "2017-01-12T12:55:08Z",
      "version": 1,
      "changeset": 45103131,
      "user": "Muralintc",
      "uid": 5116455,
      "tags": {
        "amenity": "bar",
        "name:en": "Tasmac"
      }
    },
    {
      "type": "node",
      "id": 4636846489,
      "lat": 9.9644185,
      "lon": 76.2395424,
      "timestamp": "2024-06-17T04:24:09Z",
      "version": 5,
      "changeset": 152784344,
      "user": "DryDay",
      "uid": 19896001,
      "tags": {
        "addr:city": "Kochi",
        "addr:housename": "Malabar House",
        "addr:street": "Parade Road",
        "addr:suburb": "Fort Kochi",
        "amenity": "bar",
        "name": "Divine",
        "name:ml": "ഡിവൈൻ",
        "opening_hours": "Mo-Su 11:00-23:00"
      }
    },
    {
      "type": "node",
      "id": 4689963314,
      "lat": 9.608015,
      "lon": 77.171119,
      "timestamp": "2022-12-01T01:48:43Z",
      "version": 2,
      "changeset": 129581747,
      "user": "SteBernd",
      "uid": 4804397,
      "tags": {
        "amenity": "bar"
      }
    },
    {
      "type": "node",
      "id": 4710027274,
      "lat": 8.5198775,
      "lon": 76.9304626,
      "timestamp": "2020-05-06T15:24:22Z",
      "version": 2,
      "changeset": 84769012,
      "user": "POOJA P S",
      "uid": 11128691,
      "tags": {
        "amenity": "bar",
        "name": "Hotel Libra"
      }
    },
    {
      "type": "node",
      "id": 4817289323,
      "lat": 9.2323041,
      "lon": 76.5182301,
      "timestamp": "2018-08-28T21:45:36Z",
      "version": 2,
      "changeset": 62085919,
      "user": "GeoFrizz",
      "uid": 2898171,
      "tags": {
        "amenity": "pub",
        "name": "Petrol Pump",
        "name:en": "Petrol Pump"
      }
    },
    {
      "type": "node",
      "id": 4905698621,
      "lat": 6.9340921,
      "lon": 79.8436323,
      "timestamp": "2024-12-25T13:38:04Z",
      "version": 3,
      "changeset": 160603672,
      "user": "Chau",
      "uid": 394045,
      "tags": {
        "addr:city": "Colombo",
        "addr:housenumber": "7",
        "addr:postcode": "00100",
        "addr:street": "Hospital Street",
        "amenity": "bar",
        "check_date": "2024-12-25",
        "facebook": "https://www.facebook.com/dutchpubcolombo/",
        "internet_access:ssid": "wlan",
        "name": "The Dutch Pub",
        "opening_hours": "Mo-Su 10:00-00:00",
        "phone": "+94 77 783 8041"
      }
    },
    {
      "type": "node",
      "id": 5107718721,
      "lat": 8.2294643,
      "lon": 79.7380349,
      "timestamp": "2017-09-15T15:05:35Z",
      "version": 1,
      "changeset": 52071817,
      "user": "Adam1507",
      "uid": 6659415,
      "tags": {
        "addr:street": "Sethawadiya",
        "amenity": "bar",
        "cuisine": "diner;ice_cream",
        "internet_access": "wlan",
        "name:en": "Lag Laguna",
        "opening_hours": "Mo-Su 17:00-23:00",
        "phone": "0094774364240",
        "website": "http://www.laklaguna.com"
      }
    },
    {
      "type": "node",
      "id": 5165488723,
      "lat": 6.9211588,
      "lon": 79.9751094,
      "timestamp": "2017-10-13T14:50:57Z",
      "version": 1,
      "changeset": 52896737,
      "user": "kavjinadari",
      "uid": 6792205,
      "tags": {
        "addr:street": "New Kandy Road",
        "amenity": "pub",
        "name:en": "Jetters Pub"
      }
    },
    {
      "type": "node",
      "id": 5224646092,
      "lat": 7.2353148,
      "lon": 79.8407849,
      "timestamp": "2017-11-12T12:45:16Z",
      "version": 1,
      "changeset": 53711803,
      "user": "myxor",
      "uid": 1183974,
      "tags": {
        "amenity": "bar",
        "name": "Poolbar"
      }
    },
    {
      "type": "node",
      "id": 5229079336,
      "lat": 5.2939604,
      "lon": 73.0588592,
      "timestamp": "2017-11-14T22:01:46Z",
      "version": 1,
      "changeset": 53784858,
      "user": "anastasiusgruen",
      "uid": 762108,
      "tags": {
        "amenity": "bar",
        "name": "Sky"
      }
    },
    {
      "type": "node",
      "id": 5296769122,
      "lat": 9.9677331,
      "lon": 76.3126779,
      "timestamp": "2024-12-18T10:31:54Z",
      "version": 3,
      "changeset": 160343942,
      "user": "54-46",
      "uid": 20004482,
      "tags": {
        "amenity": "bar",
        "name": "Elysium Gastronomic Lounge",
        "operator": "Daya by Renai"
      }
    },
    {
      "type": "node",
      "id": 5430777321,
      "lat": 6.447815,
      "lon": 79.9830362,
      "timestamp": "2018-02-23T07:27:55Z",
      "version": 1,
      "changeset": 56600933,
      "user": "Louis Engelhardt",
      "uid": 4788586,
      "tags": {
        "amenity": "pub",
        "internet_access": "wlan",
        "name:de": "Saskia"
      }
    },
    {
      "type": "node",
      "id": 5432914068,
      "lat": 5.4905134,
      "lon": 72.9386846,
      "timestamp": "2018-03-04T03:25:26Z",
      "version": 4,
      "changeset": 56861866,
      "user": "GerGel",
      "uid": 482167,
      "tags": {
        "amenity": "bar",
        "name": "Veyo Bar"
      }
    },
    {
      "type": "node",
      "id": 5463931221,
      "lat": 9.4904227,
      "lon": 76.3845989,
      "timestamp": "2018-03-08T08:35:08Z",
      "version": 1,
      "changeset": 56991713,
      "user": "Jessica Navarro",
      "uid": 7729363,
      "tags": {
        "amenity": "bar",
        "name": "drinks and cheap canoe ride"
      }
    },
    {
      "type": "node",
      "id": 5565782280,
      "lat": 6.8481453,
      "lon": 79.9251838,
      "timestamp": "2018-04-20T05:12:32Z",
      "version": 1,
      "changeset": 58252010,
      "user": "Kimi You",
      "uid": 8144491,
      "tags": {
        "amenity": "bar",
        "brewery": "yes",
        "name": "Bar Centrale",
        "opening_hours": "24/7",
        "outdoor_seating": "no",
        "smoking": "isolated"
      }
    },
    {
      "type": "node",
      "id": 5760527121,
      "lat": 7.2489437,
      "lon": 79.8424223,
      "timestamp": "2018-07-14T16:49:50Z",
      "version": 1,
      "changeset": 60716067,
      "user": "Matt Wileman",
      "uid": 8537658,
      "tags": {
        "addr:street": "Poruthota Road",
        "amenity": "bar",
        "name:en": "cheapest beer you will find in Sri Lanka"
      }
    },
    {
      "type": "node",
      "id": 5774416753,
      "lat": 6.9034531,
      "lon": 79.8649561,
      "timestamp": "2018-07-21T05:52:03Z",
      "version": 1,
      "changeset": 60923621,
      "user": "Nick Channon",
      "uid": 8580098,
      "tags": {
        "addr:housenumber": "100/10",
        "addr:postcode": "00700",
        "addr:street": "Independence Avenue",
        "amenity": "bar",
        "name:en": "The Manchester"
      }
    },
    {
      "type": "node",
      "id": 5807687354,
      "lat": 6.8751051,
      "lon": 79.9408436,
      "timestamp": "2020-08-29T07:52:09Z",
      "version": 2,
      "changeset": 90110082,
      "user": "IsiSen96",
      "uid": 11654540,
      "tags": {
        "amenity": "pub",
        "name": "Austasia",
        "name:en": "Podium Austasia"
      }
    },
    {
      "type": "node",
      "id": 6013133706,
      "lat": 5.2530673,
      "lon": 73.1637244,
      "timestamp": "2018-10-25T15:35:04Z",
      "version": 1,
      "changeset": 63872005,
      "user": "aMuTeX",
      "uid": 75217,
      "tags": {
        "amenity": "bar",
        "name": "Riya Beach Bar"
      }
    },
    {
      "type": "node",
      "id": 6013133715,
      "lat": 5.257493,
      "lon": 73.1642085,
      "timestamp": "2018-10-25T15:35:04Z",
      "version": 1,
      "changeset": 63872005,
      "user": "aMuTeX",
      "uid": 75217,
      "tags": {
        "amenity": "bar",
        "name": "Handhuvaru Bar"
      }
    },
    {
      "type": "node",
      "id": 6013133716,
      "lat": 5.2532142,
      "lon": 73.1629345,
      "timestamp": "2021-07-23T04:58:09Z",
      "version": 3,
      "changeset": 108460878,
      "user": "Chdoula",
      "uid": 54304,
      "tags": {
        "amenity": "bar",
        "name": "Sunset Bar",
        "opening_hours": "PH,Mo-Su 11:00-20:00",
        "wheelchair": "no"
      }
    },
    {
      "type": "node",
      "id": 6013133753,
      "lat": 5.2537043,
      "lon": 73.1639631,
      "timestamp": "2021-07-23T04:53:39Z",
      "version": 3,
      "changeset": 108460878,
      "user": "Chdoula",
      "uid": 54304,
      "tags": {
        "amenity": "bar",
        "name": "Rasgefaanu Bar",
        "opening_hours": "PH,Mo-Su 10:00-24:00",
        "wheelchair": "no"
      }
    },
    {
      "type": "node",
      "id": 6093039786,
      "lat": 8.6880566,
      "lon": 76.7637572,
      "timestamp": "2018-11-26T16:03:48Z",
      "version": 2,
      "changeset": 64903091,
      "user": "Syam S vakkom",
      "uid": 6271306,
      "tags": {
        "addr:street": "Vakkom Main Road",
        "amenity": "bar",
        "name": "KTDC Beer Parlour & Restaurant",
        "opening_hours": "Mo-Su 11:00-11:00"
      }
    },
    {
      "type": "node",
      "id": 6166503821,
      "lat": 9.9603938,
      "lon": 76.3685286,
      "timestamp": "2020-09-29T19:12:05Z",
      "version": 3,
      "changeset": 91725997,
      "user": "AYISHA NOON TK",
      "uid": 11780253,
      "tags": {
        "amenity": "bar",
        "name": "Hotel Zenana (Bar)"
      }
    },
    {
      "type": "node",
      "id": 6212975385,
      "lat": 9.500505,
      "lon": 76.346008,
      "timestamp": "2019-01-16T11:23:29Z",
      "version": 1,
      "changeset": 66359502,
      "user": "Jesús cuasiverde",
      "uid": 5168028,
      "tags": {
        "amenity": "bar",
        "name": "Arcadia"
      }
    },
    {
      "type": "node",
      "id": 6218823187,
      "lat": 4.1954645,
      "lon": 73.5259617,
      "timestamp": "2019-11-21T23:23:46Z",
      "version": 2,
      "changeset": 77400747,
      "user": "MadMapsMax",
      "uid": 9917909,
      "tags": {
        "amenity": "bar",
        "name:en": "Bar (Alcohol is here!)",
        "name:ru": "Бар (тут есть алкашка!)"
      }
    },
    {
      "type": "node",
      "id": 6239044285,
      "lat": 9.5905231,
      "lon": 76.52296,
      "timestamp": "2020-04-27T13:57:29Z",
      "version": 2,
      "changeset": 84203724,
      "user": "Gohul K V",
      "uid": 11080286,
      "tags": {
        "amenity": "bar"
      }
    },
    {
      "type": "node",
      "id": 6239044385,
      "lat": 9.6064652,
      "lon": 77.1655406,
      "timestamp": "2019-01-27T03:22:17Z",
      "version": 1,
      "changeset": 66668564,
      "user": "Jesús cuasiverde",
      "uid": 5168028,
      "tags": {
        "amenity": "bar"
      }
    },
    {
      "type": "node",
      "id": 6267089785,
      "lat": 4.3092256,
      "lon": 73.4239631,
      "timestamp": "2023-11-17T10:35:35Z",
      "version": 2,
      "changeset": 144132608,
      "user": "b-jazz-bot",
      "uid": 9451067,
      "tags": {
        "addr:postcode": "08110",
        "amenity": "bar",
        "internet_access": "wlan",
        "name:en": "Naiboli Bar",
        "phone": "+960 6643147",
        "website": "https://www.banyantree.com/"
      }
    },
    {
      "type": "node",
      "id": 6297198485,
      "lat": 6.9338123,
      "lon": 79.8433322,
      "timestamp": "2019-02-23T10:30:33Z",
      "version": 1,
      "changeset": 67490259,
      "user": "Isaac Siamsato",
      "uid": 9469063,
      "tags": {
        "amenity": "bar",
        "name:en": "Next innings"
      }
    },
    {
      "type": "node",
      "id": 6340900280,
      "lat": 6.9060241,
      "lon": 79.9122113,
      "timestamp": "2019-03-16T03:01:02Z",
      "version": 1,
      "changeset": 68194679,
      "user": "mbethke",
      "uid": 248338,
      "tags": {
        "amenity": "bar",
        "name": "The Long Bar by the Edge"
      }
    },
    {
      "type": "node",
      "id": 6344200754,
      "lat": 5.5525758,
      "lon": 73.4704035,
      "timestamp": "2025-10-06T03:02:38Z",
      "version": 3,
      "changeset": 172891716,
      "user": "Bernhard Hofmann",
      "uid": 20839085,
      "tags": {
        "amenity": "bar",
        "name": "O-Bar",
        "opening_hours": "Mo-Su 09:00-24:00",
        "website": "https://www.kuredu.com/"
      }
    },
    {
      "type": "node",
      "id": 6387485397,
      "lat": 9.6127759,
      "lon": 76.7749447,
      "timestamp": "2019-04-06T11:54:37Z",
      "version": 1,
      "changeset": 68950036,
      "user": "NibinTpl",
      "uid": 7767632,
      "tags": {
        "addr:city": "kalaketty",
        "addr:postcode": "686508",
        "addr:street": "Sabarimala - Kodaikkanal Road",
        "amenity": "bar",
        "name": "Kalaketty Toddy Shop",
        "outdoor_seating": "no",
        "smoking": "separated"
      }
    },
    {
      "type": "node",
      "id": 6392593185,
      "lat": 7.2405567,
      "lon": 79.8419653,
      "timestamp": "2019-04-09T04:16:18Z",
      "version": 1,
      "changeset": 69029102,
      "user": "Russ McD",
      "uid": 346601,
      "tags": {
        "amenity": "bar",
        "name:en": "Pub 4x4 international"
      }
    },
    {
      "type": "node",
      "id": 6397927086,
      "lat": 6.4831728,
      "lon": 79.9835689,
      "timestamp": "2019-04-12T02:06:37Z",
      "version": 2,
      "changeset": 69136280,
      "user": "Russ McD",
      "uid": 346601,
      "tags": {
        "amenity": "bar",
        "name:en": "Chillax Beer Garden",
        "opening_hours": "Mo-Su 10:00-11:59"
      }
    },
    {
      "type": "node",
      "id": 6411059473,
      "lat": 9.6486746,
      "lon": 76.778347,
      "timestamp": "2019-04-17T07:50:32Z",
      "version": 1,
      "changeset": 69298464,
      "user": "NibinTpl",
      "uid": 7767632,
      "tags": {
        "addr:street": "Sabarimala - Kodaikkanal Road",
        "amenity": "bar",
        "brewery": "various",
        "name": "Toddy Shop",
        "name:ml": "കള്ള് ഷാപ്പ്‌",
        "outdoor_seating": "no",
        "payment:cash": "yes",
        "smoking": "yes"
      }
    },
    {
      "type": "node",
      "id": 6475139285,
      "lat": 6.4207064,
      "lon": 79.9979376,
      "timestamp": "2019-05-15T10:56:22Z",
      "version": 1,
      "changeset": 70269756,
      "user": "Olesun",
      "uid": 9958243,
      "tags": {
        "amenity": "bar",
        "name:en": "Bentotta"
      }
    },
    {
      "type": "node",
      "id": 6566126285,
      "lat": 8.5032087,
      "lon": 76.9521821,
      "timestamp": "2019-06-23T14:54:31Z",
      "version": 1,
      "changeset": 71533981,
      "user": "Brian773",
      "uid": 10044482,
      "tags": {
        "amenity": "bar",
        "name": "Mukkadans Beer and Wine"
      }
    },
    {
      "type": "node",
      "id": 6586189370,
      "lat": 8.4962946,
      "lon": 76.9555382,
      "timestamp": "2019-07-04T05:21:24Z",
      "version": 2,
      "changeset": 71882579,
      "user": "Neelima T",
      "uid": 10097146,
      "tags": {
        "amenity": "bar",
        "name": "S P Grand Days"
      }
    },
    {
      "type": "node",
      "id": 6611449856,
      "lat": 9.6570016,
      "lon": 76.7375923,
      "timestamp": "2019-07-13T08:23:07Z",
      "version": 1,
      "changeset": 72204592,
      "user": "NibinTpl",
      "uid": 7767632,
      "tags": {
        "addr:street": "Pinnakkanad - Paika Road",
        "amenity": "bar",
        "name": "Ambalavayal Toddy Shop",
        "outdoor_seating": "yes",
        "phone": "+91 79028 46567"
      }
    },
    {
      "type": "node",
      "id": 6611459391,
      "lat": 9.6474448,
      "lon": 76.7521452,
      "timestamp": "2019-07-13T08:23:07Z",
      "version": 1,
      "changeset": 72204592,
      "user": "NibinTpl",
      "uid": 7767632,
      "tags": {
        "addr:city": "Mallikashery",
        "addr:street": "Pinnakkanad - Paika Road",
        "amenity": "bar",
        "name": "Toddy Shop T S No.9",
        "opening_hours": "Mo-Su 09:00-21:00",
        "outdoor_seating": "yes"
      }
    },
    {
      "type": "node",
      "id": 6615719528,
      "lat": 6.957746,
      "lon": 79.8622576,
      "timestamp": "2019-07-15T06:29:14Z",
      "version": 1,
      "changeset": 72250044,
      "user": "rashini_slt",
      "uid": 10034640,
      "tags": {
        "addr:city": "Colombo",
        "addr:street": "Aluthmawatha Rd",
        "amenity": "bar",
        "name": "Harbour Wine Store"
      }
    },
    {
      "type": "node",
      "id": 6630965158,
      "lat": 6.8907598,
      "lon": 79.9035474,
      "timestamp": "2019-12-13T17:16:42Z",
      "version": 2,
      "changeset": 78386424,
      "user": "mbethke",
      "uid": 248338,
      "tags": {
        "addr:city": "Sri Jayawardenepura Kotte",
        "addr:housenumber": "613",
        "addr:street": "Kotte Road",
        "amenity": "bar",
        "name": "Sumis Place"
      }
    },
    {
      "type": "node",
      "id": 6633362806,
      "lat": 9.9173787,
      "lon": 78.1122217,
      "timestamp": "2019-07-20T14:46:16Z",
      "version": 1,
      "changeset": 72462490,
      "user": "magnunor",
      "uid": 185205,
      "tags": {
        "amenity": "bar",
        "name": "Mohanam"
      }
    },
    {
      "type": "node",
      "id": 6728649985,
      "lat": 6.9342032,
      "lon": 79.8503939,
      "timestamp": "2019-08-21T04:01:11Z",
      "version": 1,
      "changeset": 73562248,
      "user": "Daisuke1015",
      "uid": 6030071,
      "tags": {
        "amenity": "pub"
      }
    },
    {
      "type": "node",
      "id": 6778547782,
      "lat": 6.9159865,
      "lon": 79.859881,
      "timestamp": "2022-12-13T17:58:16Z",
      "version": 3,
      "changeset": 130045436,
      "user": "duckman56",
      "uid": 14864469,
      "tags": {
        "addr:street": "Park Street",
        "amenity": "pub",
        "check_date": "2022-12-13",
        "name": "The Irish Bar & Grill"
      }
    },
    {
      "type": "node",
      "id": 6832308600,
      "lat": 6.8583801,
      "lon": 79.91585,
      "timestamp": "2019-09-28T09:34:56Z",
      "version": 1,
      "changeset": 75035538,
      "user": "mbethke",
      "uid": 248338,
      "tags": {
        "amenity": "bar",
        "name": "Lounge 171"
      }
    },
    {
      "type": "node",
      "id": 6871241677,
      "lat": 6.9205636,
      "lon": 79.8561635,
      "timestamp": "2019-10-11T15:40:52Z",
      "version": 1,
      "changeset": 75574523,
      "user": "mbethke",
      "uid": 248338,
      "tags": {
        "amenity": "bar",
        "level": "0",
        "name": "Basico Bar&Lounge"
      }
    },
    {
      "type": "node",
      "id": 6894712940,
      "lat": 9.018514,
      "lon": 76.9182858,
      "timestamp": "2019-10-18T06:16:08Z",
      "version": 1,
      "changeset": 75872787,
      "user": "VAISHAK J",
      "uid": 10390647,
      "tags": {
        "addr:city": "Punalur",
        "addr:housenumber": "Ashoka Bar",
        "addr:postcode": "691310",
        "addr:street": "NH Oneway Byepass",
        "amenity": "bar",
        "brewery": "yes",
        "name": "Ashoka Bar,Punalur",
        "outdoor_seating": "no"
      }
    },
    {
      "type": "node",
      "id": 6897478908,
      "lat": 9.5053104,
      "lon": 76.6399457,
      "timestamp": "2020-04-29T11:17:31Z",
      "version": 2,
      "changeset": 84333935,
      "user": "krishnapriyavishnu",
      "uid": 10924350,
      "tags": {
        "addr:street": "Kottayam-Kozhencherry Highway",
        "amenity": "bar",
        "name": "Arcadia Fort"
      }
    },
    {
      "type": "node",
      "id": 6899538941,
      "lat": 9.5729468,
      "lon": 77.0899639,
      "timestamp": "2019-10-20T06:56:59Z",
      "version": 1,
      "changeset": 75945441,
      "user": "jothishbabu",
      "uid": 9594323,
      "tags": {
        "amenity": "bar",
        "name": "Springdale hotel"
      }
    },
    {
      "type": "node",
      "id": 6907625186,
      "lat": 7.2009921,
      "lon": 79.8541224,
      "timestamp": "2019-10-24T09:44:55Z",
      "version": 2,
      "changeset": 76143793,
      "user": "mbethke",
      "uid": 248338,
      "tags": {
        "amenity": "bar",
        "name": "Machang Pub Restaurant"
      }
    },
    {
      "type": "node",
      "id": 7003525450,
      "lat": 6.9316183,
      "lon": 79.8426024,
      "timestamp": "2019-11-23T03:31:43Z",
      "version": 1,
      "changeset": 77450827,
      "user": "mbethke",
      "uid": 248338,
      "tags": {
        "amenity": "bar",
        "name": "Margarita Blue"
      }
    },
    {
      "type": "node",
      "id": 7023372501,
      "lat": 7.2215767,
      "lon": 79.8389189,
      "timestamp": "2020-01-02T13:48:41Z",
      "version": 2,
      "changeset": 79115534,
      "user": "Scutii",
      "uid": 8616859,
      "tags": {
        "amenity": "bar",
        "name": "The Container",
        "outdoor_seating": "yes"
      }
    },
    {
      "type": "node",
      "id": 7041298785,
      "lat": 8.9867451,
      "lon": 76.6204952,
      "timestamp": "2019-12-08T06:44:03Z",
      "version": 1,
      "changeset": 78102228,
      "user": "Jessica Venancio",
      "uid": 10528247,
      "tags": {
        "amenity": "bar"
      }
    },
    {
      "type": "node",
      "id": 7053997710,
      "lat": 7.2281181,
      "lon": 79.8409614,
      "timestamp": "2023-10-22T09:06:10Z",
      "version": 2,
      "changeset": 142958367,
      "user": "b-jazz-bot",
      "uid": 9451067,
      "tags": {
        "addr:city": "Negombo",
        "addr:housenumber": "140",
        "addr:postcode": "11500",
        "addr:street": "Lewis Place",
        "amenity": "bar",
        "min_age": "21",
        "name": "Spazio Pub",
        "phone": "0312 235 913",
        "smoking": "separated",
        "website": "https://www.airwinghotels.com/"
      }
    },
    {
      "type": "node",
      "id": 7100663688,
      "lat": 6.9983567,
      "lon": 72.9384571,
      "timestamp": "2021-03-08T20:31:46Z",
      "version": 3,
      "changeset": 100660723,
      "user": "DoubleA",
      "uid": 1198074,
      "tags": {
        "amenity": "bar",
        "name": "Inginity Bar & Pool"
      }
    },
    {
      "type": "node",
      "id": 7100663786,
      "lat": 6.9969248,
      "lon": 72.9399453,
      "timestamp": "2021-02-22T18:48:02Z",
      "version": 2,
      "changeset": 99766035,
      "user": "DoubleA",
      "uid": 1198074,
      "tags": {
        "amenity": "bar",
        "name": "Stuff Bar & Pool"
      }
    },
    {
      "type": "node",
      "id": 7105194786,
      "lat": 9.9706039,
      "lon": 76.2851325,
      "timestamp": "2024-09-28T13:44:41Z",
      "version": 6,
      "changeset": 157211585,
      "user": "54-46",
      "uid": 20004482,
      "tags": {
        "addr:city": "Ernakulam",
        "addr:district": "Ernakulam",
        "addr:postcode": "682011",
        "addr:street": "Grand Hotel, Mahatma Gandhi Road",
        "air_conditioning": "yes",
        "amenity": "bar",
        "brewery": "no",
        "indoor_seating": "yes",
        "microbrewery": "no",
        "name": "Couchyn",
        "outdoor_seating": "no",
        "payment:credit_cards": "yes",
        "payment:debit_cards": "yes",
        "smoking": "isolated",
        "website": "https://couchyn.business.site",
        "wheelchair": "yes"
      }
    },
    {
      "type": "node",
      "id": 7124294787,
      "lat": 6.4329088,
      "lon": 79.9984846,
      "timestamp": "2020-01-11T13:15:40Z",
      "version": 1,
      "changeset": 79451206,
      "user": "Patr1k",
      "uid": 10517226,
      "tags": {
        "amenity": "bar",
        "cuisine": "tea;cake;sandwich;ice_cream",
        "name:en": "Shani Juice Bar"
      }
    },
    {
      "type": "node",
      "id": 7142057769,
      "lat": 8.9078007,
      "lon": 76.6238809,
      "timestamp": "2020-07-22T05:31:25Z",
      "version": 2,
      "changeset": 88324507,
      "user": "ashiknizam",
      "uid": 11461223,
      "tags": {
        "addr:housenumber": "Harisree",
        "addr:street": "moonamkutty mangad road",
        "amenity": "bar",
        "bar": "yes",
        "internet_access": "no",
        "name": "Harisree"
      }
    },
    {
      "type": "node",
      "id": 7156213485,
      "lat": 9.5271674,
      "lon": 79.7089144,
      "timestamp": "2020-01-24T11:18:36Z",
      "version": 1,
      "changeset": 80028223,
      "user": "paudeviatge",
      "uid": 3997030,
      "tags": {
        "amenity": "bar",
        "name:ca": "Organic Juice & Coffee",
        "name:en": "Organic Juice & Coffee"
      }
    },
    {
      "type": "node",
      "id": 7168916359,
      "lat": 6.8838798,
      "lon": 79.8555222,
      "timestamp": "2020-01-29T10:15:25Z",
      "version": 1,
      "changeset": 80248405,
      "user": "mbethke",
      "uid": 248338,
      "tags": {
        "amenity": "bar",
        "level": "0",
        "name": "The Circle"
      }
    },
    {
      "type": "node",
      "id": 7191615027,
      "lat": 9.7886983,
      "lon": 76.5691864,
      "timestamp": "2020-02-06T17:50:54Z",
      "version": 1,
      "changeset": 80655275,
      "user": "Johnichan",
      "uid": 483363,
      "tags": {
        "amenity": "bar",
        "name": "Non working old toddy shop"
      }
    },
    {
      "type": "node",
      "id": 7203960067,
      "lat": 9.3895607,
      "lon": 76.5781511,
      "timestamp": "2020-02-11T16:29:39Z",
      "version": 1,
      "changeset": 80860679,
      "user": "Aromal P S",
      "uid": 10450432,
      "tags": {
        "amenity": "bar",
        "name": "Panchami beer & wine parlour"
      }
    },
    {
      "type": "node",
      "id": 7215628970,
      "lat": 8.4984595,
      "lon": 76.9472221,
      "timestamp": "2020-02-16T06:53:25Z",
      "version": 1,
      "changeset": 81062807,
      "user": "Arun Madhavan",
      "uid": 5661639,
      "tags": {
        "amenity": "pub",
        "name": "KTDC Beer Parlour"
      }
    },
    {
      "type": "node",
      "id": 7304816096,
      "lat": 9.5995497,
      "lon": 76.6475688,
      "timestamp": "2023-06-30T07:37:31Z",
      "version": 3,
      "changeset": 137946148,
      "user": "Dinsh",
      "uid": 10923610,
      "tags": {
        "amenity": "pub",
        "brand": "Toddy Shop",
        "brand:wikidata": "Q7812761",
        "drink:palm_wine": "yes",
        "name": "Toddy Shop"
      }
    },
    {
      "type": "node",
      "id": 7305318418,
      "lat": 9.6822406,
      "lon": 76.6077203,
      "timestamp": "2020-03-18T07:56:45Z",
      "version": 1,
      "changeset": 82336154,
      "user": "Aswanth Ashokan",
      "uid": 10450398,
      "tags": {
        "amenity": "bar",
        "name": "KIdangoor Toddy Shop"
      }
    },
    {
      "type": "node",
      "id": 7308320121,
      "lat": 9.4801223,
      "lon": 76.6041303,
      "timestamp": "2020-04-29T13:47:43Z",
      "version": 2,
      "changeset": 84343675,
      "user": "krishnapriyavishnu",
      "uid": 10924350,
      "tags": {
        "addr:street": "Changanassery- Vazhoor Road",
        "amenity": "bar",
        "name": "Toddy bar"
      }
    },
    {
      "type": "node",
      "id": 7308416212,
      "lat": 9.3872931,
      "lon": 76.8433959,
      "timestamp": "2020-03-19T07:31:14Z",
      "version": 1,
      "changeset": 82378340,
      "user": "Lachuz",
      "uid": 10450833,
      "tags": {
        "addr:city": "ranni",
        "addr:housenumber": "toddy shop",
        "addr:postcode": "689711",
        "addr:street": "athikayam",
        "amenity": "bar",
        "name": "toddy shop"
      }
    },
    {
      "type": "node",
      "id": 7312808772,
      "lat": 9.6645938,
      "lon": 76.6236363,
      "timestamp": "2020-03-20T15:35:49Z",
      "version": 1,
      "changeset": 82437896,
      "user": "Aswanth Ashokan",
      "uid": 10450398,
      "tags": {
        "amenity": "bar",
        "name": "Shivagiri Shap (Toddy Shop)"
      }
    },
    {
      "type": "node",
      "id": 7312817213,
      "lat": 9.6479647,
      "lon": 76.6103507,
      "timestamp": "2020-03-20T15:35:49Z",
      "version": 1,
      "changeset": 82437896,
      "user": "Aswanth Ashokan",
      "uid": 10450398,
      "tags": {
        "amenity": "bar",
        "name": "Kongandoor Shappu (Toddy Shop)"
      }
    },
    {
      "type": "node",
      "id": 7321140879,
      "lat": 9.6979658,
      "lon": 76.5837684,
      "timestamp": "2023-01-01T16:12:26Z",
      "version": 2,
      "changeset": 130754720,
      "user": "sobinsiril",
      "uid": 9241141,
      "tags": {
        "amenity": "bar",
        "name": "Kadapoor Toddy Shop"
      }
    },
    {
      "type": "node",
      "id": 7324776417,
      "lat": 9.873724,
      "lon": 76.4877721,
      "timestamp": "2020-03-24T07:50:18Z",
      "version": 1,
      "changeset": 82557591,
      "user": "Amitha k Biju",
      "uid": 10388660,
      "tags": {
        "amenity": "bar",
        "name": "Maharani Restaurant and Bar"
      }
    },
    {
      "type": "node",
      "id": 7325442680,
      "lat": 9.8905658,
      "lon": 76.5472711,
      "timestamp": "2020-03-24T12:48:18Z",
      "version": 1,
      "changeset": 82571277,
      "user": "Amitha k Biju",
      "uid": 10388660,
      "tags": {
        "amenity": "bar",
        "name": "Andichira Toddy Bar"
      }
    },
    {
      "type": "node",
      "id": 7325451740,
      "lat": 9.8966911,
      "lon": 76.5375514,
      "timestamp": "2020-03-24T12:45:20Z",
      "version": 1,
      "changeset": 82571170,
      "user": "Amitha k Biju",
      "uid": 10388660,
      "tags": {
        "amenity": "bar",
        "name": "Kakkoor Todday Bar"
      }
    },
    {
      "type": "node",
      "id": 7331387767,
      "lat": 9.8861836,
      "lon": 76.5714273,
      "timestamp": "2020-03-26T10:56:29Z",
      "version": 1,
      "changeset": 82656276,
      "user": "Amitha k Biju",
      "uid": 10388660,
      "tags": {
        "amenity": "bar",
        "name": "Toddy Shop"
      }
    },
    {
      "type": "node",
      "id": 7333973263,
      "lat": 9.4780318,
      "lon": 76.5849135,
      "timestamp": "2020-04-29T13:56:52Z",
      "version": 2,
      "changeset": 84344179,
      "user": "krishnapriyavishnu",
      "uid": 10924350,
      "tags": {
        "addr:street": "Changanassery- Vazhoor Road",
        "amenity": "bar",
        "name": "Ellimodu tody shop"
      }
    },
    {
      "type": "node",
      "id": 7334007360,
      "lat": 9.4769696,
      "lon": 76.5814302,
      "timestamp": "2020-03-27T05:41:14Z",
      "version": 1,
      "changeset": 82694281,
      "user": "Abhilash ks",
      "uid": 10575673,
      "tags": {
        "amenity": "bar",
        "name": "Tody bar"
      }
    },
    {
      "type": "node",
      "id": 7334036698,
      "lat": 9.6142737,
      "lon": 76.5073959,
      "timestamp": "2020-03-27T05:57:28Z",
      "version": 1,
      "changeset": 82694846,
      "user": "GOKULKRISHNAN K G",
      "uid": 10908588,
      "tags": {
        "amenity": "bar",
        "name": "Toddy Parlour Kudayampady"
      }
    },
    {
      "type": "node",
      "id": 7334086468,
      "lat": 9.6030763,
      "lon": 76.6806191,
      "timestamp": "2020-03-27T06:27:42Z",
      "version": 1,
      "changeset": 82696027,
      "user": "Amrutha_ammu",
      "uid": 10450410,
      "tags": {
        "amenity": "bar",
        "name": "Kerala State Beverages Corporation"
      }
    },
    {
      "type": "node",
      "id": 7334121560,
      "lat": 9.6256552,
      "lon": 76.5126483,
      "timestamp": "2020-03-27T06:46:26Z",
      "version": 1,
      "changeset": 82696826,
      "user": "GOKULKRISHNAN K G",
      "uid": 10908588,
      "tags": {
        "amenity": "bar",
        "name": "Panchavadi"
      }
    },
    {
      "type": "node",
      "id": 7334282635,
      "lat": 9.5664065,
      "lon": 76.7099151,
      "timestamp": "2020-03-27T08:20:55Z",
      "version": 1,
      "changeset": 82702081,
      "user": "Aparna suresh",
      "uid": 10575667,
      "tags": {
        "amenity": "bar",
        "name": "madhurima cool bar"
      }
    },
    {
      "type": "node",
      "id": 7334443984,
      "lat": 9.5015297,
      "lon": 76.6396159,
      "timestamp": "2020-05-03T07:50:48Z",
      "version": 4,
      "changeset": 84551069,
      "user": "localguide777",
      "uid": 11119820,
      "tags": {
        "addr:postcode": "686540",
        "addr:street": "Kottayam-Kozhencherry Highway",
        "amenity": "bar",
        "name": "Alaina Bar"
      }
    },
    {
      "type": "node",
      "id": 7334473356,
      "lat": 9.8026974,
      "lon": 76.5759413,
      "timestamp": "2020-04-29T09:45:52Z",
      "version": 2,
      "changeset": 84326816,
      "user": "Itsanupama",
      "uid": 10915242,
      "tags": {
        "amenity": "bar",
        "name": "Toddy Shop, Monippally"
      }
    },
    {
      "type": "node",
      "id": 7334712342,
      "lat": 9.5851146,
      "lon": 76.525126,
      "timestamp": "2022-09-02T19:35:16Z",
      "version": 2,
      "changeset": 125713096,
      "user": "Asish Abraham Joseph",
      "uid": 7456928,
      "tags": {
        "amenity": "pub",
        "brand": "Toddy Shop",
        "brand:wikidata": "Q7812761",
        "drink:palm_wine": "yes",
        "name": "toddy shop"
      }
    },
    {
      "type": "node",
      "id": 7335003885,
      "lat": 9.7127884,
      "lon": 76.6836552,
      "timestamp": "2020-05-08T11:27:40Z",
      "version": 2,
      "changeset": 84890848,
      "user": "Joel Simon Vaniyapura",
      "uid": 11146062,
      "tags": {
        "amenity": "bar",
        "name": "rajaadhani bar"
      }
    },
    {
      "type": "node",
      "id": 7335076887,
      "lat": 9.7605422,
      "lon": 76.5623734,
      "timestamp": "2021-02-20T15:45:54Z",
      "version": 2,
      "changeset": 99648319,
      "user": "SANJU SAJEEV",
      "uid": 12703490,
      "tags": {
        "addr:street": "MC Road",
        "amenity": "bar",
        "name": "Toddy Shop Kuravilangad"
      }
    },
    {
      "type": "node",
      "id": 7339655989,
      "lat": 9.7432443,
      "lon": 76.5140624,
      "timestamp": "2020-03-28T04:30:41Z",
      "version": 1,
      "changeset": 82739773,
      "user": "haripriya ashok",
      "uid": 10450406,
      "tags": {
        "addr:city": "Kuruppanthara",
        "addr:postcode": "686603",
        "addr:street": "Ettumanoor - Ernakulam Road",
        "amenity": "bar",
        "name": "Hotel Varsha International"
      }
    },
    {
      "type": "node",
      "id": 7340017385,
      "lat": 9.4645697,
      "lon": 76.5669597,
      "timestamp": "2020-04-29T14:50:28Z",
      "version": 2,
      "changeset": 84346894,
      "user": "krishnapriyavishnu",
      "uid": 10924350,
      "tags": {
        "addr:street": "Changanassery- Vazhoor Road",
        "amenity": "bar",
        "name": "Aanandh bar"
      }
    },
    {
      "type": "node",
      "id": 7340155475,
      "lat": 9.5310647,
      "lon": 76.6569349,
      "timestamp": "2020-03-28T10:48:07Z",
      "version": 1,
      "changeset": 82749790,
      "user": "Parvathy mohan",
      "uid": 10450411,
      "tags": {
        "addr:city": "karukachal",
        "addr:postcode": "686542",
        "addr:street": "Changanassery - Vazhoor Road",
        "amenity": "bar",
        "brewery": "various",
        "min_age": "18",
        "name": "local bar",
        "opening_hours": "24/7"
      }
    },
    {
      "type": "node",
      "id": 7342933202,
      "lat": 9.9087488,
      "lon": 76.4402945,
      "timestamp": "2020-03-29T13:03:34Z",
      "version": 1,
      "changeset": 82778437,
      "user": "Amitha k Biju",
      "uid": 10388660,
      "tags": {
        "amenity": "bar",
        "name": "Toddy shop, Pambra kavala"
      }
    },
    {
      "type": "node",
      "id": 7349864166,
      "lat": 9.8225715,
      "lon": 76.6833697,
      "timestamp": "2020-03-31T05:58:44Z",
      "version": 1,
      "changeset": 82855146,
      "user": "Amitha k Biju",
      "uid": 10388660,
      "tags": {
        "amenity": "bar",
        "name": "Manthoppe toddy shop"
      }
    },
    {
      "type": "node",
      "id": 7444266859,
      "lat": 8.3514013,
      "lon": 77.1462621,
      "timestamp": "2020-10-02T06:31:51Z",
      "version": 2,
      "changeset": 91854992,
      "user": "Revathy Sunil",
      "uid": 11779898,
      "tags": {
        "amenity": "pub",
        "name": "Vijay Star Hindusthan"
      }
    },
    {
      "type": "node",
      "id": 7444599713,
      "lat": 8.3419219,
      "lon": 77.154213,
      "timestamp": "2022-06-24T10:24:48Z",
      "version": 3,
      "changeset": 122796331,
      "user": "gaikward",
      "uid": 16222568,
      "tags": {
        "amenity": "bar",
        "name": "Prasanthi Bar"
      }
    },
    {
      "type": "node",
      "id": 7452251593,
      "lat": 9.9368184,
      "lon": 76.7559615,
      "timestamp": "2020-04-28T14:17:40Z",
      "version": 2,
      "changeset": 84272905,
      "user": "Jeffin Jose",
      "uid": 11081789,
      "tags": {
        "addr:city": "Thodupuzha",
        "addr:postcode": "685582",
        "addr:street": "Vandamattom - Irambillil Road",
        "amenity": "bar",
        "name": "Toddy Bar - Naadan Kallu: Shappu - Vandamattom"
      }
    },
    {
      "type": "node",
      "id": 7456870234,
      "lat": 9.019145,
      "lon": 76.9252896,
      "timestamp": "2020-09-14T10:13:45Z",
      "version": 2,
      "changeset": 90858488,
      "user": "Saritha K S",
      "uid": 9264016,
      "tags": {
        "amenity": "bar",
        "name": "Narendra"
      }
    },
    {
      "type": "node",
      "id": 7457081407,
      "lat": 9.6284869,
      "lon": 76.3047606,
      "timestamp": "2020-04-28T09:17:11Z",
      "version": 1,
      "changeset": 84253425,
      "user": "Rishi Kishore",
      "uid": 11077448,
      "tags": {
        "amenity": "bar",
        "name": "Karappuram"
      }
    },
    {
      "type": "node",
      "id": 7462213221,
      "lat": 9.9534518,
      "lon": 76.7683406,
      "timestamp": "2020-04-29T07:55:37Z",
      "version": 2,
      "changeset": 84318507,
      "user": "Joseph Benny",
      "uid": 11065052,
      "tags": {
        "addr:city": "Thodupuzha",
        "addr:postcode": "685582",
        "addr:street": "Alappuzha - Madurai Road",
        "amenity": "bar",
        "name": "Toddy Bar Shop ,East Kodikulam"
      }
    },
    {
      "type": "node",
      "id": 7463730946,
      "lat": 9.4468191,
      "lon": 76.5401316,
      "timestamp": "2020-04-29T14:22:36Z",
      "version": 1,
      "changeset": 84345544,
      "user": "niveagigen",
      "uid": 9579621,
      "tags": {
        "amenity": "bar",
        "name": "vani bar"
      }
    },
    {
      "type": "node",
      "id": 7463730976,
      "lat": 9.4467228,
      "lon": 76.540614,
      "timestamp": "2020-04-29T14:22:36Z",
      "version": 1,
      "changeset": 84345544,
      "user": "niveagigen",
      "uid": 9579621,
      "tags": {
        "amenity": "bar",
        "name": "Anand"
      }
    },
    {
      "type": "node",
      "id": 7464651029,
      "lat": 9.9270126,
      "lon": 77.0570311,
      "timestamp": "2020-04-29T19:32:28Z",
      "version": 1,
      "changeset": 84360198,
      "user": "Midhun Mathew",
      "uid": 11061786,
      "tags": {
        "amenity": "bar",
        "name": "toddy"
      }
    },
    {
      "type": "node",
      "id": 7466191285,
      "lat": 9.4128001,
      "lon": 76.5497191,
      "timestamp": "2020-09-07T16:30:50Z",
      "version": 2,
      "changeset": 90541254,
      "user": "nxy16",
      "uid": 11600223,
      "tags": {
        "amenity": "bar",
        "name": "Alamthuruthy Toddy Shop"
      }
    },
    {
      "type": "node",
      "id": 7466632168,
      "lat": 9.9473885,
      "lon": 76.3560245,
      "timestamp": "2020-04-30T10:14:53Z",
      "version": 1,
      "changeset": 84403412,
      "user": "MAMATHA T L",
      "uid": 10408189,
      "tags": {
        "amenity": "bar"
      }
    },
    {
      "type": "node",
      "id": 7467810340,
      "lat": 9.9574158,
      "lon": 76.3549989,
      "timestamp": "2020-06-02T18:25:08Z",
      "version": 2,
      "changeset": 86093195,
      "user": "MAMATHA T L",
      "uid": 10408189,
      "tags": {
        "amenity": "bar",
        "name": "NM"
      }
    },
    {
      "type": "node",
      "id": 7468225024,
      "lat": 9.9380518,
      "lon": 77.0346034,
      "timestamp": "2020-09-16T07:40:28Z",
      "version": 2,
      "changeset": 90968423,
      "user": "umaisira",
      "uid": 11600504,
      "tags": {
        "amenity": "bar",
        "name": "Toddy Shop"
      }
    },
    {
      "type": "node",
      "id": 7468238805,
      "lat": 9.9579957,
      "lon": 76.359071,
      "timestamp": "2020-06-03T02:08:14Z",
      "version": 2,
      "changeset": 86103459,
      "user": "MAMATHA T L",
      "uid": 10408189,
      "tags": {
        "amenity": "bar",
        "name": "Toddy"
      }
    },
    {
      "type": "node",
      "id": 7469033087,
      "lat": 9.9800236,
      "lon": 76.5855692,
      "timestamp": "2023-09-22T15:17:44Z",
      "version": 3,
      "changeset": 141609915,
      "user": "DryDay",
      "uid": 19896001,
      "tags": {
        "addr:city": "Muvattupuzha",
        "addr:street": "പ്രധാന കിഴക്കൻ ഹൈവേ",
        "amenity": "bar",
        "name": "Akshaya Bar",
        "operator": "The Krishna Regency"
      }
    },
    {
      "type": "node",
      "id": 7469048668,
      "lat": 9.9836347,
      "lon": 76.578349,
      "timestamp": "2023-09-22T15:10:14Z",
      "version": 3,
      "changeset": 141609583,
      "user": "DryDay",
      "uid": 19896001,
      "tags": {
        "addr:city": "Muvattupuzha",
        "addr:district": "Ernakulam",
        "addr:housenumber": "XII/658 to 665",
        "addr:postcode": "686661",
        "addr:street": "MC Road",
        "air_conditioning": "yes",
        "amenity": "bar",
        "brewery": "various",
        "level": "0",
        "min_age": "18",
        "name": "The Residency Bar",
        "name:ml": "ദി റെസിഡൻസി ബാർ",
        "opening_hours": "Mo-Su 10:00-23:00",
        "operator": "Paray",
        "outdoor_seating": "no",
        "smoking": "outside"
      }
    },
    {
      "type": "node",
      "id": 7469321896,
      "lat": 9.9454107,
      "lon": 77.0151077,
      "timestamp": "2020-09-05T07:45:30Z",
      "version": 2,
      "changeset": 90443453,
      "user": "navyams3774",
      "uid": 11600343,
      "tags": {
        "amenity": "bar",
        "name": "Toddy Shop"
      }
    },
    {
      "type": "node",
      "id": 7469413280,
      "lat": 9.7944748,
      "lon": 76.4231143,
      "timestamp": "2020-05-01T06:08:04Z",
      "version": 1,
      "changeset": 84452313,
      "user": "Amitha k Biju",
      "uid": 10388660,
      "tags": {
        "amenity": "bar",
        "name": "Valampalli Toddy Shop"
      }
    },
    {
      "type": "node",
      "id": 7470381529,
      "lat": 9.9821612,
      "lon": 76.5785792,
      "timestamp": "2024-02-14T08:49:36Z",
      "version": 6,
      "changeset": 147440630,
      "user": "_r!ch-a_",
      "uid": 13860248,
      "tags": {
        "addr:city": "Muvattupuzha",
        "addr:district": "Ernakulam",
        "addr:neighbourhood": "Aramana Junction",
        "addr:postcode": "686673",
        "addr:street": "MC Road",
        "amenity": "bar",
        "name": "Ganga Bar",
        "name:ml": "ഗംഗ ബാർ"
      }
    },
    {
      "type": "node",
      "id": 7472114865,
      "lat": 9.9288405,
      "lon": 77.0757728,
      "timestamp": "2020-09-11T13:38:56Z",
      "version": 2,
      "changeset": 90761990,
      "user": "umaisira",
      "uid": 11600504,
      "tags": {
        "amenity": "bar",
        "name": "Toddy Shop"
      }
    },
    {
      "type": "node",
      "id": 7472139046,
      "lat": 9.934569,
      "lon": 77.0562129,
      "timestamp": "2020-09-11T13:29:44Z",
      "version": 2,
      "changeset": 90761549,
      "user": "umaisira",
      "uid": 11600504,
      "tags": {
        "amenity": "bar",
        "name": "Toddy Shop"
      }
    },
    {
      "type": "node",
      "id": 7472836864,
      "lat": 9.9589632,
      "lon": 77.0103927,
      "timestamp": "2020-09-26T15:33:47Z",
      "version": 2,
      "changeset": 91555704,
      "user": "NadiahShajahan",
      "uid": 11780155,
      "tags": {
        "amenity": "bar",
        "name": "Toddy Shop"
      }
    },
    {
      "type": "node",
      "id": 7472844158,
      "lat": 9.9816811,
      "lon": 77.0001428,
      "timestamp": "2021-07-03T16:14:44Z",
      "version": 3,
      "changeset": 107360585,
      "user": "Althaj",
      "uid": 13639452,
      "tags": {
        "amenity": "bar",
        "name": "Toddy Shop"
      }
    },
    {
      "type": "node",
      "id": 7472857694,
      "lat": 9.012874,
      "lon": 76.653667,
      "timestamp": "2020-09-26T15:34:53Z",
      "version": 2,
      "changeset": 91555750,
      "user": "NadiahShajahan",
      "uid": 11780155,
      "tags": {
        "addr:city": "KOLLAM",
        "addr:street": "MOONUMUKK",
        "amenity": "bar",
        "name": "Royal Bar"
      }
    },
    {
      "type": "node",
      "id": 7472869195,
      "lat": 9.8607283,
      "lon": 76.5965164,
      "timestamp": "2020-05-02T06:32:29Z",
      "version": 1,
      "changeset": 84506422,
      "user": "Ashly S Pathirickal",
      "uid": 10487060,
      "tags": {
        "amenity": "bar",
        "name": "Diana beer & wine parlour"
      }
    },
    {
      "type": "node",
      "id": 7472940519,
      "lat": 9.9600046,
      "lon": 77.0255622,
      "timestamp": "2020-09-30T19:00:08Z",
      "version": 2,
      "changeset": 91785029,
      "user": "Rahulsoman",
      "uid": 11780011,
      "tags": {
        "amenity": "bar",
        "name": "Toddy Shop"
      }
    },
    {
      "type": "node",
      "id": 7473997222,
      "lat": 9.9698612,
      "lon": 76.2991649,
      "timestamp": "2023-10-06T16:26:44Z",
      "version": 3,
      "changeset": 142240546,
      "user": "54-46",
      "uid": 20004482,
      "tags": {
        "addr:city": "Kochi",
        "addr:district": "Ernakulam",
        "addr:housename": "Volga Tourist Home",
        "addr:neighbourhood": "Kadavanthara Junction",
        "addr:street": "Kaloor-Kadavanthara Road",
        "addr:suburb": "Kadavanthara",
        "amenity": "bar",
        "name": "Yamuna Roof Garden"
      }
    },
    {
      "type": "node",
      "id": 7474018222,
      "lat": 8.6211101,
      "lon": 76.8992291,
      "timestamp": "2020-09-19T14:11:59Z",
      "version": 2,
      "changeset": 91151294,
      "user": "Alfiya S",
      "uid": 11781232,
      "tags": {
        "amenity": "bar",
        "name": "city bar"
      }
    },
    {
      "type": "node",
      "id": 7474172360,
      "lat": 9.534254,
      "lon": 76.8213615,
      "timestamp": "2020-09-14T11:11:00Z",
      "version": 2,
      "changeset": 90862008,
      "user": "Saritha K S",
      "uid": 9264016,
      "tags": {
        "amenity": "bar",
        "name": "Narachi"
      }
    },
    {
      "type": "node",
      "id": 7474354009,
      "lat": 9.9519292,
      "lon": 77.04756,
      "timestamp": "2023-05-10T06:57:48Z",
      "version": 3,
      "changeset": 135921742,
      "user": "Bhavya_2003",
      "uid": 19199609,
      "tags": {
        "amenity": "bar"
      }
    },
    {
      "type": "node",
      "id": 7475262471,
      "lat": 9.5076197,
      "lon": 76.6944769,
      "timestamp": "2020-05-03T06:20:56Z",
      "version": 1,
      "changeset": 84548244,
      "user": "Feba Merlin Thankachen",
      "uid": 11100553,
      "tags": {
        "addr:city": "pathanadu",
        "addr:postcode": "686541",
        "addr:street": "Pathanad - Kulathoormoozhy Road",
        "amenity": "bar",
        "name": "pathanadu toddy shop"
      }
    },
    {
      "type": "node",
      "id": 7475333484,
      "lat": 9.9092764,
      "lon": 76.6066289,
      "timestamp": "2020-05-03T07:41:58Z",
      "version": 1,
      "changeset": 84550777,
      "user": "Ashly S Pathirickal",
      "uid": 10487060,
      "tags": {
        "amenity": "bar",
        "name": "toddy shop"
      }
    },
    {
      "type": "node",
      "id": 7475358465,
      "lat": 9.5018624,
      "lon": 76.6401131,
      "timestamp": "2020-05-03T08:01:17Z",
      "version": 1,
      "changeset": 84551431,
      "user": "localguide777",
      "uid": 11119820,
      "tags": {
        "amenity": "bar",
        "name": "Alaina Bar"
      }
    },
    {
      "type": "node",
      "id": 7476250744,
      "lat": 8.9163121,
      "lon": 76.7666788,
      "timestamp": "2021-06-19T06:28:03Z",
      "version": 3,
      "changeset": 106618731,
      "user": "Dpk3",
      "uid": 11455701,
      "tags": {
        "amenity": "bar",
        "name": "Ambalakkara Bar"
      }
    },
    {
      "type": "node",
      "id": 7476468766,
      "lat": 9.3846776,
      "lon": 76.5740981,
      "timestamp": "2020-05-03T16:38:21Z",
      "version": 1,
      "changeset": 84572077,
      "user": "Gayatridevi Jayachandran",
      "uid": 11095474,
      "tags": {
        "addr:city": "Thiruvalla,kerala",
        "addr:postcode": "689101",
        "addr:street": "MC Road",
        "amenity": "bar",
        "name": "Voyage"
      }
    },
    {
      "type": "node",
      "id": 7478338170,
      "lat": 9.7887122,
      "lon": 76.3969575,
      "timestamp": "2020-05-04T08:02:42Z",
      "version": 1,
      "changeset": 84606366,
      "user": "Amitha k Biju",
      "uid": 10388660,
      "tags": {
        "amenity": "bar",
        "name": "Ithippuzha Toddy Shop"
      }
    },
    {
      "type": "node",
      "id": 7479597792,
      "lat": 9.9591514,
      "lon": 76.6212756,
      "timestamp": "2020-05-04T10:52:48Z",
      "version": 1,
      "changeset": 84617982,
      "user": "swen shaji",
      "uid": 11119956,
      "tags": {
        "addr:city": "Avoly",
        "addr:postcode": "685602",
        "addr:street": "Main Eastern Highway",
        "amenity": "pub",
        "microbrewery": "yes",
        "name": "Kannapuzha Toddy Shop"
      }
    },
    {
      "type": "node",
      "id": 7479723382,
      "lat": 9.945165,
      "lon": 76.6370084,
      "timestamp": "2020-05-04T11:33:19Z",
      "version": 1,
      "changeset": 84620485,
      "user": "swen shaji",
      "uid": 11119956,
      "tags": {
        "amenity": "bar",
        "name": "Hotel Nayana"
      }
    },
    {
      "type": "node",
      "id": 7484627646,
      "lat": 9.9283908,
      "lon": 76.6689958,
      "timestamp": "2020-05-05T08:44:20Z",
      "version": 1,
      "changeset": 84678429,
      "user": "swen shaji",
      "uid": 11119956,
      "tags": {
        "amenity": "bar",
        "name": "thekkummala toddy shop"
      }
    },
    {
      "type": "node",
      "id": 7499282046,
      "lat": 8.9845079,
      "lon": 76.6193482,
      "timestamp": "2020-05-08T20:39:05Z",
      "version": 1,
      "changeset": 84915669,
      "user": "sijojosephpdk",
      "uid": 11113446,
      "tags": {
        "amenity": "bar",
        "name": "Munroe Shapp"
      }
    },
    {
      "type": "node",
      "id": 7500470148,
      "lat": 9.9482619,
      "lon": 76.631094,
      "timestamp": "2020-05-09T09:42:37Z",
      "version": 1,
      "changeset": 84931398,
      "user": "berlitjohny",
      "uid": 11078209,
      "tags": {
        "amenity": "bar",
        "name": "toddy shop"
      }
    },
    {
      "type": "node",
      "id": 7500618268,
      "lat": 8.9803121,
      "lon": 76.7080523,
      "timestamp": "2024-06-13T16:03:49Z",
      "version": 2,
      "changeset": 152640804,
      "user": "gtxr",
      "uid": 20515675,
      "tags": {
        "amenity": "bar",
        "indoor_seating": "yes",
        "name": "Nila Palace",
        "outdoor_seating": "yes"
      }
    },
    {
      "type": "node",
      "id": 7500618371,
      "lat": 8.96046,
      "lon": 76.6802409,
      "timestamp": "2024-06-12T17:28:51Z",
      "version": 2,
      "changeset": 152597655,
      "user": "gtxr",
      "uid": 20515675,
      "tags": {
        "amenity": "bar",
        "check_date": "2024-06-12",
        "name": "Royal Fort"
      }
    },
    {
      "type": "node",
      "id": 7500982695,
      "lat": 9.690486,
      "lon": 76.3443065,
      "timestamp": "2020-05-09T14:07:42Z",
      "version": 1,
      "changeset": 84939263,
      "user": "Regi Paul",
      "uid": 11117064,
      "tags": {
        "amenity": "bar"
      }
    },
    {
      "type": "node",
      "id": 7501492338,
      "lat": 8.9727739,
      "lon": 76.6078634,
      "timestamp": "2020-05-09T16:38:23Z",
      "version": 1,
      "changeset": 84944604,
      "user": "sijojosephpdk",
      "uid": 11113446,
      "tags": {
        "amenity": "bar",
        "name": "Shaapp"
      }
    },
    {
      "type": "node",
      "id": 7503193547,
      "lat": 9.692867,
      "lon": 76.4908539,
      "timestamp": "2020-05-10T12:02:42Z",
      "version": 1,
      "changeset": 84969239,
      "user": "Amitha k Biju",
      "uid": 10388660,
      "tags": {
        "amenity": "bar",
        "name": "Puzhayoram Toddy shop"
      }
    },
    {
      "type": "node",
      "id": 7508105174,
      "lat": 9.9789272,
      "lon": 76.5865322,
      "timestamp": "2023-09-22T15:12:15Z",
      "version": 3,
      "changeset": 141609659,
      "user": "DryDay",
      "uid": 19896001,
      "tags": {
        "addr:city": "Muvattupuzha",
        "addr:street": "പ്രധാന കിഴക്കൻ ഹൈവേ",
        "amenity": "pub",
        "brand": "Toddy Shop",
        "brand:wikidata": "Q7812761",
        "drink:palm_wine": "yes",
        "name": "Toddy Shop"
      }
    },
    {
      "type": "node",
      "id": 7508325324,
      "lat": 9.8219609,
      "lon": 76.5022913,
      "timestamp": "2020-05-13T14:36:45Z",
      "version": 2,
      "changeset": 85151112,
      "user": "Abdul_ab73",
      "uid": 11145115,
      "tags": {
        "amenity": "bar"
      }
    },
    {
      "type": "node",
      "id": 7511397269,
      "lat": 9.6548117,
      "lon": 76.9283854,
      "timestamp": "2020-05-12T14:29:54Z",
      "version": 1,
      "changeset": 85092272,
      "user": "Sandra Stephen",
      "uid": 10962524,
      "tags": {
        "amenity": "bar"
      }
    },
    {
      "type": "node",
      "id": 7514866985,
      "lat": 9.8009141,
      "lon": 76.5038487,
      "timestamp": "2020-05-13T13:37:29Z",
      "version": 1,
      "changeset": 85148537,
      "user": "Amitha k Biju",
      "uid": 10388660,
      "tags": {
        "amenity": "bar",
        "name": "Toddy shop"
      }
    },
    {
      "type": "node",
      "id": 7516782081,
      "lat": 9.6672471,
      "lon": 76.5330305,
      "timestamp": "2020-05-14T06:42:21Z",
      "version": 1,
      "changeset": 85180392,
      "user": "@Bony",
      "uid": 11135659,
      "tags": {
        "amenity": "bar"
      }
    },
    {
      "type": "node",
      "id": 7517789772,
      "lat": 8.6078857,
      "lon": 76.8165853,
      "timestamp": "2023-05-23T16:15:30Z",
      "version": 2,
      "changeset": 136464272,
      "user": "PlaneMad",
      "uid": 1306,
      "tags": {
        "addr:city": "Trivandrum",
        "addr:housenumber": "Kadinamkulam",
        "addr:street": "Kadinamkulam road",
        "amenity": "bar",
        "name": "Lake Palace Bar and Restaurant"
      }
    },
    {
      "type": "node",
      "id": 7521720131,
      "lat": 9.8582633,
      "lon": 76.4908105,
      "timestamp": "2020-05-15T08:29:00Z",
      "version": 1,
      "changeset": 85247218,
      "user": "Amitha k Biju",
      "uid": 10388660,
      "tags": {
        "amenity": "bar",
        "name": "mulakulam toddy shop"
      }
    },
    {
      "type": "node",
      "id": 7599727334,
      "lat": 9.3781066,
      "lon": 78.8595254,
      "timestamp": "2020-06-07T10:00:02Z",
      "version": 1,
      "changeset": 86302940,
      "user": "shamzmohamed",
      "uid": 11309151,
      "tags": {
        "amenity": "bar",
        "name": "A1 Tasmac"
      }
    },
    {
      "type": "node",
      "id": 7655513610,
      "lat": 6.8978132,
      "lon": 79.8563336,
      "timestamp": "2020-06-26T09:27:15Z",
      "version": 1,
      "changeset": 87185077,
      "user": "mbethke",
      "uid": 248338,
      "tags": {
        "amenity": "bar",
        "name": "Loft"
      }
    },
    {
      "type": "node",
      "id": 8029676619,
      "lat": 9.6828019,
      "lon": 76.6095124,
      "timestamp": "2020-10-21T10:29:23Z",
      "version": 1,
      "changeset": 92825047,
      "user": "Ancy S B",
      "uid": 10998097,
      "tags": {
        "amenity": "bar",
        "name": "Elegance"
      }
    },
    {
      "type": "node",
      "id": 8242956905,
      "lat": 9.5973986,
      "lon": 76.5243319,
      "timestamp": "2021-05-15T10:32:16Z",
      "version": 2,
      "changeset": 104726230,
      "user": "nitro_expander",
      "uid": 9276175,
      "tags": {
        "amenity": "bar",
        "name": "Cesar Palace"
      }
    },
    {
      "type": "node",
      "id": 8310363720,
      "lat": 8.6295684,
      "lon": 76.9367483,
      "timestamp": "2021-01-11T06:18:25Z",
      "version": 1,
      "changeset": 97281794,
      "user": "Azhar Mhd",
      "uid": 12455912,
      "tags": {
        "amenity": "bar",
        "name": "M.K BAKERY",
        "opening_hours": "Mo-Sa 08:00-18:00"
      }
    },
    {
      "type": "node",
      "id": 8329443290,
      "lat": 9.1782939,
      "lon": 76.5337958,
      "timestamp": "2021-01-17T04:44:10Z",
      "version": 1,
      "changeset": 97625895,
      "user": "Deepak R Chandran",
      "uid": 12441739,
      "tags": {
        "addr:city": "kayamkulam",
        "addr:housenumber": "Koprapura",
        "addr:postcode": "690537",
        "addr:street": "Kayamkulam - Punalur Road",
        "amenity": "bar",
        "name": "Roma Bar"
      }
    },
    {
      "type": "node",
      "id": 8338842099,
      "lat": 9.1589601,
      "lon": 76.5204278,
      "timestamp": "2021-01-19T14:37:27Z",
      "version": 2,
      "changeset": 97775890,
      "user": "AKASH ASHOK",
      "uid": 12478317,
      "tags": {
        "amenity": "bar",
        "name": "KTDC Beer Parlour"
      }
    },
    {
      "type": "node",
      "id": 8344641311,
      "lat": 9.1784152,
      "lon": 76.5267551,
      "timestamp": "2021-07-06T03:17:17Z",
      "version": 2,
      "changeset": 107466086,
      "user": "Gopika krishna",
      "uid": 13616472,
      "tags": {
        "amenity": "bar",
        "name": "Kalai Bar",
        "opening_hours": "Mo-Sa 08:00-18:00"
      }
    },
    {
      "type": "node",
      "id": 8347696670,
      "lat": 9.239023,
      "lon": 76.4705085,
      "timestamp": "2021-01-22T05:31:50Z",
      "version": 1,
      "changeset": 97944355,
      "user": "Akshaya Alappuzha",
      "uid": 12524249,
      "tags": {
        "amenity": "bar"
      }
    },
    {
      "type": "node",
      "id": 8353890595,
      "lat": 9.3443153,
      "lon": 76.4682516,
      "timestamp": "2021-01-23T05:56:28Z",
      "version": 1,
      "changeset": 98005837,
      "user": "Saravan shibu",
      "uid": 12500174,
      "tags": {
        "amenity": "bar"
      }
    },
    {
      "type": "node",
      "id": 8366454274,
      "lat": 8.6028065,
      "lon": 77.0037009,
      "timestamp": "2021-01-27T07:18:30Z",
      "version": 1,
      "changeset": 98207515,
      "user": "Anu Murali",
      "uid": 9018812,
      "tags": {
        "amenity": "bar"
      }
    },
    {
      "type": "node",
      "id": 8397085796,
      "lat": 9.9515281,
      "lon": 77.1806278,
      "timestamp": "2021-02-05T14:00:25Z",
      "version": 1,
      "changeset": 98772868,
      "user": "Fyzy",
      "uid": 12609273,
      "tags": {
        "amenity": "bar"
      }
    },
    {
      "type": "node",
      "id": 8402009011,
      "lat": 9.9339499,
      "lon": 76.5989793,
      "timestamp": "2021-02-07T13:53:33Z",
      "version": 1,
      "changeset": 98850599,
      "user": "Devaprasad P",
      "uid": 12619518,
      "tags": {
        "amenity": "bar",
        "name": "toddy bar"
      }
    },
    {
      "type": "node",
      "id": 8402119079,
      "lat": 9.9031521,
      "lon": 76.6049904,
      "timestamp": "2021-02-07T14:43:11Z",
      "version": 1,
      "changeset": 98852354,
      "user": "Devaprasad P",
      "uid": 12619518,
      "tags": {
        "amenity": "bar",
        "name": "Teeram Toddy bar"
      }
    },
    {
      "type": "node",
      "id": 8412226652,
      "lat": 9.9163512,
      "lon": 76.5826022,
      "timestamp": "2021-02-10T15:54:08Z",
      "version": 1,
      "changeset": 99052216,
      "user": "Devaprasad P",
      "uid": 12619518,
      "tags": {
        "amenity": "bar",
        "name": "Toddy Shop"
      }
    },
    {
      "type": "node",
      "id": 8419738368,
      "lat": 9.5893183,
      "lon": 76.5800421,
      "timestamp": "2021-02-13T05:12:46Z",
      "version": 1,
      "changeset": 99202764,
      "user": "Avinash sunil",
      "uid": 10450407,
      "tags": {
        "amenity": "bar"
      }
    },