{
  "version": 0.6,
  "generator": "Overpass API 0.7.62.8 e802775f",
  "osm3s": {
    "timestamp_osm_base": "2025-10-23T20:28:59Z",
    "copyright": "The data included in this document is from www.openstreetmap.org. The data is made available under ODbL."
  },
  "elements": [
    {
      "type": "node",
      "id": 963010185,
      "lat": 41.7826256,
      "lon": 123.4212123,
      "timestamp": "2025-03-29T09:31:47Z",
      "version": 4,
      "changeset": 164240919,
      "user": "GMichaelV",
      "uid": 20656835,
      "tags": {
        "amenity": "pub",
        "name": "Кальянная",
        "name:ru": "Кальянная",
        "phone": "31973747"
      }
    },
    {
      "type": "node",
      "id": 963384935,
      "lat": 41.7940934,
      "lon": 123.4032866,
      "timestamp": "2010-10-24T14:05:36Z",
      "version": 1,
      "changeset": 6157026,
      "user": "shedai",
      "uid": 362493,
      "tags": {
        "amenity": "pub",
        "name": "Club 97"
      }
    },
    {
      "type": "node",
      "id": 1042653033,
      "lat": 43.8866993,
      "lon": 125.3103259,
      "timestamp": "2019-03-30T02:37:02Z",
      "version": 4,
      "changeset": 68684533,
      "user": "changchun_1",
      "uid": 131968,
      "tags": {
        "amenity": "pub",
        "name": "Second Home",
        "name:en": "Second Home"
      }
    },
    {
      "type": "node",
      "id": 1042714214,
      "lat": 43.8334105,
      "lon": 125.2760532,
      "timestamp": "2010-12-17T12:32:55Z",
      "version": 1,
      "changeset": 6686216,
      "user": "changchun_1",
      "uid": 131968,
      "tags": {
        "amenity": "pub",
        "name": "Three Monkey",
        "name:en": "Three Monkey"
      }
    },
    {
      "type": "node",
      "id": 1444026414,
      "lat": 43.889767,
      "lon": 125.3042051,
      "timestamp": "2011-09-24T04:17:26Z",
      "version": 1,
      "changeset": 9381326,
      "user": "changchun_1",
      "uid": 131968,
      "tags": {
        "amenity": "bar",
        "name": "Classic Bar"
      }
    },
    {
      "type": "node",
      "id": 1719057960,
      "lat": 45.7671907,
      "lon": 126.622746,
      "timestamp": "2017-05-06T15:46:19Z",
      "version": 2,
      "changeset": 48455472,
      "user": "Евгений Кулик",
      "uid": 5748517,
      "tags": {
        "amenity": "bar",
        "internet_access": "wlan",
        "name": "Blues Bar"
      }
    },
    {
      "type": "node",
      "id": 1719100452,
      "lat": 45.7646161,
      "lon": 126.6221344,
      "timestamp": "2012-04-16T09:22:39Z",
      "version": 1,
      "changeset": 11318773,
      "user": "SerenaR",
      "uid": 656030,
      "tags": {
        "amenity": "bar",
        "name": "Maisa Club"
      }
    },
    {
      "type": "node",
      "id": 1719100511,
      "lat": 45.7656519,
      "lon": 126.6217879,
      "timestamp": "2012-04-16T09:22:41Z",
      "version": 1,
      "changeset": 11318773,
      "user": "SerenaR",
      "uid": 656030,
      "tags": {
        "amenity": "bar",
        "name": "Russian Disco Bar"
      }
    },
    {
      "type": "node",
      "id": 1759664103,
      "lat": 41.759105,
      "lon": 123.3923557,
      "timestamp": "2012-05-20T12:31:51Z",
      "version": 1,
      "changeset": 11650831,
      "user": "muaum",
      "uid": 212575,
      "tags": {
        "amenity": "bar"
      }
    },
    {
      "type": "node",
      "id": 2086787305,
      "lat": 41.7802128,
      "lon": 123.4357899,
      "timestamp": "2016-12-26T02:01:06Z",
      "version": 4,
      "changeset": 44672785,
      "user": "SomeoneElse_Revert",
      "uid": 1778799,
      "tags": {
        "amenity": "bar"
      }
    },
    {
      "type": "node",
      "id": 2181234236,
      "lat": 42.4428472,
      "lon": 123.557863,
      "timestamp": "2013-03-02T12:17:52Z",
      "version": 2,
      "changeset": 15220578,
      "user": "margueritesu",
      "uid": 1159165,
      "tags": {
        "amenity": "bar",
        "name": "小老板烤吧",
        "source": "local knowledge"
      }
    },
    {
      "type": "node",
      "id": 2246496177,
      "lat": 41.772942,
      "lon": 123.4158364,
      "timestamp": "2013-04-03T12:32:23Z",
      "version": 1,
      "changeset": 15593330,
      "user": "muaum",
      "uid": 212575,
      "tags": {
        "amenity": "bar"
      }
    },
    {
      "type": "node",
      "id": 2327255043,
      "lat": 43.8861329,
      "lon": 125.3103658,
      "timestamp": "2013-05-31T15:07:59Z",
      "version": 1,
      "changeset": 16366451,
      "user": "muaum",
      "uid": 212575,
      "tags": {
        "amenity": "pub",
        "name": "German Beerhouse"
      }
    },
    {
      "type": "node",
      "id": 2391667933,
      "lat": 41.7672183,
      "lon": 123.3210285,
      "timestamp": "2013-07-21T13:49:59Z",
      "version": 1,
      "changeset": 17035939,
      "user": "muaum",
      "uid": 212575,
      "tags": {
        "amenity": "pub",
        "name": "King George Bar"
      }
    },
    {
      "type": "node",
      "id": 2399399241,
      "lat": 41.7482714,
      "lon": 123.3834483,
      "timestamp": "2013-07-28T14:05:36Z",
      "version": 1,
      "changeset": 17125865,
      "user": "muaum",
      "uid": 212575,
      "tags": {
        "amenity": "pub"
      }
    },
    {
      "type": "node",
      "id": 3026536994,
      "lat": 41.7484631,
      "lon": 123.3842247,
      "timestamp": "2014-08-19T04:10:57Z",
      "version": 1,
      "changeset": 24848828,
      "user": "mr_mizu",
      "uid": 1813711,
      "tags": {
        "amenity": "pub",
        "name": "Flensburger Brauhaus"
      }
    },
    {
      "type": "node",
      "id": 3318168339,
      "lat": 43.8662505,
      "lon": 125.31114,
      "timestamp": "2020-01-06T05:06:21Z",
      "version": 2,
      "changeset": 79230894,
      "user": "Hervé TUC",
      "uid": 922338,
      "tags": {
        "amenity": "bar",
        "name": "银影网络会所"
      }
    },
    {
      "type": "node",
      "id": 3392421947,
      "lat": 44.7567368,
      "lon": 129.6799165,
      "timestamp": "2015-03-10T11:30:29Z",
      "version": 1,
      "changeset": 29381476,
      "user": "鹿鹿鹿鹿鹿",
      "uid": 2741631,
      "tags": {
        "amenity": "bar"
      }
    },
    {
      "type": "node",
      "id": 3392441694,
      "lat": 44.5831259,
      "lon": 129.6124886,
      "timestamp": "2015-03-10T12:04:07Z",
      "version": 1,
      "changeset": 29382562,
      "user": "shdd",
      "uid": 2728088,
      "tags": {
        "amenity": "pub",
        "name": "影子网络会所"
      }
    },
    {
      "type": "node",
      "id": 3392441715,
      "lat": 44.5809939,
      "lon": 129.6137439,
      "timestamp": "2023-12-16T09:49:42Z",
      "version": 2,
      "changeset": 145177966,
      "user": "Tigerus",
      "uid": 16034496,
      "tags": {
        "amenity": "pub",
        "name": "雪娃冷饮厅",
        "name:ru": "Бар"
      }
    },
    {
      "type": "node",
      "id": 3392441722,
      "lat": 44.5745286,
      "lon": 129.613658,
      "timestamp": "2015-03-10T12:04:09Z",
      "version": 1,
      "changeset": 29382562,
      "user": "shdd",
      "uid": 2728088,
      "tags": {
        "amenity": "pub",
        "name": "避风塘"
      }
    },
    {
      "type": "node",
      "id": 3396939738,
      "lat": 43.8630137,
      "lon": 125.3080367,
      "timestamp": "2015-03-13T16:05:32Z",
      "version": 1,
      "changeset": 29452329,
      "user": "changchun_1",
      "uid": 131968,
      "tags": {
        "amenity": "bar",
        "name": "Nautilus"
      }
    },
    {
      "type": "node",
      "id": 4429522590,
      "lat": 45.7381266,
      "lon": 126.6195578,
      "timestamp": "2018-05-21T20:58:57Z",
      "version": 2,
      "changeset": 59163189,
      "user": "Sako_maps",
      "uid": 3968089,
      "tags": {
        "addr:street": "桥南街10-2号",
        "amenity": "bar",
        "cuisine": "chicken;burger;kebab;pasta;sandwich",
        "internet_access": "wlan",
        "name": "ACE",
        "name:ru": "Эйс",
        "opening_hours": "Mo-Su 20:00-02:00"
      }
    },
    {
      "type": "node",
      "id": 4456737690,
      "lat": 45.7379405,
      "lon": 126.6202209,
      "timestamp": "2016-10-20T17:31:43Z",
      "version": 1,
      "changeset": 43040054,
      "user": "Sako_maps",
      "uid": 3968089,
      "tags": {
        "amenity": "bar",
        "name": "俏",
        "name:en": "QIAO",
        "name:zh": "俏"
      }
    },
    {
      "type": "node",
      "id": 4464719691,
      "lat": 45.7723832,
      "lon": 126.6130648,
      "timestamp": "2024-07-04T05:18:25Z",
      "version": 4,
      "changeset": 153527304,
      "user": "Tigerus",
      "uid": 16034496,
      "tags": {
        "amenity": "pub"
      }
    },
    {
      "type": "node",
      "id": 4465771190,
      "lat": 45.7378285,
      "lon": 126.6205429,
      "timestamp": "2016-10-27T04:47:03Z",
      "version": 1,
      "changeset": 43208291,
      "user": "Sako_maps",
      "uid": 3968089,
      "tags": {
        "addr:street": "桥南街",
        "amenity": "bar",
        "internet_access": "wlan",
        "name": "Lava",
        "name:en": "LAVA",
        "name:ru": "Лава",
        "opening_hours": "Mo-Su 19:00-03:00"
      }
    },
    {
      "type": "node",
      "id": 4465771191,
      "lat": 45.7378051,
      "lon": 126.62063,
      "timestamp": "2016-10-27T04:47:06Z",
      "version": 1,
      "changeset": 43208291,
      "user": "Sako_maps",
      "uid": 3968089,
      "tags": {
        "amenity": "bar",
        "name": "Lost",
        "name:en": "LOST",
        "name:zh": "Lost"
      }
    },
    {
      "type": "node",
      "id": 4574522695,
      "lat": 43.8628273,
      "lon": 125.3169268,
      "timestamp": "2020-01-06T05:07:04Z",
      "version": 3,
      "changeset": 79230894,
      "user": "Hervé TUC",
      "uid": 922338,
      "tags": {
        "addr:city": "Changchun",
        "addr:district": "Chaoyang",
        "addr:province": "Jilin",
        "addr:street": "丰顺街 Fengshun St",
        "amenity": "bar",
        "name": "Russian Cafe",
        "operator": "Peter the Great, Derek and Vivian"
      }
    },
    {
      "type": "node",
      "id": 4678030159,
      "lat": 43.8636227,
      "lon": 125.3053553,
      "timestamp": "2020-10-02T03:16:25Z",
      "version": 2,
      "changeset": 91851910,
      "user": "Jerry Wen",
      "uid": 11914652,
      "tags": {
        "amenity": "bar",
        "name": "Gentleman Bar"
      }
    },
    {
      "type": "node",
      "id": 4805174427,
      "lat": 45.7788127,
      "lon": 126.6321944,
      "timestamp": "2017-04-20T06:57:17Z",
      "version": 1,
      "changeset": 47961148,
      "user": "SENGHOUT彭",
      "uid": 4785545,
      "tags": {
        "amenity": "pub",
        "name:en": "russian street cherry class"
      }
    },
    {
      "type": "node",
      "id": 4907998527,
      "lat": 43.8639082,
      "lon": 125.3093092,
      "timestamp": "2017-06-10T18:53:35Z",
      "version": 1,
      "changeset": 49426617,
      "user": "Mpradnor",
      "uid": 6144922,
      "tags": {
        "amenity": "bar",
        "internet_access": "wlan",
        "name": "渡口酒吧",
        "name:en": "Dukou bar",
        "name:zh": "渡口酒吧"
      }
    },
    {
      "type": "node",
      "id": 4935386721,
      "lat": 43.8629658,
      "lon": 125.3063683,
      "timestamp": "2020-01-06T05:07:04Z",
      "version": 2,
      "changeset": 79230894,
      "user": "Hervé TUC",
      "uid": 922338,
      "tags": {
        "addr:street": "西康路 Xikang Rd",
        "amenity": "pub",
        "name:de": "Amerikanisches Restaurant",
        "name:en": "The Jello Factory"
      }
    },
    {
      "type": "node",
      "id": 5433226022,
      "lat": 43.82598,
      "lon": 125.356895,
      "timestamp": "2018-02-24T12:07:45Z",
      "version": 1,
      "changeset": 56634675,
      "user": "DZDMHAF",
      "uid": 6113985,
      "tags": {
        "amenity": "bar",
        "name": "左右酒吧",
        "name:de": "L&R Lounge Bar",
        "name:en": "L&R Lounge Bar"
      }
    },
    {
      "type": "node",
      "id": 5791277453,
      "lat": 41.7880986,
      "lon": 123.4202784,
      "timestamp": "2018-07-28T04:08:09Z",
      "version": 1,
      "changeset": 61134545,
      "user": "AppleByter",
      "uid": 8611425,
      "tags": {
        "amenity": "bar",
        "name:en": "Eleven Bar"
      }
    },
    {
      "type": "node",
      "id": 6018675827,
      "lat": 49.7484318,
      "lon": 129.6781913,
      "timestamp": "2018-10-28T03:26:32Z",
      "version": 1,
      "changeset": 63940785,
      "user": "EDIK1980",
      "uid": 8946503,
      "tags": {
        "amenity": "biergarten",
        "name": "Гараж"
      }
    },
    {
      "type": "node",
      "id": 6018987077,
      "lat": 43.8623153,
      "lon": 125.3061861,
      "timestamp": "2018-10-28T09:01:07Z",
      "version": 1,
      "changeset": 63944503,
      "user": "Sam2350",
      "uid": 7854933,
      "tags": {
        "amenity": "bar",
        "name": "The Jello Factory"
      }
    },
    {
      "type": "node",
      "id": 6018987078,
      "lat": 43.8624779,
      "lon": 125.3047657,
      "timestamp": "2020-01-06T05:07:04Z",
      "version": 3,
      "changeset": 79230894,
      "user": "Hervé TUC",
      "uid": 922338,
      "tags": {
        "amenity": "pub",
        "microbrewery": "yes",
        "name": "Goin Brew"
      }
    },
    {
      "type": "node",
      "id": 6018987079,
      "lat": 43.862057,
      "lon": 125.3065714,
      "timestamp": "2018-10-28T09:01:07Z",
      "version": 1,
      "changeset": 63944503,
      "user": "Sam2350",
      "uid": 7854933,
      "tags": {
        "amenity": "bar",
        "name": "五月花酒吧(经典店)",
        "name:en": "May Flower 2"
      }
    },
    {
      "type": "node",
      "id": 6065603036,
      "lat": 49.8036918,
      "lon": 129.3997633,
      "timestamp": "2018-11-16T07:55:37Z",
      "version": 1,
      "changeset": 64555892,
      "user": "EDIK1980",
      "uid": 8946503,
      "tags": {
        "amenity": "bar",
        "name": "Глория"
      }
    },
    {
      "type": "node",
      "id": 6065603039,
      "lat": 49.8030375,
      "lon": 129.4003993,
      "timestamp": "2019-05-30T08:36:03Z",
      "version": 2,
      "changeset": 70760432,
      "user": "Владимир К",
      "uid": 2853561,
      "tags": {
        "addr:city": "Райчихинск",
        "addr:housenumber": "55",
        "addr:street": "улица Победы",
        "amenity": "bar",
        "name": "Дискобар"
      }
    },
    {
      "type": "node",
      "id": 6255198886,
      "lat": 41.7776147,
      "lon": 123.4267141,
      "timestamp": "2019-02-03T05:43:33Z",
      "version": 1,
      "changeset": 66869690,
      "user": "tcuongnguyen",
      "uid": 9410582,
      "tags": {
        "amenity": "bar",
        "name:en": "Fiona's Bar"
      }
    },
    {
      "type": "node",
      "id": 6269567464,
      "lat": 42.1119639,
      "lon": 127.4812769,
      "timestamp": "2019-02-10T13:26:15Z",
      "version": 1,
      "changeset": 67071553,
      "user": "Seandebasti",
      "uid": 550560,
      "tags": {
        "amenity": "bar"
      }
    },
    {
      "type": "node",
      "id": 6271854226,
      "lat": 46.58943,
      "lon": 125.1510465,
      "timestamp": "2023-02-03T10:41:28Z",
      "version": 2,
      "changeset": 132036730,
      "user": "cnvery",
      "uid": 3627342,
      "tags": {
        "amenity": "bar",
        "name:en": "World Beer"
      }
    },
    {
      "type": "node",
      "id": 6371393286,
      "lat": 43.8857323,
      "lon": 125.3096469,
      "timestamp": "2019-03-30T02:37:02Z",
      "version": 1,
      "changeset": 68684533,
      "user": "changchun_1",
      "uid": 131968,
      "tags": {
        "amenity": "bar",
        "name": "Beer Bar"
      }
    },
    {
      "type": "node",
      "id": 6418822685,
      "lat": 43.8602076,
      "lon": 125.2859609,
      "timestamp": "2019-04-21T06:48:32Z",
      "version": 1,
      "changeset": 69417450,
      "user": "Credo38",
      "uid": 9494122,
      "tags": {
        "amenity": "pub",
        "cuisine": "burger;steak_house",
        "name": "Day Inn",
        "name:de": "Day Inn (viele Biersorten)"
      }
    },
    {
      "type": "node",
      "id": 6566308424,
      "lat": 41.2714124,
      "lon": 123.7754771,
      "timestamp": "2020-12-03T13:46:06Z",
      "version": 2,
      "changeset": 95230365,
      "user": "BXQUESTION",
      "uid": 6956115,
      "tags": {
        "amenity": "bar",
        "name": "云街驿站酒吧"
      }
    },
    {
      "type": "node",
      "id": 6843955739,
      "lat": 44.0031378,
      "lon": 125.3113227,
      "timestamp": "2019-10-02T11:02:27Z",
      "version": 1,
      "changeset": 75184959,
      "user": "liuxinyu970226",
      "uid": 2008655,
      "tags": {
        "amenity": "bar",
        "name": "春城大酒店"
      }
    },
    {
      "type": "node",
      "id": 7074409558,
      "lat": 44.7794277,
      "lon": 128.4459313,
      "timestamp": "2019-12-21T10:04:47Z",
      "version": 1,
      "changeset": 78708913,
      "user": "Hervé TUC",
      "uid": 922338,
      "tags": {
        "amenity": "bar",
        "name": "Star Bar"
      }
    },
    {
      "type": "node",
      "id": 7074419507,
      "lat": 44.7794488,
      "lon": 128.4438393,
      "timestamp": "2019-12-21T10:04:45Z",
      "version": 1,
      "changeset": 78708913,
      "user": "Hervé TUC",
      "uid": 922338,
      "tags": {
        "amenity": "bar",
        "name": "Gondola Bar"
      }
    },
    {
      "type": "node",
      "id": 7082529145,
      "lat": 43.8656143,
      "lon": 125.3162439,
      "timestamp": "2019-12-24T15:12:00Z",
      "version": 1,
      "changeset": 78824389,
      "user": "Hervé TUC",
      "uid": 922338,
      "tags": {
        "amenity": "bar",
        "name": "AM/PM"
      }
    },
    {
      "type": "node",
      "id": 7082538855,
      "lat": 43.8668789,
      "lon": 125.3162661,
      "timestamp": "2019-12-24T15:11:59Z",
      "version": 1,
      "changeset": 78824389,
      "user": "Hervé TUC",
      "uid": 922338,
      "tags": {
        "amenity": "bar",
        "name": "Bon Soirée"
      }
    },
    {
      "type": "node",
      "id": 7082542632,
      "lat": 43.8629625,
      "lon": 125.3059566,
      "timestamp": "2019-12-24T15:12:04Z",
      "version": 1,
      "changeset": 78824389,
      "user": "Hervé TUC",
      "uid": 922338,
      "tags": {
        "amenity": "bar",
        "name": "Key Pub Craft Beer"
      }
    },
    {
      "type": "node",
      "id": 7082562648,
      "lat": 43.8629618,
      "lon": 125.3047373,
      "timestamp": "2019-12-24T15:12:05Z",
      "version": 1,
      "changeset": 78824389,
      "user": "Hervé TUC",
      "uid": 922338,
      "tags": {
        "amenity": "bar",
        "name": "Hell"
      }
    },
    {
      "type": "node",
      "id": 7082564342,
      "lat": 43.862807,
      "lon": 125.3065848,
      "timestamp": "2019-12-24T15:12:09Z",
      "version": 1,
      "changeset": 78824389,
      "user": "Hervé TUC",
      "uid": 922338,
      "tags": {
        "amenity": "bar",
        "name": "Maggie's"
      }
    },
    {
      "type": "node",
      "id": 7082569391,
      "lat": 43.8624875,
      "lon": 125.3057402,
      "timestamp": "2020-01-06T05:07:04Z",
      "version": 2,
      "changeset": 79230894,
      "user": "Hervé TUC",
      "uid": 922338,
      "tags": {
        "amenity": "pub",
        "name": "The Happy Home"
      }
    },
    {
      "type": "node",
      "id": 7090798110,
      "lat": 45.7703118,
      "lon": 126.6126996,
      "timestamp": "2019-12-28T15:21:11Z",
      "version": 1,
      "changeset": 78957832,
      "user": "Hervé TUC",
      "uid": 922338,
      "tags": {
        "amenity": "bar"
      }
    },
    {
      "type": "node",
      "id": 7094226439,
      "lat": 45.746505,
      "lon": 126.6214767,
      "timestamp": "2019-12-30T00:49:57Z",
      "version": 1,
      "changeset": 78993159,
      "user": "Hervé TUC",
      "uid": 922338,
      "tags": {
        "amenity": "bar",
        "name:en": "FreeClub"
      }
    },
    {
      "type": "node",
      "id": 7480107885,
      "lat": 43.8636913,
      "lon": 125.3096426,
      "timestamp": "2020-05-04T12:58:03Z",
      "version": 1,
      "changeset": 84625310,
      "user": "Cronix2k3",
      "uid": 7190727,
      "tags": {
        "amenity": "bar",
        "name:en": "Cellar X"
      }
    },
    {
      "type": "node",
      "id": 7506747891,
      "lat": 43.8668431,
      "lon": 125.268578,
      "timestamp": "2020-05-11T11:57:31Z",
      "version": 1,
      "changeset": 85023773,
      "user": "Cronix2k3",
      "uid": 7190727,
      "tags": {
        "amenity": "bar",
        "name:en": "Lake Scape"
      }
    },
    {
      "type": "node",
      "id": 8280255817,
      "lat": 45.7381334,
      "lon": 126.6199753,
      "timestamp": "2021-01-01T04:23:03Z",
      "version": 1,
      "changeset": 96756933,
      "user": "1garcoma77",
      "uid": 6767125,
      "tags": {
        "amenity": "pub",
        "name:es": "Calle de bares - zona roja jajajaja"
      }
    },
    {
      "type": "node",
      "id": 10005492066,
      "lat": 42.1040783,
      "lon": 127.5060923,
      "timestamp": "2022-09-07T02:32:47Z",
      "version": 1,
      "changeset": 125880257,
      "user": "duxiaoji1",
      "uid": 17032612,
      "tags": {
        "amenity": "bar",
        "name": "悦色酒吧"
      }
    },
    {
      "type": "node",
      "id": 10005508459,
      "lat": 42.1004398,
      "lon": 127.5051827,
      "timestamp": "2022-09-07T03:11:47Z",
      "version": 1,
      "changeset": 125880589,
      "user": "duxiaoji1",
      "uid": 17032612,
      "tags": {
        "amenity": "bar",
        "name": "峰吧"
      }
    },
    {
      "type": "node",
      "id": 10188957770,
      "lat": 42.5098039,
      "lon": 125.7159926,
      "timestamp": "2022-11-16T15:15:12Z",
      "version": 1,
      "changeset": 128997385,
      "user": "Abedul Bouleau",
      "uid": 1951271,
      "tags": {
        "amenity": "biergarten",
        "name": "啤酒梦工厂"
      }
    },
    {
      "type": "node",
      "id": 11778680433,
      "lat": 41.7938227,
      "lon": 123.4216162,
      "timestamp": "2024-04-01T18:03:25Z",
      "version": 1,
      "changeset": 149447465,
      "user": "OverflowCat",
      "uid": 12002686,
      "tags": {
        "addr:city": "沈阳",
        "addr:district": "沈河",
        "addr:housenumber": "40号6-1-1",
        "addr:province": "辽宁",
        "addr:street": "北二经街",
        "amenity": "bar",
        "lgbtq": "primary",
        "name": "TwoChairz两把椅子",
        "name:en": "TwoChairz",
        "opening_hours": "Tu-Su 18:00-02:00",
        "start_date": "2024-03-28"
      }
    },
    {
      "type": "node",
      "id": 11904490171,
      "lat": 45.7771316,
      "lon": 126.6088171,
      "timestamp": "2024-05-14T15:33:11Z",
      "version": 1,
      "changeset": 151318658,
      "user": "Mbbvlad",
      "uid": 20857753,
      "tags": {
        "amenity": "bar",
        "name:en": "Hou Lai Music BBQ Bar"
      }
    },
    {
      "type": "node",
      "id": 11904490469,
      "lat": 45.7772949,
      "lon": 126.609475,
      "timestamp": "2024-05-14T15:33:15Z",
      "version": 1,
      "changeset": 151318658,
      "user": "Mbbvlad",
      "uid": 20857753,
      "tags": {
        "amenity": "bar",
        "name:en": "Beer Bash",
        "name:ru": "Пивной бар"
      }
    },
    {
      "type": "node",
      "id": 11904490569,
      "lat": 45.771895,
      "lon": 126.6098168,
      "timestamp": "2024-05-14T15:33:18Z",
      "version": 1,
      "changeset": 151318658,
      "user": "Mbbvlad",
      "uid": 20857753,
      "tags": {
        "amenity": "bar",
        "name:en": "Whisky and Cocktail",
        "name:ru": "Виски и коктейли"
      }
    },
    {
      "type": "node",
      "id": 11919640669,
      "lat": 45.7684649,
      "lon": 126.6134583,
      "timestamp": "2024-12-08T04:15:35Z",
      "version": 2,
      "changeset": 160045532,
      "user": "Tigerus",
      "uid": 16034496,
      "tags": {
        "amenity": "bar",
        "name:en": "McFee Many Beer 3F",
        "name:ru": "McFee 3 этаж  Много пива Бар"
      }
    },
    {
      "type": "node",
      "id": 12032651488,
      "lat": 45.7809521,
      "lon": 126.6348164,
      "timestamp": "2024-07-04T05:55:09Z",
      "version": 1,
      "changeset": 153528039,
      "user": "Tigerus",
      "uid": 16034496,
      "tags": {
        "amenity": "bar",
        "name": "老默的江湖酒吧",
        "name:ru": "Бар \"Цзянху\" у Лао Мо"
      }
    },
    {
      "type": "node",
      "id": 12094460502,
      "lat": 45.7395715,
      "lon": 126.6187355,
      "timestamp": "2024-08-06T02:27:11Z",
      "version": 1,
      "changeset": 154873604,
      "user": "Tigerus",
      "uid": 16034496,
      "tags": {
        "amenity": "bar",
        "name:en": "Barcelo"
      }
    },
    {
      "type": "node",
      "id": 12141642926,
      "lat": 42.9049304,
      "lon": 129.4844155,
      "timestamp": "2024-08-28T08:28:12Z",
      "version": 1,
      "changeset": 155867406,
      "user": "ljc_jlyb",
      "uid": 14280033,
      "tags": {
        "addr:city": "延边朝鲜族自治州",
        "addr:district": "延吉市",
        "addr:housenumber": "1188",
        "addr:province": "吉林省",
        "addr:street": "公园路",
        "amenity": "bar",
        "name": "约起便利店酒馆"
      }
    },
    {
      "type": "node",
      "id": 12141642927,
      "lat": 42.9049144,
      "lon": 129.4848045,
      "timestamp": "2024-08-28T08:28:12Z",
      "version": 1,
      "changeset": 155867406,
      "user": "ljc_jlyb",
      "uid": 14280033,
      "tags": {
        "addr:city": "延边朝鲜族自治州",
        "addr:district": "延吉市",
        "addr:housenumber": "1188",
        "addr:province": "吉林省",
        "addr:street": "公园路",
        "amenity": "bar",
        "name": "济州岛韩式啤酒屋"
      }
    },
    {
      "type": "node",
      "id": 12141642931,
      "lat": 42.904924,
      "lon": 129.4844165,
      "timestamp": "2024-08-28T08:28:12Z",
      "version": 1,
      "changeset": 155867406,
      "user": "ljc_jlyb",
      "uid": 14280033,
      "tags": {
        "addr:city": "延边朝鲜族自治州",
        "addr:district": "延吉市",
        "addr:housenumber": "1188",
        "addr:province": "吉林省",
        "addr:street": "公园路",
        "amenity": "bar",
        "name": "Helens海伦司小酒馆"
      }
    },
    {
      "type": "node",
      "id": 12706920402,
      "lat": 45.7284142,
      "lon": 126.5610669,
      "timestamp": "2025-03-28T09:39:46Z",
      "version": 1,
      "changeset": 164198743,
      "user": "Tigerus",
      "uid": 16034496,
      "tags": {
        "amenity": "pub",
        "name": "LEUVEN鲁汶比利时啤酒屋(群力店)",
        "name:ru": "Пивной дом LEUVEN (Бельгия)"
      }
    },
    {
      "type": "node",
      "id": 12843873171,
      "lat": 42.9616343,
      "lon": 129.8448143,
      "timestamp": "2025-05-17T15:20:14Z",
      "version": 2,
      "changeset": 166396711,
      "user": "ff5722",
      "uid": 3450290,
      "tags": {
        "amenity": "bar",
        "name": "蓝瑟",
        "name:en": "Lans.R"
      }
    },
    {
      "type": "node",
      "id": 12844356660,
      "lat": 42.9600537,
      "lon": 129.8458442,
      "timestamp": "2025-05-17T15:20:14Z",
      "version": 1,
      "changeset": 166396711,
      "user": "ff5722",
      "uid": 3450290,
      "tags": {
        "amenity": "bar"
      }
    },
    {
      "type": "node",
      "id": 12844356661,
      "lat": 42.9602038,
      "lon": 129.8453358,
      "timestamp": "2025-05-17T15:20:14Z",
      "version": 1,
      "changeset": 166396711,
      "user": "ff5722",
      "uid": 3450290,
      "tags": {
        "amenity": "bar"
      }
    },
    {
      "type": "node",
      "id": 12844356682,
      "lat": 42.9613434,
      "lon": 129.8446924,
      "timestamp": "2025-05-17T15:20:14Z",
      "version": 1,
      "changeset": 166396711,
      "user": "ff5722",
      "uid": 3450290,
      "tags": {
        "amenity": "bar"
      }
    },
    {
      "type": "node",
      "id": 12844356683,
      "lat": 42.9613187,
      "lon": 129.8445775,
      "timestamp": "2025-05-17T15:20:14Z",
      "version": 1,
      "changeset": 166396711,
      "user": "ff5722",
      "uid": 3450290,
      "tags": {
        "amenity": "bar"
      }
    },
    {
      "type": "node",
      "id": 12844356686,
      "lat": 42.9605494,
      "lon": 129.8431985,
      "timestamp": "2025-05-17T15:20:14Z",
      "version": 1,
      "changeset": 166396711,
      "user": "ff5722",
      "uid": 3450290,
      "tags": {
        "amenity": "bar"
      }
    },
    {
      "type": "node",
      "id": 13006956601,
      "lat": 43.8632539,
      "lon": 125.3069592,
      "timestamp": "2025-07-17T16:11:11Z",
      "version": 1,
      "changeset": 169069202,
      "user": "Tigerus",
      "uid": 16034496,
      "tags": {
        "amenity": "bar",
        "name:en": "The Happy Time"
      }
    },
    {
      "type": "node",
      "id": 13057209946,
      "lat": 41.8008512,
      "lon": 128.3131709,
      "timestamp": "2025-08-08T00:44:07Z",
      "version": 1,
      "changeset": 170131603,
      "user": "Inspired by Positano",
      "uid": 23099752,
      "tags": {
        "amenity": "pub",
        "name": "들쭉술집"
      }
    },
    {
      "type": "node",
      "id": 13135722001,
      "lat": 42.9031655,
      "lon": 129.5123437,
      "timestamp": "2025-09-11T07:15:11Z",
      "version": 1,
      "changeset": 171768382,
      "user": "FDRD",
      "uid": 21803205,
      "tags": {
        "amenity": "biergarten",
        "name": "Лучшие шашлычки на районе работающие до поздна",
        "opening_hours": "Mo-Su 18:00-00:00"
      }
    },
    {
      "type": "node",
      "id": 13154587101,
      "lat": 45.751557,
      "lon": 126.6391849,
      "timestamp": "2025-09-19T03:56:55Z",
      "version": 1,
      "changeset": 172140331,
      "user": "Tigerus",
      "uid": 16034496,
      "tags": {
        "amenity": "bar",
        "name:en": "JoJo"
      }
    },
    {
      "type": "node",
      "id": 13154587401,
      "lat": 45.7515837,
      "lon": 126.6400133,
      "timestamp": "2025-09-19T04:00:14Z",
      "version": 2,
      "changeset": 172140372,
      "user": "Tigerus",
      "uid": 16034496,
      "tags": {
        "amenity": "bar",
        "name:en": "Like Bistro&Bar"
      }
    },
    {
      "type": "node",
      "id": 13159723001,
      "lat": 41.7927521,
      "lon": 123.4528565,
      "timestamp": "2025-09-21T13:36:50Z",
      "version": 1,
      "changeset": 172246013,
      "user": "GMichaelV",
      "uid": 20656835,
      "tags": {
        "amenity": "bar",
        "name": "居酒屋",
        "name:ru": "Бар (Изакая)"
      }
    },
    {
      "type": "node",
      "id": 13188231601,
      "lat": 45.7717357,
      "lon": 126.6086234,
      "timestamp": "2025-10-02T06:07:43Z",
      "version": 1,
      "changeset": 172733104,
      "user": "Tigerus",
      "uid": 16034496,
      "tags": {
        "amenity": "bar",
        "name:en": "Пиво Derenburg"
      }
    },
    {
      "type": "way",
      "id": 194701201,
      "timestamp": "2019-05-30T07:53:03Z",
      "version": 4,
      "changeset": 70759319,
      "user": "Владимир К",
      "uid": 2853561,
      "center": {
        "lat": 49.7476061,
        "lon": 129.6760756
      },
      "nodes": [
        2052039677,
        2052039683,
        2052039663,
        2052039661,
        2052039677
      ],
      "tags": {
        "addr:housenumber": "17",
        "addr:street": "Советская улица",
        "amenity": "bar",
        "building": "yes",
        "name": "Инь-Ян"
      }
    },
    {
      "type": "way",
      "id": 294141620,
      "timestamp": "2024-03-26T03:00:27Z",
      "version": 2,
      "changeset": 149156384,
      "user": "宇生再难初见雪",
      "uid": 21042045,
      "center": {
        "lat": 43.8830393,
        "lon": 125.2551051
      },
      "nodes": [
        729702791,
        2977115976,
        11762648028,
        2977115975,
        729695440,
        729702791
      ],
      "tags": {
        "amenity": "biergarten",
        "name": "Deutscher Biergarten"
      }
    },
    {
      "type": "way",
      "id": 388618163,
      "timestamp": "2015-12-31T03:27:34Z",
      "version": 2,
      "changeset": 36275367,
      "user": "panoramedia",
      "uid": 228596,
      "center": {
        "lat": 41.7985754,
        "lon": 129.7948758
      },
      "nodes": [
        3918018321,
        3919742447,
        3918018323,
        3918018322,
        3918018319,
        3918018321
      ],
      "tags": {
        "amenity": "pub",
        "building": "yes"
      }
    },
    {
      "type": "way",
      "id": 658333047,
      "timestamp": "2018-12-27T03:41:12Z",
      "version": 1,
      "changeset": 65800864,
      "user": "九条荣臻",
      "uid": 8532726,
      "center": {
        "lat": 41.7824255,
        "lon": 123.4377301
      },
      "nodes": [
        6165045439,
        6165045440,
        6165045441,
        6165045442,
        6165045443,
        6165045444,
        6165045445,
        6165045446,
        6165045447,
        6165045448,
        6165045449,
        6165045450,
        6165045439
      ],
      "tags": {
        "amenity": "biergarten",
        "name": "沈阳外事学校幼儿园"
      }
    },
    {
      "type": "way",
      "id": 687254643,
      "timestamp": "2019-05-02T01:35:30Z",
      "version": 1,
      "changeset": 69786086,
      "user": "Александр Карацуба",
      "uid": 3328351,
      "center": {
        "lat": 48.6500127,
        "lon": 126.1424249
      },
      "nodes": [
        4330872685,
        6441771384,
        6441772285,
        6441772286,
        4330872686,
        4330872685
      ],
      "tags": {
        "amenity": "bar",
        "building": "yes"
      }
    },
    {
      "type": "way",
      "id": 800357446,
      "timestamp": "2020-05-05T10:48:08Z",
      "version": 1,
      "changeset": 84687319,
      "user": "ace735",
      "uid": 11128717,
      "center": {
        "lat": 41.1084802,
        "lon": 121.1222075
      },
      "nodes": [
        7485121848,
        7485121849,
        7485121850,
        7485121851,
        7485121852,
        7485121853,
        7485121848
      ],
      "tags": {
        "amenity": "pub",
        "building": "yes"
      }
    },
    {
      "type": "way",
      "id": 800357452,
      "timestamp": "2020-05-05T10:48:08Z",
      "version": 1,
      "changeset": 84687319,
      "user": "ace735",
      "uid": 11128717,
      "center": {
        "lat": 41.1081987,
        "lon": 121.1221644
      },
      "nodes": [
        7485121876,
        7485121877,
        7485121878,
        7485121879,
        7485121880,
        7485121881,
        7485121897,
        7485121882,
        7485121883,
        7485121898,
        7485121884,
        7485121885,
        7485121886,
        7485121887,
        7485121888,
        7485121889,
        7485121890,
        7485121891,
        7485121892,
        7485121893,
        7485121894,
        7485121895,
        7485121896,
        7485121876
      ],
      "tags": {
        "amenity": "pub",
        "building": "yes"
      }
    },
    {
      "type": "way",
      "id": 800357505,
      "timestamp": "2020-11-28T15:23:13Z",
      "version": 2,
      "changeset": 94948681,
      "user": "BXQUESTION",
      "uid": 6956115,
      "center": {
        "lat": 41.1137481,
        "lon": 121.1225964
      },
      "nodes": [
        7485122188,
        7485122189,
        8173829270,
        5041204191,
        7485122190,
        7485122191,
        7485122188
      ],
      "tags": {
        "amenity": "pub",
        "building": "yes"
      }
    },
    {
      "type": "way",
      "id": 1080522040,
      "timestamp": "2024-05-20T02:23:24Z",
      "version": 3,
      "changeset": 151557669,
      "user": "Tigerus",
      "uid": 16034496,
      "center": {
        "lat": 45.7801482,
        "lon": 126.6140163
      },
      "nodes": [
        9903863607,
        9903863608,
        9903863609,
        9903863610,
        9903863611,
        9903863612,
        9903863613,
        9903863614,
        9903863615,
        9903863607
      ],
      "tags": {
        "addr:postcode": "150000",
        "air_conditioning": "yes",
        "amenity": "bar",
        "building": "yes",
        "internet_access": "wlan",
        "internet_access:fee": "customers",
        "microbrewery": "yes",
        "name": "1900鲜啤坊",
        "name:ru": "1900 Пиво",
        "outdoor_seating": "yes"
      }
    },
    {
      "type": "way",
      "id": 1302504500,
      "timestamp": "2025-04-04T01:43:55Z",
      "version": 2,
      "changeset": 164487549,
      "user": "Tigerus",
      "uid": 16034496,
      "center": {
        "lat": 42.8700941,
        "lon": 129.4865411
      },
      "nodes": [
        12063199498,
        12063199499,
        12063199500,
        12063199501,
        12063199502,
        12063199503,
        12063199504,
        12063199505,
        12063199506,
        12063199507,
        12063199498
      ],
      "tags": {
        "amenity": "bar",
        "building": "yes",
        "name": "世界入口二号门精酿酒吧",
        "name:ru": "Бар крафтового пивоварения"
      }
    }
  ]
}