{
  "version": 0.6,
  "generator": "Overpass API 0.7.62.8 e802775f",
  "osm3s": {
    "timestamp_osm_base": "2025-10-23T20:02:33Z",
    "copyright": "The data included in this document is from www.openstreetmap.org. The data is made available under ODbL."
  },
  "elements": [
    {
      "type": "node",
      "id": 211492167,
      "lat": 28.1616471,
      "lon": -14.2303235,
      "timestamp": "2025-08-21T16:32:20Z",
      "version": 6,
      "changeset": 170788868,
      "user": "DearSandrito",
      "uid": 22193378,
      "tags": {
        "amenity": "pub",
        "name": "Fuerte Action",
        "opening_hours": "Sa-Th,PH 08:30-23:30"
      }
    },
    {
      "type": "node",
      "id": 262127109,
      "lat": 28.0654638,
      "lon": -16.7304203,
      "timestamp": "2014-09-30T14:26:54Z",
      "version": 4,
      "changeset": 25768849,
      "user": "EinKonstanzer",
      "uid": 128720,
      "tags": {
        "amenity": "pub",
        "name": "Linekers Lounge"
      }
    },
    {
      "type": "node",
      "id": 262127110,
      "lat": 28.0655581,
      "lon": -16.7303345,
      "timestamp": "2014-09-30T14:26:54Z",
      "version": 4,
      "changeset": 25768849,
      "user": "EinKonstanzer",
      "uid": 128720,
      "tags": {
        "amenity": "pub",
        "name": "Down Under Bar"
      }
    },
    {
      "type": "node",
      "id": 297739723,
      "lat": 28.3229589,
      "lon": -16.7882886,
      "timestamp": "2015-03-06T21:02:53Z",
      "version": 2,
      "changeset": 29298064,
      "user": "bedi",
      "uid": 67482,
      "tags": {
        "amenity": "pub",
        "name": "El Risco"
      }
    },
    {
      "type": "node",
      "id": 301235506,
      "lat": 28.4842972,
      "lon": -16.3900516,
      "timestamp": "2011-03-30T16:24:57Z",
      "version": 2,
      "changeset": 7717786,
      "user": "tiger",
      "uid": 338866,
      "tags": {
        "amenity": "pub",
        "name": "Miguel",
        "source": "survey"
      }
    },
    {
      "type": "node",
      "id": 301235753,
      "lat": 28.5181835,
      "lon": -16.2976796,
      "timestamp": "2013-11-27T13:06:50Z",
      "version": 2,
      "changeset": 19143801,
      "user": "tiger",
      "uid": 338866,
      "tags": {
        "amenity": "bar",
        "name": "Josefa",
        "source": "survey"
      }
    },
    {
      "type": "node",
      "id": 309519177,
      "lat": 28.0435897,
      "lon": -16.5353304,
      "timestamp": "2025-10-07T23:00:47Z",
      "version": 10,
      "changeset": 172980342,
      "user": "Till_btn",
      "uid": 16371836,
      "tags": {
        "addr:housenumber": "10",
        "addr:postcode": "38612",
        "addr:street": "Avenida José Miguel Galván Bello",
        "amenity": "bar",
        "check_date": "2025-10-08",
        "indoor_seating": "yes",
        "name": "Manfred's Soul Cafe",
        "opening_hours": "Mo-Fr,Su 08:30-02:00; Sa 10:00-02:00",
        "outdoor_seating": "yes",
        "payment:credit_cards": "yes",
        "phone": "+34922177606",
        "wheelchair": "no"
      }
    },
    {
      "type": "node",
      "id": 310631553,
      "lat": 28.0559687,
      "lon": -16.7253702,
      "timestamp": "2008-11-08T18:14:51Z",
      "version": 1,
      "changeset": 717432,
      "user": "guggis",
      "uid": 40577,
      "tags": {
        "amenity": "bar",
        "name": "Giola Bar"
      }
    },
    {
      "type": "node",
      "id": 310631569,
      "lat": 28.0560632,
      "lon": -16.7252841,
      "timestamp": "2012-10-28T15:40:49Z",
      "version": 3,
      "changeset": 13661082,
      "user": "wheelmap_visitor",
      "uid": 290680,
      "tags": {
        "amenity": "bar",
        "name": "Los Amigos",
        "wheelchair": "limited"
      }
    },
    {
      "type": "node",
      "id": 312544494,
      "lat": 28.0621596,
      "lon": -16.7292551,
      "timestamp": "2008-11-16T17:01:58Z",
      "version": 1,
      "changeset": 756492,
      "user": "ivansanchez",
      "uid": 5265,
      "tags": {
        "amenity": "pub",
        "name": "The Anchor"
      }
    },
    {
      "type": "node",
      "id": 312547827,
      "lat": 28.0632894,
      "lon": -16.7305765,
      "timestamp": "2012-05-09T15:54:47Z",
      "version": 2,
      "changeset": 11550421,
      "user": "tiger",
      "uid": 338866,
      "tags": {
        "amenity": "pub",
        "name": "The Travellers' Rest"
      }
    },
    {
      "type": "node",
      "id": 312552971,
      "lat": 28.0657713,
      "lon": -16.7302245,
      "timestamp": "2014-10-26T00:11:37Z",
      "version": 4,
      "changeset": 26332543,
      "user": "EinKonstanzer",
      "uid": 128720,
      "tags": {
        "amenity": "pub",
        "name": "Murphy's Irish pub"
      }
    },
    {
      "type": "node",
      "id": 312553041,
      "lat": 28.066035,
      "lon": -16.7299094,
      "timestamp": "2008-11-16T17:36:58Z",
      "version": 1,
      "changeset": 756492,
      "user": "ivansanchez",
      "uid": 5265,
      "tags": {
        "amenity": "pub",
        "name": "Billares Oro Viejo"
      }
    },
    {
      "type": "node",
      "id": 312555464,
      "lat": 28.0658686,
      "lon": -16.7289969,
      "timestamp": "2023-11-26T12:54:20Z",
      "version": 2,
      "changeset": 144470599,
      "user": "robertogeb",
      "uid": 491515,
      "tags": {
        "amenity": "pub",
        "name": "Bread & Cake"
      }
    },
    {
      "type": "node",
      "id": 313411014,
      "lat": 28.0528459,
      "lon": -16.7275514,
      "timestamp": "2008-11-20T22:51:58Z",
      "version": 1,
      "changeset": 775353,
      "user": "guggis",
      "uid": 40577,
      "tags": {
        "amenity": "bar",
        "name": "Mack's Bar"
      }
    },
    {
      "type": "node",
      "id": 313482534,
      "lat": 28.0735646,
      "lon": -16.7331008,
      "timestamp": "2025-03-27T19:43:57Z",
      "version": 3,
      "changeset": 164180217,
      "user": "starsep",
      "uid": 11306447,
      "tags": {
        "amenity": "bar",
        "check_date": "2025-03-27",
        "name": "Waikiki Beach Cocktail Bar",
        "outdoor_seating": "yes",
        "source": "I was on Site"
      }
    },
    {
      "type": "node",
      "id": 313503701,
      "lat": 28.07832,
      "lon": -16.7323905,
      "timestamp": "2019-12-13T15:51:41Z",
      "version": 4,
      "changeset": 78382938,
      "user": "Jonas Hansen",
      "uid": 30930,
      "tags": {
        "amenity": "bar",
        "name": "St. Eugen's",
        "outdoor_seating": "yes",
        "phone": "+34 618 23 69 50"
      }
    },
    {
      "type": "node",
      "id": 313503847,
      "lat": 28.0795357,
      "lon": -16.7349025,
      "timestamp": "2021-10-01T23:48:08Z",
      "version": 2,
      "changeset": 111985098,
      "user": "Fnordson",
      "uid": 1723567,
      "tags": {
        "amenity": "bar",
        "name": "Sunset View",
        "opening_hours:signed": "no"
      }
    },
    {
      "type": "node",
      "id": 313503916,
      "lat": 28.0834141,
      "lon": -16.7352265,
      "timestamp": "2020-01-22T11:31:38Z",
      "version": 3,
      "changeset": 79912628,
      "user": "Jonas Hansen",
      "uid": 30930,
      "tags": {
        "amenity": "pub",
        "name": "Moonlight Fun Pub"
      }
    },
    {
      "type": "node",
      "id": 313682158,
      "lat": 28.1220708,
      "lon": -16.7738875,
      "timestamp": "2013-04-15T11:02:48Z",
      "version": 3,
      "changeset": 15735741,
      "user": "MapBiscuit",
      "uid": 44160,
      "tags": {
        "amenity": "pub",
        "name": "The Horseshoe",
        "source": "survey"
      }
    },
    {
      "type": "node",
      "id": 313777346,
      "lat": 28.0724214,
      "lon": -16.7299852,
      "timestamp": "2008-11-22T19:07:18Z",
      "version": 1,
      "changeset": 781301,
      "user": "ivansanchez",
      "uid": 5265,
      "tags": {
        "amenity": "pub",
        "name": "Yorkshire Owl"
      }
    },
    {
      "type": "node",
      "id": 318421710,
      "lat": 28.0910275,
      "lon": -17.1097608,
      "timestamp": "2019-03-07T10:18:52Z",
      "version": 3,
      "changeset": 67876927,
      "user": "bananaboy",
      "uid": 9406589,
      "tags": {
        "amenity": "pub",
        "name": "Taverna Marinera Blue Marlin"
      }
    },
    {
      "type": "node",
      "id": 318614927,
      "lat": 28.1799034,
      "lon": -16.8033824,
      "timestamp": "2008-12-14T14:15:08Z",
      "version": 1,
      "changeset": 367748,
      "user": "guggis",
      "uid": 40577,
      "tags": {
        "amenity": "bar",
        "name": "Mesa",
        "source": "survey"
      }
    },
    {
      "type": "node",
      "id": 318615077,
      "lat": 28.1804399,
      "lon": -16.7901124,
      "timestamp": "2008-12-14T14:15:25Z",
      "version": 1,
      "changeset": 367748,
      "user": "guggis",
      "uid": 40577,
      "tags": {
        "amenity": "bar",
        "name": "Bolero Moca Bar"
      }
    },
    {
      "type": "node",
      "id": 318877442,
      "lat": 28.0953131,
      "lon": -17.3430729,
      "timestamp": "2024-03-28T18:45:48Z",
      "version": 4,
      "changeset": 149283183,
      "user": "Ingrid912",
      "uid": 21240325,
      "tags": {
        "amenity": "pub",
        "name": "Orinoco",
        "opening_hours": "We-Mo 12:00-11:00"
      }
    },
    {
      "type": "node",
      "id": 318877475,
      "lat": 28.0824006,
      "lon": -17.3332001,
      "timestamp": "2011-12-30T12:31:37Z",
      "version": 3,
      "changeset": 10244680,
      "user": "schiwi",
      "uid": 446175,
      "tags": {
        "amenity": "pub",
        "name": "Rincón del Marinero"
      }
    },
    {
      "type": "node",
      "id": 319070837,
      "lat": 28.0297665,
      "lon": -17.1935833,
      "timestamp": "2019-04-05T16:24:18Z",
      "version": 3,
      "changeset": 68928006,
      "user": "VIMVA",
      "uid": 658524,
      "tags": {
        "amenity": "pub",
        "name": "Bar Tarajal"
      }
    },
    {
      "type": "node",
      "id": 319070863,
      "lat": 28.0297874,
      "lon": -17.194202,
      "timestamp": "2019-04-05T16:24:22Z",
      "version": 4,
      "changeset": 68928006,
      "user": "VIMVA",
      "uid": 658524,
      "tags": {
        "amenity": "pub",
        "description": "Freaky location. Good old musik",
        "name": "La Chalana",
        "phone": "+34 922 89 59 69"
      }
    },
    {
      "type": "node",
      "id": 319254096,
      "lat": 28.0954473,
      "lon": -17.3349992,
      "timestamp": "2008-12-16T17:52:45Z",
      "version": 1,
      "changeset": 424958,
      "user": "Jacques_N",
      "uid": 46145,
      "tags": {
        "amenity": "pub",
        "name": "Bar Plaza"
      }
    },
    {
      "type": "node",
      "id": 319254097,
      "lat": 28.0951945,
      "lon": -17.3351117,
      "timestamp": "2008-12-16T17:52:46Z",
      "version": 1,
      "changeset": 424958,
      "user": "Jacques_N",
      "uid": 46145,
      "tags": {
        "amenity": "pub",
        "name": "Bar Parada"
      }
    },
    {
      "type": "node",
      "id": 319563729,
      "lat": 28.1487936,
      "lon": -17.1992599,
      "timestamp": "2008-12-17T18:42:49Z",
      "version": 1,
      "changeset": 445868,
      "user": "Jacques_N",
      "uid": 46145,
      "tags": {
        "amenity": "pub",
        "name": "Los Amigos"
      }
    },
    {
      "type": "node",
      "id": 319784054,
      "lat": 28.1607506,
      "lon": -17.3220347,
      "timestamp": "2024-12-08T13:11:00Z",
      "version": 4,
      "changeset": 160056499,
      "user": "pi=3",
      "uid": 10178286,
      "tags": {
        "amenity": "bar",
        "name": "Perdomo",
        "opening_hours": "Tu-Su 09:30-18:00"
      }
    },
    {
      "type": "node",
      "id": 323135101,
      "lat": 28.1095422,
      "lon": -17.2818367,
      "timestamp": "2020-09-25T10:04:36Z",
      "version": 8,
      "changeset": 91500230,
      "user": "radnaj",
      "uid": 13135,
      "tags": {
        "amenity": "pub",
        "name": "Bar Restaurante Sonia",
        "outdoor_seating": "yes",
        "website": "https://www.chipude.es/"
      }
    },
    {
      "type": "node",
      "id": 332433901,
      "lat": 28.1612093,
      "lon": -14.230747,
      "timestamp": "2021-04-06T09:00:10Z",
      "version": 2,
      "changeset": 102390820,
      "user": "jabbadu",
      "uid": 98280,
      "tags": {
        "amenity": "pub",
        "name": "Musikbar Cheers"
      }
    },
    {
      "type": "node",
      "id": 357870293,
      "lat": 27.6716026,
      "lon": -18.0263206,
      "timestamp": "2019-11-01T13:46:41Z",
      "version": 7,
      "changeset": 76497855,
      "user": "wicking",
      "uid": 102755,
      "tags": {
        "amenity": "bar"
      }
    },
    {
      "type": "node",
      "id": 367896968,
      "lat": 28.0474148,
      "lon": -14.3286759,
      "timestamp": "2024-01-04T16:43:21Z",
      "version": 8,
      "changeset": 145889584,
      "user": "dida-map",
      "uid": 12392194,
      "tags": {
        "amenity": "pub",
        "indoor_seating": "no",
        "name": "Restaurante Saladar",
        "opening_hours": "PH,Mo-Su 10:30-18:30",
        "outdoor_seating": "yes",
        "smoking": "yes"
      }
    },
    {
      "type": "node",
      "id": 369716331,
      "lat": 28.7689705,
      "lon": -17.7612362,
      "timestamp": "2019-12-01T17:22:03Z",
      "version": 4,
      "changeset": 77787066,
      "user": "wicking",
      "uid": 102755,
      "tags": {
        "alt_name": "Casa Flora",
        "amenity": "bar",
        "name": "Bar Cafeteria El Recuerdo"
      }
    },
    {
      "type": "node",
      "id": 372109718,
      "lat": 28.0830332,
      "lon": -17.3347467,
      "timestamp": "2019-05-12T11:25:00Z",
      "version": 4,
      "changeset": 70157749,
      "user": "Kigana",
      "uid": 58776,
      "tags": {
        "amenity": "pub",
        "name": "Cacatua Bar",
        "opening_hours": "Mo-Su 21:00-02:00"
      }
    },
    {
      "type": "node",
      "id": 382384578,
      "lat": 27.640677,
      "lon": -17.9816083,
      "timestamp": "2018-12-16T18:28:47Z",
      "version": 5,
      "changeset": 65528709,
      "user": "ulmtuelp",
      "uid": 120153,
      "tags": {
        "amenity": "pub",
        "name": "Mar de Las Calmas"
      }
    },
    {
      "type": "node",
      "id": 382384587,
      "lat": 27.6406944,
      "lon": -17.9815502,
      "timestamp": "2018-12-16T18:28:47Z",
      "version": 5,
      "changeset": 65528709,
      "user": "ulmtuelp",
      "uid": 120153,
      "tags": {
        "amenity": "pub",
        "name": "Tasca Avenida"
      }
    },
    {
      "type": "node",
      "id": 412089582,
      "lat": 28.0499531,
      "lon": -14.3427327,
      "timestamp": "2009-05-28T09:13:23Z",
      "version": 1,
      "changeset": 1340498,
      "user": "HDietze",
      "uid": 3112,
      "tags": {
        "amenity": "bar",
        "name": "Bar las Tapas"
      }
    },
    {
      "type": "node",
      "id": 435416758,
      "lat": 28.1299309,
      "lon": -15.4507143,
      "timestamp": "2009-07-06T17:55:25Z",
      "version": 2,
      "changeset": 1754803,
      "user": "balrog-kun",
      "uid": 20587,
      "tags": {
        "amenity": "pub",
        "name": "Marea Baja"
      }
    },
    {
      "type": "node",
      "id": 435698944,
      "lat": 28.1358469,
      "lon": -15.4396628,
      "timestamp": "2024-03-10T12:48:30Z",
      "version": 5,
      "changeset": 148460350,
      "user": "Johnbo",
      "uid": 915796,
      "tags": {
        "addr:city": "Las Palmas de Gran Canaria",
        "addr:housenumber": "84",
        "addr:postcode": "35010",
        "addr:street": "Paseo Las Canteras",
        "amenity": "pub",
        "check_date": "2023-11-19",
        "contact:facebook": "https://www.facebook.com/people/Las-Buenas-Pulgas/100083499705340/",
        "name": "Las Buenas Pulgas"
      }
    },
    {
      "type": "node",
      "id": 435698967,
      "lat": 28.1365912,
      "lon": -15.4380589,
      "timestamp": "2024-12-13T22:46:17Z",
      "version": 6,
      "changeset": 160264210,
      "user": "Kartibu",
      "uid": 2350365,
      "tags": {
        "amenity": "pub",
        "check_date": "2023-12-07",
        "indoor_seating": "yes",
        "name": "La Peña",
        "outdoor_seating": "yes"
      }
    },
    {
      "type": "node",
      "id": 435710897,
      "lat": 28.1369611,
      "lon": -15.437223,
      "timestamp": "2009-07-06T22:04:33Z",
      "version": 1,
      "changeset": 1757265,
      "user": "balrog-kun",
      "uid": 20587,
      "tags": {
        "amenity": "pub",
        "name": "Las Noches Golfas"
      }
    },
    {
      "type": "node",
      "id": 435710905,
      "lat": 28.1371517,
      "lon": -15.4372172,
      "timestamp": "2009-07-16T03:04:32Z",
      "version": 2,
      "changeset": 1841246,
      "user": "balrog-kun",
      "uid": 20587,
      "tags": {
        "amenity": "pub",
        "name": "Latinos Sport Bar"
      }
    },
    {
      "type": "node",
      "id": 436025407,
      "lat": 28.1365718,
      "lon": -15.4311002,
      "timestamp": "2015-04-03T16:05:35Z",
      "version": 2,
      "changeset": 29954992,
      "user": "fizzytoad",
      "uid": 2803857,
      "tags": {
        "amenity": "pub",
        "name": "El Pisko"
      }
    },
    {
      "type": "node",
      "id": 436044118,
      "lat": 28.1442084,
      "lon": -15.4305198,
      "timestamp": "2009-07-07T04:46:35Z",
      "version": 1,
      "changeset": 1758834,
      "user": "balrog-kun",
      "uid": 20587,
      "tags": {
        "amenity": "pub",
        "name": "Bar Eledari"
      }
    },
    {
      "type": "node",
      "id": 436044120,
      "lat": 28.1443389,
      "lon": -15.4304799,
      "timestamp": "2009-07-07T04:46:35Z",
      "version": 1,
      "changeset": 1758834,
      "user": "balrog-kun",
      "uid": 20587,
      "tags": {
        "amenity": "pub",
        "name": "Bar Los Chicos"
      }
    },
    {
      "type": "node",
      "id": 436044134,
      "lat": 28.1438991,
      "lon": -15.4308027,
      "timestamp": "2018-10-31T18:44:36Z",
      "version": 2,
      "changeset": 64054263,
      "user": "IvanHerCaz",
      "uid": 3334012,
      "tags": {
        "amenity": "pub",
        "cuisine": "danish",
        "name": "Bar Nuevo Refugio \"Ricardo\"",
        "wheelchair": "limited"
      }
    },
    {
      "type": "node",
      "id": 436328011,
      "lat": 28.1424566,
      "lon": -15.4318715,
      "timestamp": "2009-07-07T14:59:03Z",
      "version": 1,
      "changeset": 1762712,
      "user": "balrog-kun",
      "uid": 20587,
      "tags": {
        "amenity": "pub",
        "name": "Crazy Horse"
      }
    },
    {
      "type": "node",
      "id": 436700930,
      "lat": 28.1378657,
      "lon": -15.4355274,
      "timestamp": "2017-11-16T19:28:21Z",
      "version": 4,
      "changeset": 53853061,
      "user": "germbwe",
      "uid": 6793510,
      "tags": {
        "amenity": "pub",
        "name": "Cervecería La Regañá"
      }
    },
    {
      "type": "node",
      "id": 436700953,
      "lat": 28.1410579,
      "lon": -15.4321171,
      "timestamp": "2017-10-26T20:01:40Z",
      "version": 2,
      "changeset": 53273419,
      "user": "germbwe",
      "uid": 6793510,
      "tags": {
        "amenity": "pub",
        "name": "Bazar Carroussel",
        "shop": "houseware"
      }
    },
    {
      "type": "node",
      "id": 437534250,
      "lat": 28.1434392,
      "lon": -15.4316409,
      "timestamp": "2009-07-08T21:02:57Z",
      "version": 1,
      "changeset": 1776148,
      "user": "balrog-kun",
      "uid": 20587,
      "tags": {
        "amenity": "pub",
        "name": "Bar"
      }
    },
    {
      "type": "node",
      "id": 438753675,
      "lat": 28.1461223,
      "lon": -15.4303931,
      "timestamp": "2018-12-16T15:59:40Z",
      "version": 3,
      "changeset": 65525443,
      "user": "gpesquero",
      "uid": 3584,
      "tags": {
        "amenity": "pub",
        "layer": "-1",
        "name": "El Ancla",
        "name:es": "El Ancla",
        "name:fi": "Ankkuri"
      }
    },
    {
      "type": "node",
      "id": 438825137,
      "lat": 28.1485983,
      "lon": -15.4306919,
      "timestamp": "2009-07-10T00:41:09Z",
      "version": 1,
      "changeset": 1785153,
      "user": "balrog-kun",
      "uid": 20587,
      "tags": {
        "amenity": "pub",
        "name": "Viva Zapata"
      }
    },
    {
      "type": "node",
      "id": 439289977,
      "lat": 28.5128681,
      "lon": -16.3060069,
      "timestamp": "2010-02-19T19:49:55Z",
      "version": 4,
      "changeset": 3918062,
      "user": "Javier Sanchez",
      "uid": 47882,
      "tags": {
        "amenity": "bar",
        "name": "Alonso"
      }
    },
    {
      "type": "node",
      "id": 439289985,
      "lat": 28.5127526,
      "lon": -16.3059908,
      "timestamp": "2010-02-19T19:49:50Z",
      "version": 3,
      "changeset": 3918062,
      "user": "Javier Sanchez",
      "uid": 47882,
      "tags": {
        "amenity": "bar",
        "name": "Bomberos"
      }
    },
    {
      "type": "node",
      "id": 442370885,
      "lat": 28.1326229,
      "lon": -15.4301778,
      "timestamp": "2017-08-20T16:16:58Z",
      "version": 2,
      "changeset": 51280559,
      "user": "Luiyo",
      "uid": 316694,
      "tags": {
        "amenity": "pub",
        "name": "El Buho"
      }
    },
    {
      "type": "node",
      "id": 442371027,
      "lat": 28.136299,
      "lon": -15.4363926,
      "timestamp": "2009-07-15T22:49:11Z",
      "version": 1,
      "changeset": 1840686,
      "user": "balrog-kun",
      "uid": 20587,
      "tags": {
        "amenity": "pub",
        "name": "Eminencia"
      }
    },
    {
      "type": "node",
      "id": 442371041,
      "lat": 28.1295808,
      "lon": -15.4463014,
      "timestamp": "2018-03-07T17:25:00Z",
      "version": 2,
      "changeset": 56975676,
      "user": "germbwe",
      "uid": 6793510,
      "tags": {
        "amenity": "pub",
        "name": "Ca'Manolin"
      }
    },
    {
      "type": "node",
      "id": 445222206,
      "lat": 27.907005,
      "lon": -15.4469216,
      "timestamp": "2025-10-10T07:22:24Z",
      "version": 11,
      "changeset": 173079968,
      "user": "kapazao_import",
      "uid": 8770019,
      "tags": {
        "addr:city": "Agüimes",
        "addr:housenumber": "19",
        "addr:postcode": "35260",
        "addr:street": "Plaza de Nuestra Señora del Rosario",
        "air_conditioning": "no",
        "amenity": "pub",
        "check_date": "2023-04-24",
        "indoor_seating": "yes",
        "name": "La Juventud",
        "opening_hours": "Tu-Th 16:00-23:00; Fr 16:00-24:00; Sa 14:00-24:00; Su 12:00-23:00",
        "outdoor_seating": "yes",
        "payment:mastercard": "yes",
        "payment:visa": "yes"
      }
    },
    {
      "type": "node",
      "id": 445408144,
      "lat": 28.4152441,
      "lon": -16.5333064,
      "timestamp": "2021-12-10T11:16:45Z",
      "version": 6,
      "changeset": 114780775,
      "user": "Team Saturo",
      "uid": 36065,
      "tags": {
        "amenity": "bar",
        "cuisine": "chinese",
        "name": "Bar Gran Torino"
      }
    },
    {
      "type": "node",
      "id": 455203305,
      "lat": 28.863004,
      "lon": -13.8251012,
      "timestamp": "2012-03-23T18:08:26Z",
      "version": 3,
      "changeset": 11076106,
      "user": "Muokkaaja",
      "uid": 494482,
      "tags": {
        "amenity": "bar",
        "name": "Jungle Bar"
      }
    },
    {
      "type": "node",
      "id": 455203314,
      "lat": 28.862556,
      "lon": -13.8250387,
      "timestamp": "2025-09-25T13:09:07Z",
      "version": 6,
      "changeset": 172439918,
      "user": "GovernorKeagan",
      "uid": 10282766,
      "tags": {
        "addr:floor": "G",
        "air_conditioning": "yes",
        "amenity": "pub",
        "check_date": "2025-09-25",
        "contact:instagram": "https://www.instagram.com/harpbar.lanzarote/",
        "cuisine": "pizza;burger;regional;breakfast",
        "facebook": "https://www.facebook.com/harpbar.lanzarote/",
        "internet_access": "wlan",
        "internet_access:fee": "customers",
        "internet_access:ssid": "HARP BAR",
        "level": "0",
        "name": "The Harp Irish Bar",
        "opening_hours": "Mo-Su 12:00-00:00",
        "outdoor_seating": "yes",
        "payment:cash": "yes",
        "payment:credit_cards": "yes",
        "payment:debit_cards": "yes",
        "toilets": "yes",
        "toilets:wheelchair": "yes",
        "wheelchair": "yes"
      }
    },
    {
      "type": "node",
      "id": 455203322,
      "lat": 28.8626141,
      "lon": -13.8248893,
      "timestamp": "2012-03-23T18:08:26Z",
      "version": 3,
      "changeset": 11076106,
      "user": "Muokkaaja",
      "uid": 494482,
      "tags": {
        "amenity": "bar",
        "name": "Atlantis"
      }
    },
    {
      "type": "node",
      "id": 455203324,
      "lat": 28.8633752,
      "lon": -13.8252622,
      "timestamp": "2012-03-23T18:19:34Z",
      "version": 3,
      "changeset": 11076106,
      "user": "Muokkaaja",
      "uid": 494482,
      "tags": {
        "amenity": "pub",
        "name": "Mollies Irish Pub"
      }
    },
    {
      "type": "node",
      "id": 455203340,
      "lat": 28.8628396,
      "lon": -13.8248867,
      "timestamp": "2012-03-23T18:08:26Z",
      "version": 3,
      "changeset": 11076106,
      "user": "Muokkaaja",
      "uid": 494482,
      "tags": {
        "amenity": "bar",
        "name": "The Wax Bar"
      }
    },
    {
      "type": "node",
      "id": 455210467,
      "lat": 28.8626682,
      "lon": -13.8250396,
      "timestamp": "2012-03-23T18:08:07Z",
      "version": 3,
      "changeset": 11076106,
      "user": "Muokkaaja",
      "uid": 494482,
      "tags": {
        "amenity": "bar",
        "name": "Taberna Godina"
      }
    },
    {
      "type": "node",
      "id": 455225159,
      "lat": 28.8634292,
      "lon": -13.8251414,
      "timestamp": "2025-09-23T19:15:53Z",
      "version": 4,
      "changeset": 172360487,
      "user": "raverbashing",
      "uid": 20302207,
      "tags": {
        "amenity": "bar",
        "check_date": "2025-09-23",
        "name": "Swing Disco"
      }
    },
    {
      "type": "node",
      "id": 455225167,
      "lat": 28.8632436,
      "lon": -13.8252862,
      "timestamp": "2025-09-23T18:10:37Z",
      "version": 4,
      "changeset": 172357646,
      "user": "raverbashing",
      "uid": 20302207,
      "tags": {
        "amenity": "pub",
        "check_date": "2025-09-23",
        "name": "Waikiki Beach Bar"
      }
    },
    {
      "type": "node",
      "id": 455250249,
      "lat": 28.8630745,
      "lon": -13.8297641,
      "timestamp": "2015-05-29T15:06:22Z",
      "version": 3,
      "changeset": 31564989,
      "user": "juergenb22",
      "uid": 1660455,
      "tags": {
        "amenity": "pub",
        "name": "The Old Mill"
      }
    },
    {
      "type": "node",
      "id": 455410824,
      "lat": 28.8592338,
      "lon": -13.8365601,
      "timestamp": "2009-08-03T17:00:07Z",
      "version": 1,
      "changeset": 2026935,
      "user": "EdLoach",
      "uid": 57884,
      "tags": {
        "amenity": "pub",
        "name": "Alfie Moons Pub"
      }
    },
    {
      "type": "node",
      "id": 455484764,
      "lat": 28.8634161,
      "lon": -13.8288754,
      "timestamp": "2021-08-14T15:02:17Z",
      "version": 4,
      "changeset": 109673614,
      "user": "Almorca",
      "uid": 71626,
      "tags": {
        "amenity": "bar",
        "name": "Bar Avenida"
      }
    },
    {
      "type": "node",
      "id": 455910993,
      "lat": 28.861201,
      "lon": -13.8329554,
      "timestamp": "2012-03-20T17:28:49Z",
      "version": 2,
      "changeset": 11042779,
      "user": "Muokkaaja",
      "uid": 494482,
      "tags": {
        "amenity": "pub",
        "name": "Paddy's Point Irish Bar and Café"
      }
    },
    {
      "type": "node",
      "id": 455910999,
      "lat": 28.861331,
      "lon": -13.8322177,
      "timestamp": "2009-08-04T08:48:22Z",
      "version": 1,
      "changeset": 2032872,
      "user": "EdLoach",
      "uid": 57884,
      "tags": {
        "amenity": "bar",
        "name": "Sweet Corner Beach Club"
      }
    },
    {
      "type": "node",
      "id": 455916171,
      "lat": 28.8623416,
      "lon": -13.831541,
      "timestamp": "2017-01-30T13:25:07Z",
      "version": 2,
      "changeset": 45651630,
      "user": "cesar cabrera",
      "uid": 1406899,
      "tags": {
        "amenity": "bar",
        "name": "Bar de Tapas La Cantina"
      }
    },
    {
      "type": "node",
      "id": 456007656,
      "lat": 28.8572443,
      "lon": -13.8167326,
      "timestamp": "2025-09-23T12:15:30Z",
      "version": 4,
      "changeset": 172341229,
      "user": "GovernorKeagan",
      "uid": 10282766,
      "tags": {
        "addr:floor": "G",
        "amenity": "bar",
        "check_date": "2025-09-23",
        "internet_access": "wlan",
        "internet_access:fee": "customers",
        "level": "0",
        "name": "One Bar",
        "payment:cash": "yes",
        "payment:credit_cards": "yes",
        "payment:debit_cards": "yes",
        "wheelchair": "yes"
      }
    },
    {
      "type": "node",
      "id": 476749138,
      "lat": 28.0830773,
      "lon": -17.3351044,
      "timestamp": "2017-10-07T17:45:44Z",
      "version": 7,
      "changeset": 52713796,
      "user": "werner2101",
      "uid": 110263,
      "tags": {
        "addr:housenumber": "12",
        "addr:street": "Calle La Ciuadadela",
        "amenity": "pub",
        "name": "Tambara",
        "opening_hours": "Mo-Sa 12:00-15:00,17:00-24:00; We off; Su 18:00-24:00",
        "outdoor_seating": "yes"
      }
    },
    {
      "type": "node",
      "id": 477417866,
      "lat": 28.0957989,
      "lon": -17.3428116,
      "timestamp": "2022-11-12T21:37:35Z",
      "version": 7,
      "changeset": 128828250,
      "user": "deepblue66",
      "uid": 462959,
      "tags": {
        "amenity": "bar",
        "internet_access": "wired;wlan",
        "name": "Chicaria",
        "smoking": "outside"
      }
    },
    {
      "type": "node",
      "id": 479796452,
      "lat": 28.0949999,
      "lon": -17.3431196,
      "timestamp": "2024-06-23T10:17:13Z",
      "version": 4,
      "changeset": 153061010,
      "user": "Leonmvd",
      "uid": 2400111,
      "tags": {
        "amenity": "pub",
        "check_date": "2024-06-23",
        "name": "Gomera Lounge"
      }
    },
    {
      "type": "node",
      "id": 480959234,
      "lat": 28.0881216,
      "lon": -17.33888,
      "timestamp": "2019-03-08T22:35:03Z",
      "version": 4,
      "changeset": 67942969,
      "user": "csmainz",
      "uid": 2809647,
      "tags": {
        "amenity": "pub",
        "name": "Bar Manolos Teguerguenche"
      }
    },
    {
      "type": "node",
      "id": 496130471,
      "lat": 28.100405,
      "lon": -15.4142558,
      "timestamp": "2024-09-15T12:35:44Z",
      "version": 5,
      "changeset": 156645487,
      "user": "Mucha Calle",
      "uid": 18515573,
      "tags": {
        "amenity": "pub",
        "check_date": "2024-09-15",
        "name": "El Monje",
        "opening_hours": "Mo-We 09:00-23:00; Th 09:00-24:00; Fr 09:00-01:00; Sa 10:00-01:00; Su 10:00-23:00",
        "website": "https://elmonjelpa.es/taberna-monje-carta/taberna-esp/"
      }
    },
    {
      "type": "node",
      "id": 498747185,
      "lat": 27.764473,
      "lon": -15.5728235,
      "timestamp": "2016-12-26T14:41:46Z",
      "version": 4,
      "changeset": 44683833,
      "user": "khbritish",
      "uid": 4445529,
      "tags": {
        "amenity": "pub",
        "name": "Kölsches Eck"
      }
    },
    {
      "type": "node",
      "id": 498747292,
      "lat": 27.7642406,
      "lon": -15.5728252,
      "timestamp": "2016-11-08T13:46:59Z",
      "version": 4,
      "changeset": 43487522,
      "user": "khbritish",
      "uid": 4445529,
      "tags": {
        "amenity": "pub",
        "name": "Big Ben"
      }
    },
    {
      "type": "node",
      "id": 504739144,
      "lat": 28.0681899,
      "lon": -16.732084,
      "timestamp": "2009-09-21T22:49:21Z",
      "version": 1,
      "changeset": 2563190,
      "user": "munichmapper",
      "uid": 8311,
      "tags": {
        "amenity": "bar",
        "name": "Banana Garden Bar"
      }
    },
    {
      "type": "node",
      "id": 504745279,
      "lat": 28.0612243,
      "lon": -16.727508,
      "timestamp": "2010-10-17T15:32:28Z",
      "version": 2,
      "changeset": 6068161,
      "user": "nubarron",
      "uid": 53891,
      "tags": {
        "amenity": "bar",
        "name": "Havanna Bar"
      }
    },
    {
      "type": "node",
      "id": 532107517,
      "lat": 28.4148562,
      "lon": -16.5433429,
      "timestamp": "2017-11-30T09:39:49Z",
      "version": 4,
      "changeset": 54200205,
      "user": "Boerde",
      "uid": 2471531,
      "tags": {
        "amenity": "bar",
        "name": "El Camino",
        "name:de": "Bar El Camino",
        "opening_hours": "Mo-Sa 08:00-22:00",
        "wheelchair": "no"
      }
    },
    {
      "type": "node",
      "id": 566159246,
      "lat": 28.1634719,
      "lon": -14.2233388,
      "timestamp": "2025-08-21T16:16:59Z",
      "version": 3,
      "changeset": 170788868,
      "user": "DearSandrito",
      "uid": 22193378,
      "tags": {
        "amenity": "pub",
        "fixme": "Position estimated",
        "name": "Beach Bar",
        "opening_hours": "Mo-Su,PH 12:00-17:00"
      }
    },
    {
      "type": "node",
      "id": 567340931,
      "lat": 27.7683843,
      "lon": -15.5486006,
      "timestamp": "2009-11-20T10:38:49Z",
      "version": 1,
      "changeset": 3167282,
      "user": "hal9",
      "uid": 62775,
      "tags": {
        "amenity": "pub"
      }
    },
    {
      "type": "node",
      "id": 567907643,
      "lat": 28.1154897,
      "lon": -15.4230263,
      "timestamp": "2023-01-23T16:10:24Z",
      "version": 3,
      "changeset": 131614423,
      "user": "frodrigo",
      "uid": 25762,
      "tags": {
        "amenity": "bar",
        "name": "El Obrero"
      }
    },
    {
      "type": "node",
      "id": 582181845,
      "lat": 28.1146874,
      "lon": -15.4224725,
      "timestamp": "2023-01-23T16:10:24Z",
      "version": 4,
      "changeset": 131614423,
      "user": "frodrigo",
      "uid": 25762,
      "tags": {
        "amenity": "bar",
        "name": "Café del Mar"
      }
    },
    {
      "type": "node",
      "id": 586398299,
      "lat": 28.3999368,
      "lon": -13.8604784,
      "timestamp": "2009-12-11T11:54:15Z",
      "version": 1,
      "changeset": 3348386,
      "user": "porta",
      "uid": 137666,
      "tags": {
        "amenity": "pub",
        "name": "fr. Rock Cafe"
      }
    },
    {
      "type": "node",
      "id": 588146593,
      "lat": 28.3413355,
      "lon": -16.433594,
      "timestamp": "2009-12-12T23:16:39Z",
      "version": 1,
      "changeset": 3359411,
      "user": "ottokar55",
      "uid": 101355,
      "tags": {
        "amenity": "pub",
        "name": "Guachinche"
      }
    },
    {
      "type": "node",
      "id": 600548561,
      "lat": 28.4941374,
      "lon": -17.8452407,
      "timestamp": "2023-05-22T07:32:37Z",
      "version": 5,
      "changeset": 136398847,
      "user": "Wandern La Palma",
      "uid": 333510,
      "tags": {
        "amenity": "bar",
        "name": "Bar Parada",
        "wheelchair": "yes"
      }
    },
    {
      "type": "node",
      "id": 601605760,
      "lat": 28.1611362,
      "lon": -14.2308858,
      "timestamp": "2009-12-31T10:58:37Z",
      "version": 2,
      "changeset": 3499443,
      "user": "dk1ri",
      "uid": 49044,
      "tags": {
        "amenity": "pub",
        "name": "Trudes Hexenstübchen"
      }
    },
    {
      "type": "node",
      "id": 605048162,
      "lat": 28.9964145,
      "lon": -13.491645,
      "timestamp": "2010-01-04T23:29:56Z",
      "version": 1,
      "changeset": 3541926,
      "user": "mixxfixx",
      "uid": 79570,
      "tags": {
        "amenity": "pub"
      }
    },
    {
      "type": "node",
      "id": 605048165,
      "lat": 28.996865,
      "lon": -13.4909615,
      "timestamp": "2010-01-04T23:29:57Z",
      "version": 1,
      "changeset": 3541926,
      "user": "mixxfixx",
      "uid": 79570,
      "tags": {
        "amenity": "bar"
      }
    },
    {
      "type": "node",
      "id": 606173917,
      "lat": 28.9960083,
      "lon": -13.5004136,
      "timestamp": "2010-01-05T22:23:32Z",
      "version": 1,
      "changeset": 3549381,
      "user": "mixxfixx",
      "uid": 79570,
      "tags": {
        "amenity": "bar"
      }
    },
    {
      "type": "node",
      "id": 606954179,
      "lat": 28.9969208,
      "lon": -13.4900483,
      "timestamp": "2010-01-06T17:11:17Z",
      "version": 1,
      "changeset": 3555293,
      "user": "mixxfixx",
      "uid": 79570,
      "tags": {
        "amenity": "bar"
      }
    },
    {
      "type": "node",
      "id": 606954184,
      "lat": 28.9967519,
      "lon": -13.4887394,
      "timestamp": "2010-01-06T17:11:18Z",
      "version": 1,
      "changeset": 3555293,
      "user": "mixxfixx",
      "uid": 79570,
      "tags": {
        "amenity": "bar"
      }
    },
    {
      "type": "node",
      "id": 606955130,
      "lat": 28.9964329,
      "lon": -13.4886288,
      "timestamp": "2010-01-06T17:15:34Z",
      "version": 1,
      "changeset": 3555293,
      "user": "mixxfixx",
      "uid": 79570,
      "tags": {
        "amenity": "pub"
      }
    },
    {
      "type": "node",
      "id": 610327645,
      "lat": 28.1693798,
      "lon": -14.2231042,
      "timestamp": "2010-01-09T14:45:13Z",
      "version": 1,
      "changeset": 3578198,
      "user": "dk1ri",
      "uid": 49044,
      "tags": {
        "amenity": "pub",
        "name": "Bodega Don Paco"
      }
    },
    {
      "type": "node",
      "id": 613405475,
      "lat": 28.0497103,
      "lon": -14.3517378,
      "timestamp": "2025-06-03T15:58:45Z",
      "version": 3,
      "changeset": 167141986,
      "user": "ping32",
      "uid": 8307921,
      "tags": {
        "amenity": "bar",
        "cuisine": "regional",
        "name": "Janet",
        "opening_hours": "Mo-We, Sa, Su 12:00-01:00"
      }
    },
    {
      "type": "node",
      "id": 613452107,
      "lat": 28.0503781,
      "lon": -14.3527867,
      "timestamp": "2010-01-14T13:19:50Z",
      "version": 1,
      "changeset": 3616908,
      "user": "dk1ri",
      "uid": 49044,
      "tags": {
        "amenity": "pub",
        "name": "Pedro"
      }
    },
    {
      "type": "node",
      "id": 613479191,
      "lat": 28.0490473,
      "lon": -14.3415106,
      "timestamp": "2010-01-14T13:41:33Z",
      "version": 1,
      "changeset": 3617033,
      "user": "dk1ri",
      "uid": 49044,
      "tags": {
        "amenity": "bar",
        "name": "Bola 8"
      }
    },
    {
      "type": "node",
      "id": 613479196,
      "lat": 28.0493059,
      "lon": -14.3416373,
      "timestamp": "2010-01-14T13:41:33Z",
      "version": 1,
      "changeset": 3617033,
      "user": "dk1ri",
      "uid": 49044,
      "tags": {
        "amenity": "bar",
        "name": "Emilio"
      }
    },
    {
      "type": "node",
      "id": 613479217,
      "lat": 28.048927,
      "lon": -14.3384154,
      "timestamp": "2021-10-23T15:42:16Z",
      "version": 2,
      "changeset": 112879123,
      "user": "korni",
      "uid": 526156,
      "tags": {
        "amenity": "bar",
        "name": "Oasis"
      }
    },
    {
      "type": "node",
      "id": 614370210,
      "lat": 28.1591847,
      "lon": -14.2287647,
      "timestamp": "2011-11-27T21:19:43Z",
      "version": 3,
      "changeset": 9972197,
      "user": "dk1ri",
      "uid": 49044,
      "tags": {
        "amenity": "pub",
        "name": "Inselkeller"
      }
    },
    {
      "type": "node",
      "id": 620875763,
      "lat": 28.0959653,
      "lon": -17.3426822,
      "timestamp": "2015-02-07T21:18:10Z",
      "version": 3,
      "changeset": 28691209,
      "user": "Deaddy",
      "uid": 225188,
      "tags": {
        "amenity": "bar",
        "name": "Gekko-Bar"
      }
    },
    {
      "type": "node",
      "id": 661059501,
      "lat": 27.7777921,
      "lon": -15.525333,
      "timestamp": "2011-11-15T10:05:21Z",
      "version": 2,
      "changeset": 9833170,
      "user": "pfr",
      "uid": 40196,
      "tags": {
        "amenity": "bar",
        "name": "Coconut Snack Bar"
      }
    },
    {
      "type": "node",
      "id": 668627909,
      "lat": 28.3435403,
      "lon": -16.8767621,
      "timestamp": "2018-10-06T15:45:58Z",
      "version": 3,
      "changeset": 63260090,
      "user": "fntamap",
      "uid": 634460,
      "tags": {
        "amenity": "pub",
        "name": "Los Bailaderos",
        "outdoor_seating": "yes"
      }
    },
    {
      "type": "node",
      "id": 669636405,
      "lat": 27.9053019,
      "lon": -15.4447136,
      "timestamp": "2023-04-24T10:08:21Z",
      "version": 5,
      "changeset": 135294657,
      "user": "Ieronimus",
      "uid": 4685540,
      "tags": {
        "addr:housenumber": "82",
        "addr:street": "Calle del Progreso",
        "amenity": "bar",
        "check_date": "2023-04-24",
        "name": "Las Cuevas",
        "opening_hours": "Mo,We-Su 10:30-16:00,18:30-23:00; Tu off",
        "payment:mastercard": "yes",
        "payment:visa": "yes"
      }
    },
    {
      "type": "node",
      "id": 672548112,
      "lat": 28.0854957,
      "lon": -17.3365883,
      "timestamp": "2023-04-14T20:20:50Z",
      "version": 4,
      "changeset": 134920100,
      "user": "jmsbert",
      "uid": 3484277,
      "tags": {
        "amenity": "pub",
        "description": "bar, cocktails, lounge",
        "level": "-1",
        "name": "Bodegita del Medio",
        "opening_hours": "20:00-01:00"
      }
    },
    {
      "type": "node",
      "id": 672976897,
      "lat": 28.110022,
      "lon": -17.2820799,
      "timestamp": "2010-03-23T22:23:02Z",
      "version": 1,
      "changeset": 4216986,
      "user": "ulmtuelp",
      "uid": 120153,
      "tags": {
        "amenity": "pub",
        "name": "La Candela"
      }
    },
    {
      "type": "node",
      "id": 675995483,
      "lat": 28.1219258,
      "lon": -16.7741222,
      "timestamp": "2010-03-27T15:31:38Z",
      "version": 1,
      "changeset": 4247519,
      "user": "Tiramisu",
      "uid": 30579,
      "tags": {
        "amenity": "pub",
        "name": "Britannia Inn"
      }
    },
    {
      "type": "node",
      "id": 677411368,
      "lat": 28.862254,
      "lon": -13.8544184,
      "timestamp": "2025-07-18T17:14:08Z",
      "version": 8,
      "changeset": 169120034,
      "user": "aTarom",
      "uid": 5127355,
      "tags": {
        "addr:city": "Playa Blanca",
        "addr:postcode": "35580",
        "addr:street": "Calle Lanzarote",
        "amenity": "bar",
        "contact:facebook": "https://www.facebook.com/Hipotels/",
        "description": "Cocktail bar with sea views in Playa Blanca.",
        "name": "Marea Terraza Lounge Bar",
        "nohousenumber": "yes",
        "operator": "Hipotels",
        "outdoor_seating": "yes",
        "payment:cash": "yes",
        "payment:credit_cards": "yes",
        "payment:debit_cards": "yes",
        "payment:mastercard": "yes",
        "payment:visa": "yes",
        "phone": "928518842",
        "website": "https://info.hipotels.com/marea/index.html"
      }
    },
    {
      "type": "node",
      "id": 678916661,
      "lat": 28.5612932,
      "lon": -16.2170041,
      "timestamp": "2015-08-08T17:04:21Z",
      "version": 2,
      "changeset": 33204930,
      "user": "sim6",
      "uid": 129718,
      "tags": {
        "amenity": "pub",
        "name": "Bar AAVV Las Nieves"
      }
    },
    {
      "type": "node",
      "id": 679481044,
      "lat": 28.4151359,
      "lon": -16.5534657,
      "timestamp": "2024-11-12T10:12:26Z",
      "version": 4,
      "changeset": 159043375,
      "user": "tiger",
      "uid": 338866,
      "tags": {
        "amenity": "bar",
        "level": "-1",
        "name": "Walhalla"
      }
    },
    {
      "type": "node",
      "id": 687637344,
      "lat": 28.7658496,
      "lon": -17.9801071,
      "timestamp": "2023-01-24T12:09:52Z",
      "version": 8,
      "changeset": 131648784,
      "user": "PolarBergPotato",
      "uid": 10366459,
      "tags": {
        "addr:housenumber": "1",
        "addr:street": "Pino de la Virgen",
        "amenity": "pub",
        "name": "Barraca",
        "opening_hours": "Mo-Th 07:30-00:00; Fr 07:30-02:00; Sa 09:00-02:00; Su 16:00-23:00"
      }
    },
    {
      "type": "node",
      "id": 687642990,
      "lat": 28.7738834,
      "lon": -17.9782308,
      "timestamp": "2017-11-26T09:02:25Z",
      "version": 3,
      "changeset": 54089624,
      "user": "TheNet1996",
      "uid": 1853649,
      "tags": {
        "amenity": "pub",
        "name": "4 Caminos"
      }
    },
    {
      "type": "node",
      "id": 687681672,
      "lat": 28.7448278,
      "lon": -17.9685826,
      "timestamp": "2024-01-25T15:34:18Z",
      "version": 4,
      "changeset": 146678173,
      "user": "calli3756",
      "uid": 546812,
      "tags": {
        "amenity": "pub",
        "indoor_seating": "yes",
        "name": "Bar Garome",
        "outdoor_seating": "yes"
      }
    },
    {
      "type": "node",
      "id": 689484910,
      "lat": 28.7112728,
      "lon": -17.9561447,
      "timestamp": "2025-10-15T10:06:26Z",
      "version": 8,
      "changeset": 173312230,
      "user": "JaapD",
      "uid": 2135592,
      "tags": {
        "amenity": "pub",
        "check_date": "2025-10-15",
        "name": "Kiosco El Diablo"
      }
    },
    {
      "type": "node",
      "id": 695485274,
      "lat": 28.4314434,
      "lon": -13.9698199,
      "timestamp": "2010-04-13T16:08:13Z",
      "version": 1,
      "changeset": 4415173,
      "user": "Siegfried1988",
      "uid": 39544,
      "tags": {
        "amenity": "pub",
        "name": "Cafe"
      }
    },
    {
      "type": "node",
      "id": 697135573,
      "lat": 28.6603618,
      "lon": -17.9138555,
      "timestamp": "2024-02-12T23:18:08Z",
      "version": 6,
      "changeset": 147388121,
      "user": "alejandroacmo",
      "uid": 15610848,
      "tags": {
        "amenity": "biergarten",
        "cuisine": "churro",
        "name": "Churrería Isidro",
        "outdoor_seating": "yes"
      }
    },
    {
      "type": "node",
      "id": 697147023,
      "lat": 28.6587824,
      "lon": -17.9126702,
      "timestamp": "2025-10-03T20:07:43Z",
      "version": 6,
      "changeset": 172807710,
      "user": "JaapD",
      "uid": 2135592,
      "tags": {
        "amenity": "pub",
        "check_date": "2025-10-03",
        "name": "Kiosco Aridane",
        "wheelchair": "yes"
      }
    },
    {
      "type": "node",
      "id": 697337417,
      "lat": 28.9075787,
      "lon": -13.7337943,
      "timestamp": "2024-04-26T05:41:17Z",
      "version": 3,
      "changeset": 150521304,
      "user": "davidmguest",
      "uid": 4221879,
      "tags": {
        "amenity": "bar",
        "name": "7 Islas"
      }
    },
    {
      "type": "node",
      "id": 700390259,
      "lat": 28.682048,
      "lon": -17.7650628,
      "timestamp": "2025-10-19T10:23:16Z",
      "version": 4,
      "changeset": 173482896,
      "user": "Eleder",
      "uid": 21863161,
      "tags": {
        "amenity": "pub",
        "check_date:opening_hours": "2025-10-19",
        "name": "Sputnik",
        "opening_hours:signed": "no"
      }
    },
    {
      "type": "node",
      "id": 702681484,
      "lat": 28.6406774,
      "lon": -17.9338959,
      "timestamp": "2024-01-25T15:34:45Z",
      "version": 5,
      "changeset": 146678173,
      "user": "calli3756",
      "uid": 546812,
      "tags": {
        "addr:housenumber": "17",
        "addr:street": "Calle Progreso",
        "amenity": "pub",
        "indoor_seating": "yes",
        "name": "Bar Bagañete",
        "outdoor_seating": "yes",
        "wheelchair": "limited"
      }
    },
    {
      "type": "node",
      "id": 702746862,
      "lat": 28.644275,
      "lon": -17.9336574,
      "timestamp": "2024-01-25T15:34:01Z",
      "version": 4,
      "changeset": 146678173,
      "user": "calli3756",
      "uid": 546812,
      "tags": {
        "amenity": "pub",
        "indoor_seating": "yes",
        "name": "Bar La Vica",
        "outdoor_seating": "yes"
      }
    },
    {
      "type": "node",
      "id": 702921103,
      "lat": 28.6063135,
      "lon": -17.7781647,
      "timestamp": "2024-06-17T13:51:00Z",
      "version": 2,
      "changeset": 152804635,
      "user": "wheelmap_visitor",
      "uid": 290680,
      "tags": {
        "amenity": "pub",
        "name": "Bar La Calzada",
        "wheelchair": "limited"
      }
    },
    {
      "type": "node",
      "id": 703783036,
      "lat": 28.8296741,
      "lon": -17.9461272,
      "timestamp": "2024-08-30T12:57:44Z",
      "version": 4,
      "changeset": 155972998,
      "user": "blaukorn",
      "uid": 204986,
      "tags": {
        "amenity": "pub",
        "indoor_seating": "yes",
        "name": "Taberna Santi",
        "outdoor_seating": "yes"
      }
    },
    {
      "type": "node",
      "id": 704796736,
      "lat": 28.6782877,
      "lon": -17.9441088,
      "timestamp": "2024-08-10T06:46:08Z",
      "version": 7,
      "changeset": 155049128,
      "user": "blaukorn",
      "uid": 204986,
      "tags": {
        "amenity": "pub",
        "indoor_seating": "no",
        "name": "Autobar Fe y Alegría",
        "outdoor_seating": "yes"
      }
    },
    {
      "type": "node",
      "id": 706737761,
      "lat": 28.6596815,
      "lon": -17.9170131,
      "timestamp": "2023-09-08T18:16:20Z",
      "version": 3,
      "changeset": 140998063,
      "user": "alejandroacmo",
      "uid": 15610848,
      "tags": {
        "amenity": "pub",
        "name": "Bar Pol"
      }
    },
    {
      "type": "node",
      "id": 771664584,
      "lat": 28.225718,
      "lon": -16.8343185,
      "timestamp": "2014-09-06T06:53:18Z",
      "version": 2,
      "changeset": 25261580,
      "user": "tiger",
      "uid": 338866,
      "tags": {
        "amenity": "bar",
        "name": "Berto"
      }
    },
    {
      "type": "node",
      "id": 793710703,
      "lat": 28.4162688,
      "lon": -16.5507305,
      "timestamp": "2022-09-23T18:29:00Z",
      "version": 10,
      "changeset": 126559504,
      "user": "wheelmap_visitor",
      "uid": 290680,
      "tags": {
        "amenity": "bar",
        "name": "Compostelana Club Café",
        "opening_hours": "Mo-Su 09:00-01:00",
        "toilets:wheelchair": "yes",
        "website": "https://grupocompostelana.com/restaurantes/compostelana-club-cafe/",
        "wheelchair": "limited"
      }
    },
    {
      "type": "node",
      "id": 834802020,
      "lat": 27.9107575,
      "lon": -15.5404791,
      "timestamp": "2025-02-27T11:08:21Z",
      "version": 6,
      "changeset": 163007556,
      "user": "Nordpfeil",
      "uid": 1337142,
      "tags": {
        "addr:housenumber": "38",
        "addr:street": "Calle Juan de Rio Ayala",
        "amenity": "bar",
        "check_date": "2025-02-27",
        "name": "El Guata",
        "opening_hours": "Mo-Tu off; We-Th,Su 08:00-21:00; Fr-Sa 08:00-23:00",
        "payment:cards": "no",
        "payment:credit_cards": "no",
        "payment:debit_cards": "no"
      }
    },
    {
      "type": "node",
      "id": 886087764,
      "lat": 28.4118702,
      "lon": -16.556793,
      "timestamp": "2018-11-16T16:26:56Z",
      "version": 4,
      "changeset": 64573252,
      "user": "•Klappspaten•",
      "uid": 4023569,
      "tags": {
        "amenity": "bar",
        "name": "Stallones",
        "name:de": "Magic Corner",
        "name:en": "Magic Corner",
        "name:es": "Magic Corner"
      }
    },
    {
      "type": "node",
      "id": 886087946,
      "lat": 28.4168916,
      "lon": -16.5460071,
      "timestamp": "2011-12-11T11:31:37Z",
      "version": 2,
      "changeset": 10088601,
      "user": "hwm",
      "uid": 82873,
      "tags": {
        "amenity": "bar",
        "name": "La Muralla"
      }
    },
    {
      "type": "node",
      "id": 886087954,
      "lat": 28.4167622,
      "lon": -16.5452749,
      "timestamp": "2010-08-29T13:24:49Z",
      "version": 1,
      "changeset": 5625714,
      "user": "tiger",
      "uid": 338866,
      "tags": {
        "amenity": "bar",
        "name": "Cellino"
      }
    },
    {
      "type": "node",
      "id": 886088049,
      "lat": 28.4168574,
      "lon": -16.5465412,
      "timestamp": "2010-08-29T13:24:51Z",
      "version": 1,
      "changeset": 5625714,
      "user": "tiger",
      "uid": 338866,
      "tags": {
        "amenity": "bar",
        "name": "Enlame"
      }
    },
    {
      "type": "node",
      "id": 886088078,
      "lat": 28.4131078,
      "lon": -16.5570407,
      "timestamp": "2010-08-29T13:24:51Z",
      "version": 1,
      "changeset": 5625714,
      "user": "tiger",
      "uid": 338866,
      "tags": {
        "amenity": "bar",
        "name": "Jamaica"
      }
    },
    {
      "type": "node",
      "id": 886088596,
      "lat": 28.4167726,
      "lon": -16.5463872,
      "timestamp": "2011-12-11T11:31:37Z",
      "version": 3,
      "changeset": 10088601,
      "user": "hwm",
      "uid": 82873,
      "tags": {
        "amenity": "pub",
        "name": "Penny"
      }
    },
    {
      "type": "node",
      "id": 886089201,
      "lat": 28.4137646,
      "lon": -16.5566425,
      "timestamp": "2011-01-11T17:24:17Z",
      "version": 3,
      "changeset": 6939111,
      "user": "tiger",
      "uid": 338866,
      "tags": {
        "amenity": "bar",
        "name": "Same 1"
      }
    },
    {
      "type": "node",
      "id": 886089350,
      "lat": 28.4167053,
      "lon": -16.5465424,
      "timestamp": "2011-12-11T11:15:20Z",
      "version": 2,
      "changeset": 10088471,
      "user": "hwm",
      "uid": 82873,
      "tags": {
        "amenity": "bar",
        "name": "Tambora"
      }
    },
    {
      "type": "node",
      "id": 886089411,
      "lat": 28.4125977,
      "lon": -16.5556396,
      "timestamp": "2010-08-29T13:25:25Z",
      "version": 1,
      "changeset": 5625714,
      "user": "tiger",
      "uid": 338866,
      "tags": {
        "amenity": "bar",
        "name": "Seguro del Sol"
      }
    },
    {
      "type": "node",
      "id": 886089513,
      "lat": 28.4143678,
      "lon": -16.5521244,
      "timestamp": "2024-11-12T10:12:26Z",
      "version": 4,
      "changeset": 159043375,
      "user": "tiger",
      "uid": 338866,
      "tags": {
        "amenity": "bar",
        "name": "Magec Kopas"
      }
    },
    {
      "type": "node",
      "id": 886089637,
      "lat": 28.4149442,
      "lon": -16.5474903,
      "timestamp": "2025-10-10T07:22:24Z",
      "version": 5,
      "changeset": 173079968,
      "user": "kapazao_import",
      "uid": 8770019,
      "tags": {
        "addr:city": "Puerto de la Cruz",
        "addr:housename": "Belair",
        "addr:postcode": "38400",
        "addr:street": "Calle Valois",
        "amenity": "pub",
        "name": "Nuevo Robin Hood",
        "name:en": "The New Robin Hood"
      }
    },
    {
      "type": "node",
      "id": 886089660,
      "lat": 28.4137334,
      "lon": -16.539104,
      "timestamp": "2011-12-16T17:27:00Z",
      "version": 2,
      "changeset": 10132572,
      "user": "hwm",
      "uid": 82873,
      "tags": {
        "amenity": "pub",
        "name": "Garapa"
      }
    },
    {
      "type": "node",
      "id": 886089753,
      "lat": 28.4161222,
      "lon": -16.545961,
      "timestamp": "2010-08-29T13:25:34Z",
      "version": 1,
      "changeset": 5625714,
      "user": "tiger",
      "uid": 338866,
      "tags": {
        "amenity": "bar",
        "name": "Yuss"
      }
    },
    {
      "type": "node",
      "id": 886089811,
      "lat": 28.4169353,
      "lon": -16.5463108,
      "timestamp": "2010-08-29T13:25:36Z",
      "version": 1,
      "changeset": 5625714,
      "user": "tiger",
      "uid": 338866,
      "tags": {
        "amenity": "pub",
        "name": "El Güiro"
      }
    },
    {
      "type": "node",
      "id": 886089869,
      "lat": 28.4162575,
      "lon": -16.5451906,
      "timestamp": "2023-01-31T06:49:59Z",
      "version": 5,
      "changeset": 131907324,
      "user": "aboralex",
      "uid": 10876466,
      "tags": {
        "addr:city": "Puerto de la Cruz",
        "addr:housenumber": "15",
        "addr:postcode": "38400",
        "addr:street": "Avenida de la Familia Betancourt y Molina",
        "amenity": "bar",
        "brewery": "Dorada",
        "description": "Gay Bar",
        "email": "info@bar-habasko.es",
        "image": "https://www.bar-habasko.es/wp-content/uploads/2019/11/cropped-BarHabaskoHeader-1.png",
        "internet_access": "wlan",
        "internet_access:fee": "no",
        "level": "0",
        "min_age": "18",
        "name": "Bar Habasko - The hidden Bar",
        "opening_hours": "Mo-Sa 17:00-00:00",
        "outdoor_seating": "yes",
        "payment:american_express": "yes",
        "payment:cash": "yes",
        "payment:contactless": "yes",
        "payment:credit_cards": "yes",
        "phone": "+34 692 373 119",
        "smoking": "outside",
        "source": "local knowledge",
        "start_date": "1978",
        "website": "https://www.bar-habasko.es"
      }
    },
    {
      "type": "node",
      "id": 886089909,
      "lat": 28.4157345,
      "lon": -16.5529627,
      "timestamp": "2011-12-10T20:35:41Z",
      "version": 3,
      "changeset": 10084664,
      "user": "hwm",
      "uid": 82873,
      "tags": {
        "amenity": "bar",
        "name": "El Drago"
      }
    },
    {
      "type": "node",
      "id": 886089923,
      "lat": 28.4119853,
      "lon": -16.5569191,
      "timestamp": "2011-12-10T21:18:19Z",
      "version": 3,
      "changeset": 10085011,
      "user": "hwm",
      "uid": 82873,
      "tags": {
        "amenity": "bar",
        "name": "Same II"
      }
    },
    {
      "type": "node",
      "id": 886090052,
      "lat": 28.4119271,
      "lon": -16.5569328,
      "timestamp": "2011-12-10T21:18:18Z",
      "version": 3,
      "changeset": 10085011,
      "user": "hwm",
      "uid": 82873,
      "tags": {
        "amenity": "bar",
        "name": "Kari"
      }
    },
    {
      "type": "node",
      "id": 886090153,
      "lat": 28.4152329,
      "lon": -16.5458474,
      "timestamp": "2024-11-29T08:47:50Z",
      "version": 8,
      "changeset": 159732020,
      "user": "tiger",
      "uid": 338866,
      "tags": {
        "amenity": "pub",
        "name": "DegustaMe"
      }
    },
    {
      "type": "node",
      "id": 886090236,
      "lat": 28.4168729,
      "lon": -16.5464929,
      "timestamp": "2010-08-29T13:25:49Z",
      "version": 1,
      "changeset": 5625714,
      "user": "tiger",
      "uid": 338866,
      "tags": {
        "amenity": "pub",
        "name": "La Colmena"
      }
    },
    {
      "type": "node",
      "id": 886090354,
      "lat": 28.4162585,
      "lon": -16.5459436,
      "timestamp": "2011-12-11T11:31:37Z",
      "version": 2,
      "changeset": 10088601,
      "user": "hwm",
      "uid": 82873,
      "tags": {
        "amenity": "bar",
        "name": "Onesimo"
      }
    },
    {
      "type": "node",
      "id": 886103097,
      "lat": 28.4139064,
      "lon": -16.5530295,
      "timestamp": "2013-11-02T21:21:30Z",
      "version": 2,
      "changeset": 18683176,
      "user": "tiger",
      "uid": 338866,
      "tags": {
        "amenity": "bar",
        "name": "Kefran"
      }
    },
    {
      "type": "node",
      "id": 886103121,
      "lat": 28.4163976,
      "lon": -16.5431069,
      "timestamp": "2010-08-29T13:34:56Z",
      "version": 1,
      "changeset": 5625803,
      "user": "tiger",
      "uid": 338866,
      "tags": {
        "amenity": "bar",
        "name": "Terraza Alta",
        "source": "survey"
      }
    },
    {
      "type": "node",
      "id": 886103168,
      "lat": 28.4175932,
      "lon": -16.5530787,
      "timestamp": "2023-08-30T03:19:39Z",
      "version": 4,
      "changeset": 140566669,
      "user": "FelipeTFN",
      "uid": 258029,
      "tags": {
        "amenity": "bar",
        "internet_access": "wlan",
        "name": "Elements",
        "opening_hours": "We-Sa 19:00-01:00",
        "source": "survey"
      }
    },
    {
      "type": "node",
      "id": 886103242,
      "lat": 28.4134008,
      "lon": -16.5554668,
      "timestamp": "2024-02-20T14:13:41Z",
      "version": 5,
      "changeset": 147694290,
      "user": "michael_ua",
      "uid": 8244084,
      "tags": {
        "amenity": "bar",
        "name": "Reilupeli"
      }
    },
    {
      "type": "node",
      "id": 886103250,
      "lat": 28.4147873,
      "lon": -16.538973,
      "timestamp": "2016-01-14T10:07:40Z",
      "version": 3,
      "changeset": 36566743,
      "user": "FelipeTFN",
      "uid": 258029,
      "tags": {
        "amenity": "bar",
        "name": "Pepito"
      }
    },
    {
      "type": "node",
      "id": 886103293,
      "lat": 28.4132148,
      "lon": -16.5417657,
      "timestamp": "2014-07-12T11:02:23Z",
      "version": 4,
      "changeset": 24098547,
      "user": "tiger",
      "uid": 338866,
      "tags": {
        "amenity": "pub",
        "name": "Lava"
      }
    },
    {
      "type": "node",
      "id": 899295894,
      "lat": 28.4708961,
      "lon": -16.2474974,
      "timestamp": "2025-04-17T13:25:00Z",
      "version": 3,
      "changeset": 165072010,
      "user": "Ernb",
      "uid": 21102190,
      "tags": {
        "amenity": "pub",
        "entertainment": "karaoke",
        "name": "Anaga 15",
        "source": "survey"
      }
    },
    {
      "type": "node",
      "id": 901085824,
      "lat": 28.4049976,
      "lon": -16.5215117,
      "timestamp": "2013-11-27T13:07:08Z",
      "version": 2,
      "changeset": 19143801,
      "user": "tiger",
      "uid": 338866,
      "tags": {
        "amenity": "bar",
        "name": "Los Rechazos"
      }
    },
    {
      "type": "node",
      "id": 901085903,
      "lat": 28.0451885,
      "lon": -16.5371096,
      "timestamp": "2024-12-17T16:52:31Z",
      "version": 4,
      "changeset": 160310449,
      "user": "Danysan95",
      "uid": 4425563,
      "tags": {
        "addr:housenumber": "5",
        "addr:street": "Calle Granadilla",
        "amenity": "bar",
        "check_date": "2024-12-16",
        "name": "La Estación",
        "opening_hours": "Mo-Th 08:30-23:00; Fr-Su 08:30-23:30"
      }
    },
    {
      "type": "node",
      "id": 903036629,
      "lat": 28.2704756,
      "lon": -16.8172135,
      "timestamp": "2012-12-16T14:08:57Z",
      "version": 2,
      "changeset": 14293240,
      "user": "tiger",
      "uid": 338866,
      "tags": {
        "amenity": "bar",
        "name": "Mencey"
      }
    },
    {
      "type": "node",
      "id": 903036660,
      "lat": 28.3974755,
      "lon": -16.5780469,
      "timestamp": "2012-01-01T11:33:17Z",
      "version": 3,
      "changeset": 10260467,
      "user": "RockiBln",
      "uid": 576870,
      "tags": {
        "amenity": "bar",
        "name": "La Barca"
      }
    },
    {
      "type": "node",
      "id": 903036739,
      "lat": 28.0720341,
      "lon": -16.5562667,
      "timestamp": "2011-02-14T23:41:15Z",
      "version": 2,
      "changeset": 7290925,
      "user": "ottokar55",
      "uid": 101355,
      "tags": {
        "amenity": "bar",
        "name": "Teide II"
      }
    },
    {
      "type": "node",
      "id": 903036789,
      "lat": 28.4147784,
      "lon": -16.5380933,
      "timestamp": "2016-01-14T09:58:44Z",
      "version": 2,
      "changeset": 36566593,
      "user": "FelipeTFN",
      "uid": 258029,
      "tags": {
        "amenity": "bar",
        "name": "Cervecería City"
      }
    },
    {
      "type": "node",
      "id": 903036815,
      "lat": 28.3696789,
      "lon": -16.8531294,
      "timestamp": "2019-08-08T07:45:50Z",
      "version": 3,
      "changeset": 73140390,
      "user": "EfrainGeo",
      "uid": 1653594,
      "tags": {
        "amenity": "bar",
        "name": "Triana"
      }
    },
    {
      "type": "node",
      "id": 903036850,
      "lat": 28.5141664,
      "lon": -16.304676,
      "timestamp": "2010-09-08T17:08:57Z",
      "version": 1,
      "changeset": 5725903,
      "user": "tiger",
      "uid": 338866,
      "tags": {
        "amenity": "bar",
        "name": "Isaac"
      }
    },
    {
      "type": "node",
      "id": 903036862,
      "lat": 28.5694629,
      "lon": -16.2042848,
      "timestamp": "2016-12-25T17:38:51Z",
      "version": 2,
      "changeset": 44665395,
      "user": "Waldis",
      "uid": 4703286,
      "tags": {
        "amenity": "bar",
        "name": "Casa Africa",
        "name:lv": "Zivis"
      }
    },
    {
      "type": "node",
      "id": 903036922,
      "lat": 28.4092654,
      "lon": -16.5667987,
      "timestamp": "2010-09-08T17:08:58Z",
      "version": 1,
      "changeset": 5725903,
      "user": "tiger",
      "uid": 338866,
      "tags": {
        "amenity": "bar",
        "name": "Punta Brava"
      }
    },
    {
      "type": "node",
      "id": 903036988,
      "lat": 28.4151111,
      "lon": -16.5381994,
      "timestamp": "2018-07-30T15:35:15Z",
      "version": 5,
      "changeset": 61199696,
      "user": "Marion_Moseby",
      "uid": 5379200,
      "tags": {
        "amenity": "pub",
        "brewery": "Krombacher",
        "description": "good beer - cheap food",
        "name": "Bei Thomas"
      }
    },
    {
      "type": "node",
      "id": 903037049,
      "lat": 28.3622915,
      "lon": -16.7178359,
      "timestamp": "2010-09-08T17:09:00Z",
      "version": 1,
      "changeset": 5725903,
      "user": "tiger",
      "uid": 338866,
      "tags": {
        "amenity": "bar",
        "name": "Amazona"
      }
    },
    {
      "type": "node",
      "id": 903037054,
      "lat": 28.327136,
      "lon": -16.8446498,
      "timestamp": "2010-09-08T17:09:00Z",
      "version": 1,
      "changeset": 5725903,
      "user": "tiger",
      "uid": 338866,
      "tags": {
        "amenity": "bar",
        "name": "El Cruce"
      }
    },
    {
      "type": "node",
      "id": 903037104,
      "lat": 28.4560962,
      "lon": -16.3614859,
      "timestamp": "2010-09-08T17:09:01Z",
      "version": 1,
      "changeset": 5725903,
      "user": "tiger",
      "uid": 338866,
      "tags": {
        "amenity": "bar",
        "name": "San José"
      }
    },
    {
      "type": "node",
      "id": 903037112,
      "lat": 28.3921778,
      "lon": -16.5218857,
      "timestamp": "2010-09-08T17:09:01Z",
      "version": 1,
      "changeset": 5725903,
      "user": "tiger",
      "uid": 338866,
      "tags": {
        "amenity": "bar",
        "name": "Los Chicos del Valle"
      }
    },
    {
      "type": "node",
      "id": 903037141,
      "lat": 28.4864391,
      "lon": -16.2371588,
      "timestamp": "2011-02-12T23:45:50Z",
      "version": 2,
      "changeset": 7270851,
      "user": "ottokar55",
      "uid": 101355,
      "tags": {
        "addr:housenumber": "3",
        "amenity": "bar",
        "name": "Oasis"
      }
    },
    {
      "type": "node",
      "id": 903037216,
      "lat": 28.4757785,
      "lon": -16.4168292,
      "timestamp": "2010-09-08T17:09:03Z",
      "version": 1,
      "changeset": 5725903,
      "user": "tiger",
      "uid": 338866,
      "tags": {
        "amenity": "bar",
        "name": "Tacoronte"
      }
    },
    {
      "type": "node",
      "id": 903037264,
      "lat": 28.3801254,
      "lon": -16.6929259,
      "timestamp": "2010-09-08T17:09:04Z",
      "version": 1,
      "changeset": 5725903,
      "user": "tiger",
      "uid": 338866,
      "tags": {
        "amenity": "bar",
        "name": "Lucia",
        "source": "survey"
      }
    },
    {
      "type": "node",
      "id": 903037281,
      "lat": 28.5167159,
      "lon": -16.3628376,
      "timestamp": "2010-09-08T17:09:04Z",
      "version": 1,
      "changeset": 5725903,
      "user": "tiger",
      "uid": 338866,
      "tags": {
        "amenity": "bar",
        "name": "Chavique"
      }
    },
    {
      "type": "node",
      "id": 903037396,
      "lat": 28.4121657,
      "lon": -16.5369356,
      "timestamp": "2011-12-16T16:14:02Z",
      "version": 3,
      "changeset": 10132037,
      "user": "hwm",
      "uid": 82873,
      "tags": {
        "amenity": "bar",
        "name": "Meme"
      }
    },
    {
      "type": "node",
      "id": 903037419,
      "lat": 28.2970645,
      "lon": -16.816072,
      "timestamp": "2015-08-05T21:22:33Z",
      "version": 3,
      "changeset": 33141323,
      "user": "Javier Sanchez",
      "uid": 47882,
      "tags": {
        "amenity": "bar",
        "name": "Soto"
      }
    },
    {
      "type": "node",
      "id": 903037458,
      "lat": 28.2118509,
      "lon": -16.7812568,
      "timestamp": "2018-07-07T18:13:38Z",
      "version": 3,
      "changeset": 60494469,
      "user": "elpata33",
      "uid": 4774483,
      "tags": {
        "amenity": "bar",
        "name": "Parada"
      }
    },
    {
      "type": "node",
      "id": 903037485,
      "lat": 28.2253437,
      "lon": -16.7880372,
      "timestamp": "2012-06-16T08:27:22Z",
      "version": 2,
      "changeset": 11911545,
      "user": "tiger",
      "uid": 338866,
      "tags": {
        "amenity": "bar",
        "name": "El Junquito"
      }
    },
    {
      "type": "node",
      "id": 903037525,
      "lat": 28.3920094,
      "lon": -16.6240524,
      "timestamp": "2014-07-14T13:38:24Z",
      "version": 2,
      "changeset": 24140920,
      "user": "tiger",
      "uid": 338866,
      "tags": {
        "amenity": "bar",
        "name": "Los Camioneros"
      }
    },
    {
      "type": "node",
      "id": 903037577,
      "lat": 28.3932511,
      "lon": -16.5923806,
      "timestamp": "2010-09-08T17:09:09Z",
      "version": 1,
      "changeset": 5725903,
      "user": "tiger",
      "uid": 338866,
      "tags": {
        "amenity": "bar",
        "name": "Casa Celso"
      }
    },
    {
      "type": "node",
      "id": 903037586,
      "lat": 28.367695,
      "lon": -16.7210159,
      "timestamp": "2025-10-10T14:33:00Z",
      "version": 4,
      "changeset": 173098060,
      "user": "DBSIdF4",
      "uid": 15776512,
      "tags": {
        "amenity": "bar",
        "check_date": "2025-10-10",
        "check_date:opening_hours": "2025-10-10",
        "name": "Arepas",
        "opening_hours": "Mo,We,Th 12:00-16:00,19:00-22:00; Fr,Sa 12:00-16:00,19:00-23:00; Su 19:00-22:00"
      }
    },
    {
      "type": "node",
      "id": 903037713,
      "lat": 28.2973357,
      "lon": -16.816215,
      "timestamp": "2015-08-05T21:22:33Z",
      "version": 3,
      "changeset": 33141323,
      "user": "Javier Sanchez",
      "uid": 47882,
      "tags": {
        "amenity": "bar",
        "name": "Parada"
      }
    },
    {
      "type": "node",
      "id": 903037765,
      "lat": 28.5226321,
      "lon": -16.342307,
      "timestamp": "2017-05-30T23:32:52Z",
      "version": 3,
      "changeset": 49118209,
      "user": "Javier Sanchez",
      "uid": 47882,
      "tags": {
        "amenity": "bar",
        "name": "Hortensia"
      }
    },
    {
      "type": "node",
      "id": 903037827,
      "lat": 28.3635981,
      "lon": -16.8454998,
      "timestamp": "2016-11-11T10:13:58Z",
      "version": 2,
      "changeset": 43555562,
      "user": "catastro_santa_cruz_de_tenerife",
      "uid": 617065,
      "tags": {
        "amenity": "bar",
        "name": "Clavelito"
      }
    },
    {
      "type": "node",
      "id": 903037838,
      "lat": 28.4864864,
      "lon": -16.4105861,
      "timestamp": "2014-07-21T09:02:11Z",
      "version": 2,
      "changeset": 24268689,
      "user": "tiger",
      "uid": 338866,
      "tags": {
        "amenity": "bar",
        "name": "Parilla Tacoronte",
        "source": "survey"
      }
    },
    {
      "type": "node",
      "id": 903037862,
      "lat": 28.3929927,
      "lon": -16.5899687,
      "timestamp": "2017-12-12T18:57:22Z",
      "version": 2,
      "changeset": 54574821,
      "user": "mahau",
      "uid": 160164,
      "tags": {
        "amenity": "pub",
        "name": "Paranda"
      }
    },
    {
      "type": "node",
      "id": 903037868,
      "lat": 28.0997485,
      "lon": -16.6161284,
      "timestamp": "2010-09-08T17:09:14Z",
      "version": 1,
      "changeset": 5725903,
      "user": "tiger",
      "uid": 338866,
      "tags": {
        "amenity": "bar",
        "name": "Los Amigos"
      }
    },
    {
      "type": "node",
      "id": 903037873,
      "lat": 28.4783876,
      "lon": -16.243968,
      "timestamp": "2013-12-28T20:47:27Z",
      "version": 3,
      "changeset": 19686194,
      "user": "dromedar61",
      "uid": 542047,
      "tags": {
        "amenity": "bar",
        "name": "La Manigua"
      }
    },
    {
      "type": "node",
      "id": 903037881,
      "lat": 28.4767049,
      "lon": -16.415157,
      "timestamp": "2011-06-24T16:42:33Z",
      "version": 2,
      "changeset": 8534732,
      "user": "tiger",
      "uid": 338866,
      "tags": {
        "amenity": "bar",
        "name": "El Tranvia"
      }
    },
    {
      "type": "node",
      "id": 903037884,
      "lat": 28.071601,
      "lon": -16.5561308,
      "timestamp": "2011-01-23T20:04:21Z",
      "version": 3,
      "changeset": 7066556,
      "user": "tiger",
      "uid": 338866,
      "tags": {
        "amenity": "bar",
        "name": "En Familia"
      }
    },
    {
      "type": "node",
      "id": 903037909,
      "lat": 28.0997727,
      "lon": -16.616037,
      "timestamp": "2010-09-08T17:09:15Z",
      "version": 1,
      "changeset": 5725903,
      "user": "tiger",
      "uid": 338866,
      "tags": {
        "amenity": "bar",
        "name": "Majuelo"
      }
    },
    {
      "type": "node",
      "id": 903038017,
      "lat": 28.366713,
      "lon": -16.8305289,
      "timestamp": "2011-05-09T13:32:48Z",
      "version": 3,
      "changeset": 8092889,
      "user": "tiger",
      "uid": 338866,
      "tags": {
        "amenity": "bar",
        "name": "San Bernardo"
      }
    },
    {
      "type": "node",
      "id": 903038064,
      "lat": 28.355649,
      "lon": -16.715039,
      "timestamp": "2010-09-08T17:09:18Z",
      "version": 1,
      "changeset": 5725903,
      "user": "tiger",
      "uid": 338866,
      "tags": {
        "amenity": "bar",
        "name": "La Churuata"
      }
    },
    {
      "type": "node",
      "id": 903038079,
      "lat": 28.3780691,
      "lon": -16.7231631,
      "timestamp": "2019-01-20T11:52:54Z",
      "version": 4,
      "changeset": 66473229,
      "user": "Le Chuck",
      "uid": 384983,
      "tags": {
        "amenity": "bar",
        "name": "Brisamar"
      }
    },
    {
      "type": "node",
      "id": 903038163,
      "lat": 28.1633203,
      "lon": -16.4326414,
      "timestamp": "2010-09-08T17:09:19Z",
      "version": 1,
      "changeset": 5725903,
      "user": "tiger",
      "uid": 338866,
      "tags": {
        "amenity": "bar",
        "name": "Lucy"
      }
    },
    {
      "type": "node",
      "id": 903038196,
      "lat": 28.5221271,
      "lon": -16.3497119,
      "timestamp": "2010-09-08T17:09:19Z",
      "version": 1,
      "changeset": 5725903,
      "user": "tiger",
      "uid": 338866,
      "tags": {
        "amenity": "bar",
        "name": "Tamarco"
      }
    },
    {
      "type": "node",
      "id": 903038212,
      "lat": 28.5133832,
      "lon": -16.3059722,
      "timestamp": "2018-03-05T14:23:28Z",
      "version": 3,
      "changeset": 56905255,
      "user": "Javier Sanchez",
      "uid": 47882,
      "tags": {
        "amenity": "pub",
        "name": "Rincon de Anaga"
      }
    },
    {
      "type": "node",
      "id": 903038336,
      "lat": 28.271173,
      "lon": -16.8184843,
      "timestamp": "2012-06-08T14:57:17Z",
      "version": 2,
      "changeset": 11835811,
      "user": "tiger",
      "uid": 338866,
      "tags": {
        "amenity": "bar",
        "name": "Palmero"
      }
    },
    {
      "type": "node",
      "id": 903038384,
      "lat": 28.5155937,
      "lon": -16.3621318,
      "timestamp": "2012-06-04T14:04:22Z",
      "version": 2,
      "changeset": 11796945,
      "user": "tiger",
      "uid": 338866,
      "tags": {
        "amenity": "bar",
        "name": "Sr. José"
      }
    },
    {
      "type": "node",
      "id": 903038402,
      "lat": 28.3910885,
      "lon": -16.5803642,
      "timestamp": "2018-04-30T12:58:22Z",
      "version": 3,
      "changeset": 58554341,
      "user": "Javier Sanchez",
      "uid": 47882,
      "tags": {
        "amenity": "pub",
        "cuisine": "pizza",
        "name": "El Eolio"
      }
    },
    {
      "type": "node",
      "id": 903038487,
      "lat": 28.2699161,
      "lon": -16.819357,
      "timestamp": "2015-10-13T17:39:00Z",
      "version": 4,
      "changeset": 34617620,
      "user": "catastro_santa_cruz_de_tenerife",
      "uid": 617065,
      "tags": {
        "amenity": "bar",
        "name": "Tenerife",
        "wheelchair": "yes"
      }
    },
    {
      "type": "node",
      "id": 903038526,
      "lat": 28.2956525,
      "lon": -16.8153185,
      "timestamp": "2015-08-24T11:07:39Z",
      "version": 4,
      "changeset": 33543574,
      "user": "Javier Sanchez",
      "uid": 47882,
      "tags": {
        "amenity": "bar",
        "name": "El Cafe",
        "outdoor_seating": "yes"
      }
    },
    {
      "type": "node",
      "id": 903038572,
      "lat": 28.5371596,
      "lon": -16.2340057,
      "timestamp": "2012-10-22T00:24:51Z",
      "version": 2,
      "changeset": 13587292,
      "user": "Javier Sanchez",
      "uid": 47882,
      "tags": {
        "amenity": "bar",
        "name": "Casa Domingo"
      }
    },
    {
      "type": "node",
      "id": 903038668,
      "lat": 28.4457816,
      "lon": -16.3670217,
      "timestamp": "2018-01-24T21:58:08Z",
      "version": 3,
      "changeset": 55725524,
      "user": "Javier Sanchez",
      "uid": 47882,
      "tags": {
        "amenity": "bar",
        "contact:phone": "696592454; 687663726",
        "name": "El Guanche",
        "opening_hours": "Th off"
      }
    },
    {
      "type": "node",
      "id": 903038703,
      "lat": 28.3677394,
      "lon": -16.7209045,
      "timestamp": "2024-12-18T13:56:16Z",
      "version": 3,
      "changeset": 160352564,
      "user": "Danysan95",
      "uid": 4425563,
      "tags": {
        "amenity": "pub",
        "check_date": "2024-12-18",
        "name": "La Posada del Drago"
      }
    },
    {
      "type": "node",
      "id": 903038711,
      "lat": 28.3919462,
      "lon": -16.5209007,
      "timestamp": "2010-09-08T17:09:27Z",
      "version": 1,
      "changeset": 5725903,
      "user": "tiger",
      "uid": 338866,
      "tags": {
        "amenity": "bar",
        "name": "Tenderte"
      }
    },
    {
      "type": "node",
      "id": 903038871,
      "lat": 28.378575,
      "lon": -16.6956523,
      "timestamp": "2014-06-05T12:30:21Z",
      "version": 3,
      "changeset": 22755007,
      "user": "jofepp",
      "uid": 2107938,
      "tags": {
        "amenity": "bar",
        "name": "La Diana"
      }
    },
    {
      "type": "node",
      "id": 903038920,
      "lat": 28.326729,
      "lon": -16.8059647,
      "timestamp": "2013-09-23T20:48:06Z",
      "version": 2,
      "changeset": 17998618,
      "user": "Javier Sanchez",
      "uid": 47882,
      "tags": {
        "amenity": "bar",
        "name": "Abreu"
      }
    },
    {
      "type": "node",
      "id": 903038945,
      "lat": 28.3971221,
      "lon": -16.5375082,
      "timestamp": "2010-09-08T17:09:30Z",
      "version": 1,
      "changeset": 5725903,
      "user": "tiger",
      "uid": 338866,
      "tags": {
        "amenity": "bar",
        "name": "Mi Niño",
        "source": "survey"
      }
    },
    {
      "type": "node",
      "id": 903039012,
      "lat": 28.4802463,
      "lon": -16.4122117,
      "timestamp": "2011-02-17T16:35:49Z",
      "version": 2,
      "changeset": 7314774,
      "user": "tiger",
      "uid": 338866,
      "tags": {
        "amenity": "bar",
        "name": "Suso"
      }
    },
    {
      "type": "node",
      "id": 903039294,
      "lat": 28.3628848,
      "lon": -16.3711569,
      "timestamp": "2010-09-08T17:09:38Z",
      "version": 1,
      "changeset": 5725903,
      "user": "tiger",
      "uid": 338866,
      "tags": {
        "amenity": "bar",
        "name": "El Pulpo"
      }
    },
    {
      "type": "node",
      "id": 903039315,
      "lat": 28.4122108,
      "lon": -16.5369774,
      "timestamp": "2018-07-28T21:02:40Z",
      "version": 3,
      "changeset": 61151674,
      "user": "Marion_Moseby",
      "uid": 5379200,
      "tags": {
        "amenity": "bar",
        "name": "Algarrobo"
      }
    },
    {
      "type": "node",
      "id": 903039322,
      "lat": 28.3903913,
      "lon": -16.6623305,
      "timestamp": "2012-10-21T16:02:41Z",
      "version": 2,
      "changeset": 13581274,
      "user": "tiger",
      "uid": 338866,
      "tags": {
        "amenity": "bar",
        "name": "Tinguaro"
      }
    },
    {
      "type": "node",
      "id": 903039435,
      "lat": 28.480703,
      "lon": -16.412447,
      "timestamp": "2010-09-08T17:09:41Z",
      "version": 1,
      "changeset": 5725903,
      "user": "tiger",
      "uid": 338866,
      "tags": {
        "amenity": "bar",
        "name": "La Botica"
      }
    },
    {
      "type": "node",
      "id": 903039464,
      "lat": 28.4090088,
      "lon": -16.5671789,
      "timestamp": "2012-02-21T22:38:24Z",
      "version": 2,
      "changeset": 10754754,
      "user": "Markus59",
      "uid": 39457,
      "tags": {
        "amenity": "bar",
        "name": "La Vinagrera"
      }
    },
    {
      "type": "node",
      "id": 903039507,
      "lat": 28.3803656,
      "lon": -16.686718,
      "timestamp": "2014-07-14T13:39:32Z",
      "version": 4,
      "changeset": 24140920,
      "user": "tiger",
      "uid": 338866,
      "tags": {
        "amenity": "pub",
        "name": "Big Ben"
      }
    },
    {
      "type": "node",
      "id": 903039542,
      "lat": 28.36756,
      "lon": -16.8342863,
      "timestamp": "2010-09-08T17:09:43Z",
      "version": 1,
      "changeset": 5725903,
      "user": "tiger",
      "uid": 338866,
      "tags": {
        "amenity": "bar",
        "name": "La Caldera"
      }
    },
    {
      "type": "node",
      "id": 903039621,
      "lat": 28.3789738,
      "lon": -16.6946283,
      "timestamp": "2010-10-29T19:41:20Z",
      "version": 2,
      "changeset": 6221684,
      "user": "tiger",
      "uid": 338866,
      "tags": {
        "amenity": "bar",
        "name": "El Guanche"
      }
    },
    {
      "type": "node",
      "id": 903039734,
      "lat": 28.2669226,
      "lon": -16.8206612,
      "timestamp": "2015-10-13T17:49:53Z",
      "version": 4,
      "changeset": 34617838,
      "user": "catastro_santa_cruz_de_tenerife",
      "uid": 617065,
      "tags": {
        "amenity": "pub",
        "name": "Tindaya",
        "source": "survey"
      }
    },
    {
      "type": "node",
      "id": 903039781,
      "lat": 28.50356,
      "lon": -16.192779,
      "timestamp": "2024-06-30T11:28:40Z",
      "version": 4,
      "changeset": 153364726,
      "user": "mapmanMUC",
      "uid": 1438376,
      "tags": {
        "amenity": "bar",
        "name": "Los Churritos"
      }
    },
    {
      "type": "node",
      "id": 903039855,
      "lat": 28.5048587,
      "lon": -16.1934818,
      "timestamp": "2010-09-08T17:09:49Z",
      "version": 1,
      "changeset": 5725903,
      "user": "tiger",
      "uid": 338866,
      "tags": {
        "amenity": "bar",
        "name": "El Chorro",
        "source": "survey"
      }
    },
    {
      "type": "node",
      "id": 903039996,
      "lat": 28.3980819,
      "lon": -16.575666,
      "timestamp": "2010-09-08T17:09:52Z",
      "version": 1,
      "changeset": 5725903,
      "user": "tiger",
      "uid": 338866,
      "tags": {
        "amenity": "bar",
        "name": "El Pepito"
      }
    },
    {
      "type": "node",
      "id": 903040027,
      "lat": 28.3655429,
      "lon": -16.8178497,
      "timestamp": "2023-02-12T13:50:06Z",
      "version": 12,
      "changeset": 132444273,
      "user": "wheelmap_visitor",
      "uid": 290680,
      "tags": {
        "addr:city": "Los Silos",
        "addr:housenumber": "2",
        "addr:postcode": "38470",
        "addr:street": "Calle Félix Benítez de Lugo",
        "amenity": "bar",
        "indoor_seating": "yes",
        "name": "La Luz",
        "opening_hours": "Tu-Sa 06:00-23:00",
        "outdoor_seating": "yes",
        "phone": "+34 922 120 038",
        "source": "survey",
        "toilets:wheelchair": "yes",
        "wheelchair": "yes"
      }
    },
    {
      "type": "node",
      "id": 903040066,
      "lat": 28.1401888,
      "lon": -16.7567781,
      "timestamp": "2011-01-19T10:36:32Z",
      "version": 2,
      "changeset": 7019051,
      "user": "tiger",
      "uid": 338866,
      "tags": {
        "amenity": "bar",
        "name": "El Volante"
      }
    },
    {
      "type": "node",
      "id": 903040072,
      "lat": 28.3805981,
      "lon": -16.6849118,
      "timestamp": "2011-05-20T15:41:52Z",
      "version": 2,
      "changeset": 8199766,
      "user": "tiger",
      "uid": 338866,
      "tags": {
        "amenity": "bar",
        "name": "El Parralito",
        "source": "survey"
      }
    },
    {
      "type": "node",
      "id": 903040122,
      "lat": 28.3713391,
      "lon": -16.7675622,
      "timestamp": "2012-12-19T17:58:42Z",
      "version": 2,
      "changeset": 14333240,
      "user": "tiger",
      "uid": 338866,
      "tags": {
        "amenity": "bar",
        "name": "Bahia"
      }
    },
    {
      "type": "node",
      "id": 903040138,
      "lat": 28.0976477,
      "lon": -16.6176141,
      "timestamp": "2010-09-08T17:09:55Z",
      "version": 1,
      "changeset": 5725903,
      "user": "tiger",
      "uid": 338866,
      "tags": {
        "amenity": "bar",
        "name": "Vera Cruz"
      }
    },
    {
      "type": "node",
      "id": 903958775,
      "lat": 28.4128209,
      "lon": -16.557293,
      "timestamp": "2023-12-30T17:42:08Z",
      "version": 6,
      "changeset": 145707099,
      "user": "CorruptComputer",
      "uid": 11398339,
      "tags": {
        "amenity": "bar",
        "billiards:pool": "yes",
        "name": "Billares Garviana",
        "sport": "billiards"
      }
    },
    {
      "type": "node",
      "id": 903958784,
      "lat": 28.4123533,
      "lon": -16.5574636,
      "timestamp": "2011-12-06T21:55:39Z",
      "version": 2,
      "changeset": 10054037,
      "user": "ottokar55",
      "uid": 101355,
      "tags": {
        "amenity": "bar",
        "name": "Los Gorreros"
      }
    },
    {
      "type": "node",
      "id": 914385605,
      "lat": 28.4670564,
      "lon": -16.2486477,
      "timestamp": "2018-01-05T22:44:02Z",
      "version": 7,
      "changeset": 55199809,
      "user": "Javier Sanchez",
      "uid": 47882,
      "tags": {
        "amenity": "pub",
        "name": "Lizarran",
        "outdoor_seating": "yes",
        "shop": "butcher",
        "wheelchair": "yes"
      }
    },
    {
      "type": "node",
      "id": 916215900,
      "lat": 28.4927951,
      "lon": -16.314337,
      "timestamp": "2010-09-27T18:23:45Z",
      "version": 4,
      "changeset": 5894216,
      "user": "Envite",
      "uid": 41695,
      "tags": {
        "addr:housenumber": "2",
        "amenity": "bar",
        "name": "Cafetería Goya",
        "source": "local_knowledge"
      }
    },
    {
      "type": "node",
      "id": 929266818,
      "lat": 28.3783364,
      "lon": -16.5109763,
      "timestamp": "2011-04-02T06:49:23Z",
      "version": 2,
      "changeset": 7741368,
      "user": "tiger",
      "uid": 338866,
      "tags": {
        "amenity": "bar",
        "name": "Malagueña"
      }
    },
    {
      "type": "node",
      "id": 929267514,
      "lat": 28.38857,
      "lon": -16.5116339,
      "timestamp": "2010-11-01T15:54:40Z",
      "version": 2,
      "changeset": 6256457,
      "user": "tiger",
      "uid": 338866,
      "tags": {
        "amenity": "bar",
        "name": "Juncar Drago"
      }
    },
    {
      "type": "node",
      "id": 930192138,
      "lat": 28.3696565,
      "lon": -16.8488541,
      "timestamp": "2014-01-22T11:53:59Z",
      "version": 3,
      "changeset": 20139865,
      "user": "EfrainGeo",
      "uid": 1653594,
      "tags": {
        "amenity": "bar",
        "name": "Rincón del Norte"
      }
    },
    {
      "type": "node",
      "id": 932145366,
      "lat": 28.4981134,
      "lon": -16.412594,
      "timestamp": "2010-09-30T19:16:24Z",
      "version": 1,
      "changeset": 5922627,
      "user": "tiger",
      "uid": 338866,
      "tags": {
        "amenity": "bar",
        "name": "Club Parque"
      }
    },
    {
      "type": "node",
      "id": 932145371,
      "lat": 28.4761577,
      "lon": -16.4159952,
      "timestamp": "2014-12-06T10:41:54Z",
      "version": 3,
      "changeset": 27286216,
      "user": "tiger",
      "uid": 338866,
      "tags": {
        "amenity": "bar",
        "name": "Bahia Roja"
      }
    },
    {
      "type": "node",
      "id": 937701358,
      "lat": 28.4881922,
      "lon": -16.3229753,
      "timestamp": "2014-01-03T12:10:33Z",
      "version": 2,
      "changeset": 19785232,
      "user": "Javier Sanchez",
      "uid": 47882,
      "tags": {
        "amenity": "bar",
        "name": "Mi Hermano"
      }
    },
    {
      "type": "node",
      "id": 938615693,
      "lat": 28.2116256,
      "lon": -16.7815703,
      "timestamp": "2015-09-01T08:01:33Z",
      "version": 3,
      "changeset": 33720343,
      "user": "Javier Sanchez",
      "uid": 47882,
      "tags": {
        "amenity": "bar",
        "name": "Eclipse"
      }
    },
    {
      "type": "node",
      "id": 938615700,
      "lat": 28.2161463,
      "lon": -16.7678346,
      "timestamp": "2015-06-16T13:31:57Z",
      "version": 2,
      "changeset": 32006611,
      "user": "catastro_santa_cruz_de_tenerife",
      "uid": 617065,
      "tags": {
        "amenity": "bar",
        "name": "Aripe"
      }
    },
    {
      "type": "node",
      "id": 943476558,
      "lat": 28.3565529,
      "lon": -16.7796481,
      "timestamp": "2014-12-06T10:49:22Z",
      "version": 3,
      "changeset": 27286216,
      "user": "tiger",
      "uid": 338866,
      "tags": {
        "amenity": "bar",
        "name": "Verode"
      }
    },
    {
      "type": "node",
      "id": 945024319,
      "lat": 28.6872221,
      "lon": -17.7613611,
      "timestamp": "2025-10-19T09:58:32Z",
      "version": 10,
      "changeset": 173482896,
      "user": "Eleder",
      "uid": 21863161,
      "tags": {
        "amenity": "bar",
        "brewery": "yes",
        "check_date": "2025-10-19",
        "check_date:opening_hours": "2025-10-19",
        "cuisine": "spanish;local;arepa",
        "name": "Bar Arepera El Encuentro",
        "opening_hours:signed": "no",
        "outdoor_seating": "yes",
        "payment:mastercard": "yes",
        "payment:visa": "yes",
        "wheelchair": "no"
      }
    },
    {
      "type": "node",
      "id": 945025443,
      "lat": 28.6794147,
      "lon": -17.7668925,
      "timestamp": "2025-01-28T17:17:26Z",
      "version": 4,
      "changeset": 161865920,
      "user": "Eleder",
      "uid": 21863161,
      "tags": {
        "amenity": "pub",
        "check_date": "2025-01-28",
        "name": "El rincon de carol"
      }
    },
    {
      "type": "node",
      "id": 945064622,
      "lat": 28.5728667,
      "lon": -17.8994894,
      "timestamp": "2025-08-27T11:57:02Z",
      "version": 7,
      "changeset": 171076597,
      "user": "mcliquid",
      "uid": 1213571,
      "tags": {
        "amenity": "pub",
        "indoor_seating": "no",
        "name": "Kiosco Charco Verde",
        "opening_hours": "Th-Tu 13:00-18:00",
        "outdoor_seating": "yes",
        "wheelchair": "yes"
      }
    },
    {
      "type": "node",
      "id": 945125376,
      "lat": 28.5861839,
      "lon": -17.9100524,
      "timestamp": "2019-01-03T17:39:57Z",
      "version": 5,
      "changeset": 65996605,
      "user": "navajo72",
      "uid": 313117,
      "tags": {
        "addr:city": "Puerto Naos",
        "addr:housenumber": "23",
        "addr:postcode": "38760",
        "addr:street": "Paseo Marítimo",
        "amenity": "pub",
        "ele": "5",
        "name": "Laly's Bar El Bucanero",
        "opening_hours": "Mo off",
        "smoking": "outside",
        "wheelchair": "yes"
      }
    },
    {
      "type": "node",
      "id": 945125380,
      "lat": 28.5924076,
      "lon": -17.9176053,
      "timestamp": "2010-10-11T13:51:02Z",
      "version": 1,
      "changeset": 6011873,
      "user": "Leffgar",
      "uid": 102715,
      "tags": {
        "amenity": "pub"
      }
    },
    {
      "type": "node",
      "id": 945125386,
      "lat": 28.5874475,
      "lon": -17.9100408,
      "timestamp": "2025-10-07T12:14:49Z",
      "version": 4,
      "changeset": 172956676,
      "user": "JaapD",
      "uid": 2135592,
      "tags": {
        "amenity": "pub",
        "check_date": "2025-10-07",
        "name": "Bar Resbel"
      }
    },
    {
      "type": "node",
      "id": 945649367,
      "lat": 28.7733193,
      "lon": -17.978241,
      "timestamp": "2019-02-03T10:33:02Z",
      "version": 3,
      "changeset": 66873161,
      "user": "TM2404",
      "uid": 8332047,
      "tags": {
        "addr:city": "Puntagorda",
        "addr:housenumber": "27",
        "addr:postcode": "38789",
        "addr:street": "Camino El Pinar",
        "amenity": "bar",
        "name": "Bar La Brasa"
      }
    },
    {
      "type": "node",
      "id": 945766953,
      "lat": 28.651263,
      "lon": -17.7595073,
      "timestamp": "2013-11-03T17:38:47Z",
      "version": 2,
      "changeset": 18698297,
      "user": "Geofreund1",
      "uid": 179581,
      "tags": {
        "amenity": "pub"
      }
    },
    {
      "type": "node",
      "id": 946481211,
      "lat": 28.585749,
      "lon": -17.8802613,
      "timestamp": "2013-11-23T16:22:35Z",
      "version": 2,
      "changeset": 19074813,
      "user": "Wandern La Palma",
      "uid": 333510,
      "tags": {
        "amenity": "bar",
        "name": "Bar Jedey"
      }
    },
    {
      "type": "node",
      "id": 946484787,
      "lat": 28.6509498,
      "lon": -17.8805211,
      "timestamp": "2022-01-03T13:16:32Z",
      "version": 4,
      "changeset": 115711265,
      "user": "qpeso",
      "uid": 64557,
      "tags": {
        "amenity": "bar"
      }
    },
    {
      "type": "node",
      "id": 947003153,
      "lat": 28.2393183,
      "lon": -16.8441173,
      "timestamp": "2014-10-18T17:39:49Z",
      "version": 4,
      "changeset": 26174896,
      "user": "nlehuby",
      "uid": 1424448,
      "tags": {
        "amenity": "bar",
        "brewery": "John Smith's;Heineken",
        "name": "Route 66"
      }
    },
    {
      "type": "node",
      "id": 957014906,
      "lat": 28.0556439,
      "lon": -16.7308581,
      "timestamp": "2010-10-19T12:18:56Z",
      "version": 1,
      "changeset": 6098100,
      "user": "GourmetClubTenerife",
      "uid": 360542,
      "tags": {
        "amenity": "bar",
        "name": "Harveys"
      }
    },
    {
      "type": "node",
      "id": 957165082,
      "lat": 28.0606257,
      "lon": -16.7325653,
      "timestamp": "2024-12-14T11:45:04Z",
      "version": 3,
      "changeset": 160276745,
      "user": "Danysan95",
      "uid": 4425563,
      "tags": {
        "amenity": "pub",
        "check_date": "2024-12-14",
        "name": "the gaelic corner"
      }
    },
    {
      "type": "node",
      "id": 966082708,
      "lat": 28.0606638,
      "lon": -16.7328001,
      "timestamp": "2024-12-14T11:45:04Z",
      "version": 3,
      "changeset": 160276745,
      "user": "Danysan95",
      "uid": 4425563,
      "tags": {
        "amenity": "pub",
        "check_date": "2024-12-14",
        "name": "Manneke Pis"
      }
    },
    {
      "type": "node",
      "id": 986612031,
      "lat": 28.0578948,
      "lon": -16.7291674,
      "timestamp": "2010-11-12T14:20:01Z",
      "version": 1,
      "changeset": 6351151,
      "user": "GourmetClubTenerife",
      "uid": 360542,
      "tags": {
        "amenity": "bar",
        "name": "OMM"
      }
    },
    {
      "type": "node",
      "id": 988866128,
      "lat": 27.754023,
      "lon": -15.5685863,
      "timestamp": "2023-09-03T16:36:43Z",
      "version": 8,
      "changeset": 140767188,
      "user": "spacer1971",
      "uid": 11008,
      "tags": {
        "addr:housenumber": "24",
        "addr:street": "Paseo Costa Canaria",
        "amenity": "bar",
        "email": "tipsy.hammockbar@gmail.com",
        "name": "Tipsy Hammock",
        "name:en": "Tipsy Hammock cocktailbar",
        "outdoor_seating": "yes",
        "phone": "+34621278718",
        "website": "https://www.tipsyhammock.eu/"
      }
    },
    {
      "type": "node",
      "id": 1003634586,
      "lat": 28.0505639,
      "lon": -14.3523389,
      "timestamp": "2010-11-25T11:57:05Z",
      "version": 2,
      "changeset": 6453907,
      "user": "MTB54",
      "uid": 39726,
      "tags": {
        "amenity": "pub",
        "name": "Bodega"
      }
    },
    {
      "type": "node",
      "id": 1011494473,
      "lat": 27.641054,
      "lon": -17.9806539,
      "timestamp": "2021-10-20T07:57:07Z",
      "version": 5,
      "changeset": 112730980,
      "user": "wicking",
      "uid": 102755,
      "tags": {
        "amenity": "pub",
        "level": "0",
        "name": "El Rincón",
        "outdoor_seating": "yes"
      }
    },
    {
      "type": "node",
      "id": 1011494725,
      "lat": 27.6416363,
      "lon": -17.9808225,
      "timestamp": "2018-04-22T20:55:39Z",
      "version": 3,
      "changeset": 58320437,
      "user": "wicking",
      "uid": 102755,
      "tags": {
        "amenity": "pub",
        "name": "Zumería La Restinga",
        "phone": "+34686648604"
      }
    },
    {
      "type": "node",
      "id": 1011494770,
      "lat": 27.6413658,
      "lon": -17.9806518,
      "timestamp": "2010-11-28T19:44:12Z",
      "version": 1,
      "changeset": 6481471,
      "user": "MHolz",
      "uid": 259295,
      "tags": {
        "amenity": "pub",
        "name": "Bar Principal"
      }
    },
    {
      "type": "node",
      "id": 1065182272,
      "lat": 28.3755762,
      "lon": -16.7959629,
      "timestamp": "2010-12-26T09:32:58Z",
      "version": 1,
      "changeset": 6766240,
      "user": "tiger",
      "uid": 338866,
      "tags": {
        "amenity": "bar",
        "name": "El Rubio",
        "source": "survey"
      }
    },